[{"id": "-YCuW9srGstW2FiIroDjQw", "alias": "locanda-saunderstown", "name": "Locanda", "image_url": "https://s3-media2.fl.yelpcdn.com/bphoto/aUcMKgBs_6M7XXnk0NpXFA/o.jpg", "is_closed": false, "url": "https://www.yelp.com/biz/locanda-saunderstown?adjust_creative=HbGs3gi3xS-SfqfxZRDuCw&utm_campaign=yelp_api_v3&utm_medium=api_v3_business_search&utm_source=HbGs3gi3xS-SfqfxZRDuCw", "review_count": 9, "categories": [{"alias": "italian", "title": "Italian"}], "rating": 5.0, "coordinates": {"latitude": 41.495993, "longitude": -71.458172}, "transactions": [], "location": {"address1": "3009 Tower Hill Rd", "address2": "", "address3": null, "city": "Saunderstown", "zip_code": "02874", "country": "US", "state": "RI", "display_address": ["3009 Tower Hill Rd", "Saunderstown, RI 02874"]}, "phone": "+14016619380", "display_phone": "(401) 661-9380", "distance": 5621.856782111531}, {"id": "ko5_fvafUrT6tyi7moefgA", "alias": "jayd-bun-south-kingstown", "name": "Jayd Bun", "image_url": "https://s3-media1.fl.yelpcdn.com/bphoto/Zq4m8iMTnJL3c5AnIKPuZg/o.jpg", "is_closed": false, "url": "https://www.yelp.com/biz/jayd-bun-south-kingstown?adjust_creative=HbGs3gi3xS-SfqfxZRDuCw&utm_campaign=yelp_api_v3&utm_medium=api_v3_business_search&utm_source=HbGs3gi3xS-SfqfxZRDuCw", "review_count": 20, "categories": [{"alias": "chinese", "title": "Chinese"}], "rating": 5.0, "coordinates": {"latitude": 41.45085, "longitude": -71.4990648}, "transactions": [], "location": {"address1": "1202 Kingstown Rd", "address2": null, "address3": "", "city": "South Kingstown", "zip_code": "02879", "country": "US", "state": "RI", "display_address": ["1202 Kingstown Rd", "South Kingstown, RI 02879"]}, "phone": "+14015157900", "display_phone": "(401) 515-7900", "distance": 3854.399572456612}, {"id": "rCR2-CbyuxntsRAAGtfGwg", "alias": "tillys-cheesesteaks-west-kingston", "name": "Tilly's Cheesesteaks", "image_url": "https://s3-media3.fl.yelpcdn.com/bphoto/kBdwxxiuskUi3pOhVL9J0w/o.jpg", "is_closed": false, "url": "https://www.yelp.com/biz/tillys-cheesesteaks-west-kingston?adjust_creative=HbGs3gi3xS-SfqfxZRDuCw&utm_campaign=yelp_api_v3&utm_medium=api_v3_business_search&utm_source=HbGs3gi3xS-SfqfxZRDuCw", "review_count": 261, "categories": [{"alias": "cheesesteaks", "title": "Cheesesteaks"}, {"alias": "newamerican", "title": "American (New)"}, {"alias": "sandwiches", "title": "Sandwiches"}], "rating": 4.0, "coordinates": {"latitude": 41.485976, "longitude": -71.563709}, "transactions": [], "price": "$$", "location": {"address1": "3711 Kingstown Rd", "address2": "", "address3": null, "city": "West Kingston", "zip_code": "02892", "country": "US", "state": "RI", "display_address": ["3711 Kingstown Rd", "West Kingston, RI 02892"]}, "phone": "+14017837711", "display_phone": "(401) 783-7711", "distance": 3491.5366552422374}, {"id": "aAOKVHk-fi5ZMh64NVny3Q", "alias": "tavern-on-main-wakefield", "name": "Tavern On Main", "image_url": "https://s3-media2.fl.yelpcdn.com/bphoto/UbxxTgCs7kywVW1u_8Y0zg/o.jpg", "is_closed": false, "url": "https://www.yelp.com/biz/tavern-on-main-wakefield?adjust_creative=HbGs3gi3xS-SfqfxZRDuCw&utm_campaign=yelp_api_v3&utm_medium=api_v3_business_search&utm_source=HbGs3gi3xS-SfqfxZRDuCw", "review_count": 117, "categories": [{"alias": "newamerican", "title": "American (New)"}, {"alias": "bars", "title": "Bars"}], "rating": 4.5, "coordinates": {"latitude": 41.441, "longitude": -71.4957}, "transactions": [], "price": "$$", "location": {"address1": "195 Main St", "address2": "", "address3": null, "city": "Wakefield", "zip_code": "02879", "country": "US", "state": "RI", "display_address": ["195 Main St", "Wakefield, RI 02879"]}, "phone": "+14014729240", "display_phone": "(401) 472-9240", "distance": 4957.683718110365}, {"id": "eu7wCBmyraR_b-FGCz8SXw", "alias": "twoten-oyster-bar-and-grill-south-kingstown-5", "name": "TwoTen Oyster Bar & Grill", "image_url": "https://s3-media3.fl.yelpcdn.com/bphoto/CA1vxjI05ZGfbxKhCfsM7w/o.jpg", "is_closed": false, "url": "https://www.yelp.com/biz/twoten-oyster-bar-and-grill-south-kingstown-5?adjust_creative=HbGs3gi3xS-SfqfxZRDuCw&utm_campaign=yelp_api_v3&utm_medium=api_v3_business_search&utm_source=HbGs3gi3xS-SfqfxZRDuCw", "review_count": 571, "categories": [{"alias": "seafood", "title": "Seafood"}, {"alias": "gluten_free", "title": "Gluten-Free"}], "rating": 4.0, "coordinates": {"latitude": 41.427676, "longitude": -71.496196}, "transactions": ["pickup"], "price": "$$", "location": {"address1": "210 Salt Pond Rd", "address2": null, "address3": "", "city": "South Kingstown", "zip_code": "02879", "country": "US", "state": "RI", "display_address": ["210 Salt Pond Rd", "South Kingstown, RI 02879"]}, "phone": "+14017820100", "display_phone": "(401) 782-0100", "distance": 6296.254812064409}, {"id": "hK7HjLnyxK4wA-rC3LErJw", "alias": "coast-guard-house-narragansett", "name": "Coast Guard House", "image_url": "https://s3-media3.fl.yelpcdn.com/bphoto/W3bYq9yAfzNXAIQO0FCAYQ/o.jpg", "is_closed": false, "url": "https://www.yelp.com/biz/coast-guard-house-narragansett?adjust_creative=HbGs3gi3xS-SfqfxZRDuCw&utm_campaign=yelp_api_v3&utm_medium=api_v3_business_search&utm_source=HbGs3gi3xS-SfqfxZRDuCw", "review_count": 547, "categories": [{"alias": "seafood", "title": "Seafood"}, {"alias": "newamerican", "title": "American (New)"}, {"alias": "soup", "title": "Soup"}], "rating": 4.0, "coordinates": {"latitude": 41.43021, "longitude": -71.4555}, "transactions": [], "price": "$$", "location": {"address1": "40 Ocean Rd", "address2": "", "address3": "", "city": "Narragansett", "zip_code": "02882", "country": "US", "state": "RI", "display_address": ["40 Ocean Rd", "Narragansett, RI 02882"]}, "phone": "+14017890700", "display_phone": "(401) 789-0700", "distance": 7931.938932953484}, {"id": "JNkms_qiTX8ZObYZkB_6nQ", "alias": "simply-thai-kingston", "name": "Simply Thai", "image_url": "https://s3-media4.fl.yelpcdn.com/bphoto/d3JKsCP6aB0GmA04PnSZOA/o.jpg", "is_closed": false, "url": "https://www.yelp.com/biz/simply-thai-kingston?adjust_creative=HbGs3gi3xS-SfqfxZRDuCw&utm_campaign=yelp_api_v3&utm_medium=api_v3_business_search&utm_source=HbGs3gi3xS-SfqfxZRDuCw", "review_count": 53, "categories": [{"alias": "thai", "title": "Thai"}], "rating": 4.0, "coordinates": {"latitude": 41.485233977437, "longitude": -71.5237265825272}, "transactions": [], "price": "$", "location": {"address1": "99 Fortin Rd", "address2": "", "address3": "", "city": "Kingston", "zip_code": "02881", "country": "US", "state": "RI", "display_address": ["99 Fortin Rd", "Kingston, RI 02881"]}, "phone": "+14012844594", "display_phone": "(401) 284-4594", "distance": 546.9263301681805}, {"id": "jKVKw6wKHeeg18WzJNLGDQ", "alias": "international-pocket-cafe-kingston-kingston", "name": "International Pocket Cafe Kingston", "image_url": "https://s3-media2.fl.yelpcdn.com/bphoto/1VXpW4AtJNJ2LM5JCt6B_Q/o.jpg", "is_closed": false, "url": "https://www.yelp.com/biz/international-pocket-cafe-kingston-kingston?adjust_creative=HbGs3gi3xS-SfqfxZRDuCw&utm_campaign=yelp_api_v3&utm_medium=api_v3_business_search&utm_source=HbGs3gi3xS-SfqfxZRDuCw", "review_count": 47, "categories": [{"alias": "mediterranean", "title": "Mediterranean"}, {"alias": "cafes", "title": "Cafes"}, {"alias": "mideastern", "title": "Middle Eastern"}], "rating": 3.5, "coordinates": {"latitude": 41.4803791, "longitude": -71.5225598}, "transactions": ["pickup", "delivery"], "price": "$", "location": {"address1": "99 Fortin Rd", "address2": "", "address3": "URI Emporium", "city": "Kingston", "zip_code": "02881", "country": "US", "state": "RI", "display_address": ["99 Fortin Rd", "URI Emporium", "Kingston, RI 02881"]}, "phone": "+14017822720", "display_phone": "(401) 782-2720", "distance": 48.69248324562989}, {"id": "pm_Oz84nhpwGn-TNydB3bw", "alias": "krazy-fusion-cafe-uri-kingston", "name": "Krazy Fusion Cafe URI", "image_url": "https://s3-media3.fl.yelpcdn.com/bphoto/iiePJHE3-OhD5CwozvC9lA/o.jpg", "is_closed": false, "url": "https://www.yelp.com/biz/krazy-fusion-cafe-uri-kingston?adjust_creative=HbGs3gi3xS-SfqfxZRDuCw&utm_campaign=yelp_api_v3&utm_medium=api_v3_business_search&utm_source=HbGs3gi3xS-SfqfxZRDuCw", "review_count": 19, "categories": [{"alias": "korean", "title": "Korean"}, {"alias": "japanese", "title": "Japanese"}, {"alias": "bubbletea", "title": "Bubble Tea"}], "rating": 4.0, "coordinates": {"latitude": 41.485728, "longitude": -71.523827}, "transactions": [], "price": "$$", "location": {"address1": "99 Fortin Rd", "address2": "Unit 104", "address3": "", "city": "Kingston", "zip_code": "02881", "country": "US", "state": "RI", "display_address": ["99 Fortin Rd", "Unit 104", "Kingston, RI 02881"]}, "phone": "+14013639777", "display_phone": "(401) 363-9777", "distance": 562.0069140527954}, {"id": "qH_TLhhmiDG0r-sMb70q0A", "alias": "mama-phoenix-cafe-south-kingstown", "name": "Mama Phoenix Cafe", "image_url": "https://s3-media3.fl.yelpcdn.com/bphoto/Js7nKFdAWViFNLVBqUDRIQ/o.jpg", "is_closed": false, "url": "https://www.yelp.com/biz/mama-phoenix-cafe-south-kingstown?adjust_creative=HbGs3gi3xS-SfqfxZRDuCw&utm_campaign=yelp_api_v3&utm_medium=api_v3_business_search&utm_source=HbGs3gi3xS-SfqfxZRDuCw", "review_count": 4, "categories": [{"alias": "breakfast_brunch", "title": "Breakfast & Brunch"}], "rating": 4.5, "coordinates": {"latitude": 41.48524, "longitude": -71.52316}, "transactions": [], "location": {"address1": "99 Fortin Rd", "address2": null, "address3": "", "city": "South Kingstown", "zip_code": "02881", "country": "US", "state": "RI", "display_address": ["99 Fortin Rd", "South Kingstown, RI 02881"]}, "phone": "+14012840037", "display_phone": "(401) 284-0037", "distance": 533.9632262231386}, {"id": "xCLNuG4SW6FoFY0I79O_3g", "alias": "pasquales-pizzeria-napulitana-south-kingstown", "name": "Pasquale's Pizzeria Napulitana", "image_url": "https://s3-media3.fl.yelpcdn.com/bphoto/e88e2JoAq-Oi_Sr6hteG4A/o.jpg", "is_closed": false, "url": "https://www.yelp.com/biz/pasquales-pizzeria-napulitana-south-kingstown?adjust_creative=HbGs3gi3xS-SfqfxZRDuCw&utm_campaign=yelp_api_v3&utm_medium=api_v3_business_search&utm_source=HbGs3gi3xS-SfqfxZRDuCw", "review_count": 255, "categories": [{"alias": "pizza", "title": "Pizza"}], "rating": 4.0, "coordinates": {"latitude": 41.455652, "longitude": -71.4709914}, "transactions": [], "price": "$$", "location": {"address1": "60 South County Commons Way", "address2": null, "address3": "", "city": "South Kingstown", "zip_code": "02879", "country": "US", "state": "RI", "display_address": ["60 South County Commons Way", "South Kingstown, RI 02879"]}, "phone": "+14017832900", "display_phone": "(401) 783-2900", "distance": 5112.816724539893}, {"id": "J8d2VcN-B13bRmk_CgbCKw", "alias": "cowabunga-south-kingstown", "name": "Cowabunga", "image_url": "https://s3-media4.fl.yelpcdn.com/bphoto/bSJ-YgeHQvWCd_EHcDSgtw/o.jpg", "is_closed": false, "url": "https://www.yelp.com/biz/cowabunga-south-kingstown?adjust_creative=HbGs3gi3xS-SfqfxZRDuCw&utm_campaign=yelp_api_v3&utm_medium=api_v3_business_search&utm_source=HbGs3gi3xS-SfqfxZRDuCw", "review_count": 9, "categories": [{"alias": "sandwiches", "title": "Sandwiches"}, {"alias": "juicebars", "title": "Juice Bars & Smoothies"}, {"alias": "wraps", "title": "Wraps"}], "rating": 4.5, "coordinates": {"latitude": 41.438761542803, "longitude": -71.4985802024603}, "transactions": [], "location": {"address1": "254 Robinson St", "address2": "", "address3": null, "city": "South Kingstown", "zip_code": "02879", "country": "US", "state": "RI", "display_address": ["254 Robinson St", "South Kingstown, RI 02879"]}, "phone": "+14012279333", "display_phone": "(401) 227-9333", "distance": 5076.739162777506}, {"id": "pLeheoa8RJs5Ht9yZai5Eg", "alias": "the-flatts-south-kingstown-3", "name": "The Flatts", "image_url": "https://s3-media2.fl.yelpcdn.com/bphoto/dsOS_nR-AAs5xW0Wck8klA/o.jpg", "is_closed": false, "url": "https://www.yelp.com/biz/the-flatts-south-kingstown-3?adjust_creative=HbGs3gi3xS-SfqfxZRDuCw&utm_campaign=yelp_api_v3&utm_medium=api_v3_business_search&utm_source=HbGs3gi3xS-SfqfxZRDuCw", "review_count": 40, "categories": [{"alias": "bbq", "title": "Barbeque"}, {"alias": "tradamerican", "title": "American (Traditional)"}, {"alias": "smokehouse", "title": "Smokehouse"}], "rating": 4.0, "coordinates": {"latitude": 41.4502042344785, "longitude": -71.5007029848932}, "transactions": [], "location": {"address1": "501 High St", "address2": "", "address3": null, "city": "South Kingstown", "zip_code": "02879", "country": "US", "state": "RI", "display_address": ["501 High St", "South Kingstown, RI 02879"]}, "phone": "+14017893528", "display_phone": "(401) 789-3528", "distance": 3850.7473051572333}, {"id": "K2inRpuXvcbhR_vN_IFNOQ", "alias": "cantina-del-rio-south-kingstown", "name": "Cantina del Rio", "image_url": "https://s3-media2.fl.yelpcdn.com/bphoto/rX71ePSFG6WmaWkLH6CGDQ/o.jpg", "is_closed": false, "url": "https://www.yelp.com/biz/cantina-del-rio-south-kingstown?adjust_creative=HbGs3gi3xS-SfqfxZRDuCw&utm_campaign=yelp_api_v3&utm_medium=api_v3_business_search&utm_source=HbGs3gi3xS-SfqfxZRDuCw", "review_count": 38, "categories": [{"alias": "salad", "title": "Salad"}, {"alias": "mexican", "title": "Mexican"}], "rating": 2.5, "coordinates": {"latitude": 41.4386542075887, "longitude": -71.4862994964226}, "transactions": [], "location": {"address1": "515 Kingstown Rd", "address2": "", "address3": null, "city": "South Kingstown", "zip_code": "02879", "country": "US", "state": "RI", "display_address": ["515 Kingstown Rd", "South Kingstown, RI 02879"]}, "phone": "+14017831910", "display_phone": "(401) 783-1910", "distance": 5566.8428793306175}, {"id": "ukAnp3TOf8rSbooJwgNNBg", "alias": "chophouse-grille-wakefield", "name": "ChopHouse Grille", "image_url": "https://s3-media3.fl.yelpcdn.com/bphoto/-KN-vxz9YlDQVsLuklaG1A/o.jpg", "is_closed": false, "url": "https://www.yelp.com/biz/chophouse-grille-wakefield?adjust_creative=HbGs3gi3xS-SfqfxZRDuCw&utm_campaign=yelp_api_v3&utm_medium=api_v3_business_search&utm_source=HbGs3gi3xS-SfqfxZRDuCw", "review_count": 180, "categories": [{"alias": "newamerican", "title": "American (New)"}, {"alias": "steak", "title": "Steakhouses"}, {"alias": "seafood", "title": "Seafood"}], "rating": 4.0, "coordinates": {"latitude": 41.44204, "longitude": -71.48126}, "transactions": [], "price": "$$", "location": {"address1": "191 Old Tower Hill Rd", "address2": "", "address3": "", "city": "Wakefield", "zip_code": "02879", "country": "US", "state": "RI", "display_address": ["191 Old Tower Hill Rd", "Wakefield, RI 02879"]}, "phone": "+14012840797", "display_phone": "(401) 284-0797", "distance": 5509.135888545545}, {"id": "PNvu2b-ECC2xvnkpaTlE3g", "alias": "eat-style-south-kingstown", "name": "Eat Style", "image_url": "https://s3-media3.fl.yelpcdn.com/bphoto/f6es0eA2Z7DT2USn4iOcAg/o.jpg", "is_closed": false, "url": "https://www.yelp.com/biz/eat-style-south-kingstown?adjust_creative=HbGs3gi3xS-SfqfxZRDuCw&utm_campaign=yelp_api_v3&utm_medium=api_v3_business_search&utm_source=HbGs3gi3xS-SfqfxZRDuCw", "review_count": 1, "categories": [{"alias": "ramen", "title": "Ramen"}, {"alias": "bubbletea", "title": "Bubble Tea"}], "rating": 2.0, "coordinates": {"latitude": 41.4860989136541, "longitude": -71.5243707638999}, "transactions": [], "location": {"address1": "99 Fortin Rd", "address2": "Ste 122", "address3": null, "city": "South Kingstown", "zip_code": "02881", "country": "US", "state": "RI", "display_address": ["99 Fortin Rd", "Ste 122", "South Kingstown, RI 02881"]}, "phone": "+14013639100", "display_phone": "(401) 363-9100", "distance": 613.0806598539888}, {"id": "PbW_zsCIfhQj-I4y6RB-_w", "alias": "caliente-mexican-kingston", "name": "Caliente Mexican", "image_url": "https://s3-media2.fl.yelpcdn.com/bphoto/t_EjkZVtf-5aNy22xW5Vsg/o.jpg", "is_closed": false, "url": "https://www.yelp.com/biz/caliente-mexican-kingston?adjust_creative=HbGs3gi3xS-SfqfxZRDuCw&utm_campaign=yelp_api_v3&utm_medium=api_v3_business_search&utm_source=HbGs3gi3xS-SfqfxZRDuCw", "review_count": 44, "categories": [{"alias": "mexican", "title": "Mexican"}], "rating": 3.5, "coordinates": {"latitude": 41.485893, "longitude": -71.524219}, "transactions": ["pickup"], "price": "$", "location": {"address1": "99 Fortin Rd", "address2": null, "address3": "Kingston Emporium", "city": "Kingston", "zip_code": "02881", "country": "US", "state": "RI", "display_address": ["99 Fortin Rd", "Kingston Emporium", "Kingston, RI 02881"]}, "phone": "+14012842816", "display_phone": "(401) 284-2816", "distance": 587.6392235407984}, {"id": "ZbWhffDFP3DtQHHRIWL-RA", "alias": "the-boss-1-wakefield", "name": "The Boss 1", "image_url": "https://s3-media4.fl.yelpcdn.com/bphoto/sBHVJhFqvzkVcRSBW9hegQ/o.jpg", "is_closed": false, "url": "https://www.yelp.com/biz/the-boss-1-wakefield?adjust_creative=HbGs3gi3xS-SfqfxZRDuCw&utm_campaign=yelp_api_v3&utm_medium=api_v3_business_search&utm_source=HbGs3gi3xS-SfqfxZRDuCw", "review_count": 13, "categories": [{"alias": "thai", "title": "Thai"}, {"alias": "asianfusion", "title": "Asian Fusion"}, {"alias": "desserts", "title": "Desserts"}], "rating": 5.0, "coordinates": {"latitude": 41.442344105255, "longitude": -71.4897476881742}, "transactions": [], "price": "$$", "location": {"address1": "682 Kingstown Rd", "address2": "", "address3": null, "city": "Wakefield", "zip_code": "02879", "country": "US", "state": "RI", "display_address": ["682 Kingstown Rd", "Wakefield, RI 02879"]}, "phone": "+14012843600", "display_phone": "(401) 284-3600", "distance": 5066.344896231533}, {"id": "rsUTvZy67oowb8G_2SKaDA", "alias": "trio-narragansett", "name": "TRIO", "image_url": "https://s3-media4.fl.yelpcdn.com/bphoto/IgT18HCnKrRHBJWnlv6sKA/o.jpg", "is_closed": false, "url": "https://www.yelp.com/biz/trio-narragansett?adjust_creative=HbGs3gi3xS-SfqfxZRDuCw&utm_campaign=yelp_api_v3&utm_medium=api_v3_business_search&utm_source=HbGs3gi3xS-SfqfxZRDuCw", "review_count": 256, "categories": [{"alias": "newamerican", "title": "American (New)"}], "rating": 4.0, "coordinates": {"latitude": 41.4310888, "longitude": -71.4588851}, "transactions": [], "price": "$$", "location": {"address1": "15 Kingstown Rd", "address2": "", "address3": "", "city": "Narragansett", "zip_code": "02882", "country": "US", "state": "RI", "display_address": ["15 Kingstown Rd", "Narragansett, RI 02882"]}, "phone": "+14017924333", "display_phone": "(401) 792-4333", "distance": 7650.900249114682}, {"id": "Fi7z65ofjwuWdj5gEBVdxw", "alias": "celestial-cafe-exeter", "name": "Celestial Cafe", "image_url": "https://s3-media2.fl.yelpcdn.com/bphoto/i2hHyybC7aaaqK3ul-KWpQ/o.jpg", "is_closed": false, "url": "https://www.yelp.com/biz/celestial-cafe-exeter?adjust_creative=HbGs3gi3xS-SfqfxZRDuCw&utm_campaign=yelp_api_v3&utm_medium=api_v3_business_search&utm_source=HbGs3gi3xS-SfqfxZRDuCw", "review_count": 159, "categories": [{"alias": "newamerican", "title": "American (New)"}, {"alias": "breakfast_brunch", "title": "Breakfast & Brunch"}, {"alias": "cocktailbars", "title": "Cocktail Bars"}], "rating": 4.0, "coordinates": {"latitude": 41.526923, "longitude": -71.552297}, "transactions": [], "price": "$$", "location": {"address1": "567 S County Trail Rte 2", "address2": null, "address3": "", "city": "Exeter", "zip_code": "02822", "country": "US", "state": "RI", "display_address": ["567 S County Trail Rte 2", "Exeter, RI 02822"]}, "phone": "+14012955559", "display_phone": "(401) 295-5559", "distance": 5702.8023041203105}, {"id": "XJ7SyqaiWIMwd9VzgATa5A", "alias": "peking-tokyo-kingston", "name": "Peking Tokyo", "image_url": "https://s3-media3.fl.yelpcdn.com/bphoto/yKtgZsf7uqwKvsVrdtL-zQ/o.jpg", "is_closed": false, "url": "https://www.yelp.com/biz/peking-tokyo-kingston?adjust_creative=HbGs3gi3xS-SfqfxZRDuCw&utm_campaign=yelp_api_v3&utm_medium=api_v3_business_search&utm_source=HbGs3gi3xS-SfqfxZRDuCw", "review_count": 28, "categories": [{"alias": "chinese", "title": "Chinese"}, {"alias": "japanese", "title": "Japanese"}], "rating": 3.5, "coordinates": {"latitude": 41.484975, "longitude": -71.524849}, "transactions": [], "price": "$", "location": {"address1": "120 Fortin Rd", "address2": null, "address3": null, "city": "Kingston", "zip_code": "02881", "country": "US", "state": "RI", "display_address": ["120 Fortin Rd", "Kingston, RI 02881"]}, "phone": "+14017889588", "display_phone": "(401) 788-9588", "distance": 508.8166659791415}, {"id": "bBUfLDfT_DUXwa0GPsnVmA", "alias": "plum-point-bistro-north-kingstown", "name": "Plum Point Bistro", "image_url": "https://s3-media2.fl.yelpcdn.com/bphoto/MC3AMoqfv4muMaC_JdpsrA/o.jpg", "is_closed": false, "url": "https://www.yelp.com/biz/plum-point-bistro-north-kingstown?adjust_creative=HbGs3gi3xS-SfqfxZRDuCw&utm_campaign=yelp_api_v3&utm_medium=api_v3_business_search&utm_source=HbGs3gi3xS-SfqfxZRDuCw", "review_count": 171, "categories": [{"alias": "italian", "title": "Italian"}], "rating": 4.0, "coordinates": {"latitude": 41.5258865356445, "longitude": -71.4247817993164}, "transactions": [], "price": "$$", "location": {"address1": "1814 Boston Neck Rd", "address2": "", "address3": "", "city": "North Kingstown", "zip_code": "02874", "country": "US", "state": "RI", "display_address": ["1814 Boston Neck Rd", "North Kingstown, RI 02874"]}, "phone": "+14016674999", "display_phone": "(401) 667-4999", "distance": 9549.05983234827}, {"id": "m7YxP9jWLnTUwsS72sbxfA", "alias": "the-charlestown-rathskeller-charlestown", "name": "The Charlestown Rathskeller", "image_url": "https://s3-media1.fl.yelpcdn.com/bphoto/JedVP1NgtnoOeZH_r1yItQ/o.jpg", "is_closed": false, "url": "https://www.yelp.com/biz/the-charlestown-rathskeller-charlestown?adjust_creative=HbGs3gi3xS-SfqfxZRDuCw&utm_campaign=yelp_api_v3&utm_medium=api_v3_business_search&utm_source=HbGs3gi3xS-SfqfxZRDuCw", "review_count": 215, "categories": [{"alias": "pubs", "title": "Pubs"}, {"alias": "burgers", "title": "Burgers"}, {"alias": "tradamerican", "title": "American (Traditional)"}], "rating": 3.5, "coordinates": {"latitude": 41.424044, "longitude": -71.61319}, "transactions": [], "price": "$$", "location": {"address1": "489A Old Coach Rd", "address2": "", "address3": "", "city": "Charlestown", "zip_code": "02813", "country": "US", "state": "RI", "display_address": ["489A Old Coach Rd", "Charlestown, RI 02813"]}, "phone": "+14017921000", "display_phone": "(401) 792-1000", "distance": 9854.433980805024}, {"id": "DzH4agZSniRgPLQhHy8shQ", "alias": "the-rhode-house-cafe-kingstown-2", "name": "The Rhode House Cafe", "image_url": "https://s3-media2.fl.yelpcdn.com/bphoto/xpVeXn4_m-IzSf5DxBTa2g/o.jpg", "is_closed": false, "url": "https://www.yelp.com/biz/the-rhode-house-cafe-kingstown-2?adjust_creative=HbGs3gi3xS-SfqfxZRDuCw&utm_campaign=yelp_api_v3&utm_medium=api_v3_business_search&utm_source=HbGs3gi3xS-SfqfxZRDuCw", "review_count": 13, "categories": [{"alias": "hotdogs", "title": "Fast Food"}, {"alias": "bbq", "title": "Barbeque"}, {"alias": "tradamerican", "title": "American (Traditional)"}], "rating": 3.0, "coordinates": {"latitude": 41.4855914, "longitude": -71.5242644}, "transactions": [], "price": "$", "location": {"address1": "99 Fortin Rd", "address2": "Uri Kingston Emporium", "address3": "", "city": "Kingstown", "zip_code": "02881", "country": "US", "state": "RI", "display_address": ["99 Fortin Rd", "Uri Kingston Emporium", "Kingstown, RI 02881"]}, "phone": "+14012842844", "display_phone": "(401) 284-2844", "distance": 556.4069675987665}, {"id": "blTrqjQ9PtFXf72Hn-LZwA", "alias": "trattoria-romana-south-wakefield-3", "name": "Trattoria Romana South", "image_url": "https://s3-media3.fl.yelpcdn.com/bphoto/9ALjpAGj8wm2F8YtA_hnNg/o.jpg", "is_closed": false, "url": "https://www.yelp.com/biz/trattoria-romana-south-wakefield-3?adjust_creative=HbGs3gi3xS-SfqfxZRDuCw&utm_campaign=yelp_api_v3&utm_medium=api_v3_business_search&utm_source=HbGs3gi3xS-SfqfxZRDuCw", "review_count": 112, "categories": [{"alias": "italian", "title": "Italian"}, {"alias": "bars", "title": "Bars"}, {"alias": "tradamerican", "title": "American (Traditional)"}], "rating": 4.0, "coordinates": {"latitude": 41.4561037396999, "longitude": -71.4701950550079}, "transactions": [], "price": "$$", "location": {"address1": "71 S County Commons Way", "address2": "", "address3": "", "city": "Wakefield", "zip_code": "02879", "country": "US", "state": "RI", "display_address": ["71 S County Commons Way", "Wakefield, RI 02879"]}, "phone": "+14017924933", "display_phone": "(401) 792-4933", "distance": 5141.490888640535}, {"id": "zD31LjkFszGZQIP2syYSWw", "alias": "proof-narragansett", "name": "Proof", "image_url": "https://s3-media4.fl.yelpcdn.com/bphoto/4FmqE7zQKzfKBkjQBW_Trw/o.jpg", "is_closed": false, "url": "https://www.yelp.com/biz/proof-narragansett?adjust_creative=HbGs3gi3xS-SfqfxZRDuCw&utm_campaign=yelp_api_v3&utm_medium=api_v3_business_search&utm_source=HbGs3gi3xS-SfqfxZRDuCw", "review_count": 49, "categories": [{"alias": "speakeasies", "title": "Speakeasies"}, {"alias": "tapasmallplates", "title": "Tapas/Small Plates"}, {"alias": "cocktailbars", "title": "Cocktail Bars"}], "rating": 4.0, "coordinates": {"latitude": 41.426, "longitude": -71.48083}, "transactions": [], "price": "$$", "location": {"address1": "140 Point Judith Rd", "address2": "", "address3": null, "city": "Narragansett", "zip_code": "02882", "country": "US", "state": "RI", "display_address": ["140 Point Judith Rd", "Narragansett, RI 02882"]}, "phone": "+14017924640", "display_phone": "(401) 792-4640", "distance": 7058.709326107448}, {"id": "0HBpqT_ewo474YM8G_tzsQ", "alias": "bennys-clam-shack-wakefield", "name": "Benny's Clam Shack", "image_url": "https://s3-media4.fl.yelpcdn.com/bphoto/n6XD_PO6R2Y_wX5HkOhnlg/o.jpg", "is_closed": false, "url": "https://www.yelp.com/biz/bennys-clam-shack-wakefield?adjust_creative=HbGs3gi3xS-SfqfxZRDuCw&utm_campaign=yelp_api_v3&utm_medium=api_v3_business_search&utm_source=HbGs3gi3xS-SfqfxZRDuCw", "review_count": 55, "categories": [{"alias": "seafood", "title": "Seafood"}], "rating": 4.0, "coordinates": {"latitude": 41.43835, "longitude": -71.50232}, "transactions": [], "location": {"address1": "58 High St", "address2": "", "address3": null, "city": "Wakefield", "zip_code": "02879", "country": "US", "state": "RI", "display_address": ["58 High St", "Wakefield, RI 02879"]}, "phone": "+14013639632", "display_phone": "(401) 363-9632", "distance": 4995.504098890655}, {"id": "pprk_DkLJqluaH99ZPlTVw", "alias": "hilltop-grill-south-kingstown", "name": "Hilltop Grill", "image_url": "https://s3-media1.fl.yelpcdn.com/bphoto/8w4r0pCnsr5io9KZpk7_gA/o.jpg", "is_closed": false, "url": "https://www.yelp.com/biz/hilltop-grill-south-kingstown?adjust_creative=HbGs3gi3xS-SfqfxZRDuCw&utm_campaign=yelp_api_v3&utm_medium=api_v3_business_search&utm_source=HbGs3gi3xS-SfqfxZRDuCw", "review_count": 2, "categories": [{"alias": "restaurants", "title": "Restaurants"}, {"alias": "cocktailbars", "title": "Cocktail Bars"}, {"alias": "hotelstravel", "title": "Hotels & Travel"}], "rating": 4.5, "coordinates": {"latitude": 41.4968093270609, "longitude": -71.4575735970552}, "transactions": [], "location": {"address1": "3009 Tower Hill Rd", "address2": "", "address3": null, "city": "South Kingstown", "zip_code": "02874", "country": "US", "state": "RI", "display_address": ["3009 Tower Hill Rd", "South Kingstown, RI 02874"]}, "phone": "+14017891051", "display_phone": "(401) 789-1051", "distance": 5683.364586893934}, {"id": "kMmIPGkKC1KB2nu05Cwe9A", "alias": "mews-tavern-wakefield-2", "name": "Mews Tavern", "image_url": "https://s3-media2.fl.yelpcdn.com/bphoto/X9FNgOMJzKDr0lqj6Jozlw/o.jpg", "is_closed": false, "url": "https://www.yelp.com/biz/mews-tavern-wakefield-2?adjust_creative=HbGs3gi3xS-SfqfxZRDuCw&utm_campaign=yelp_api_v3&utm_medium=api_v3_business_search&utm_source=HbGs3gi3xS-SfqfxZRDuCw", "review_count": 383, "categories": [{"alias": "bars", "title": "Bars"}, {"alias": "tradamerican", "title": "American (Traditional)"}, {"alias": "seafood", "title": "Seafood"}], "rating": 3.5, "coordinates": {"latitude": 41.436114, "longitude": -71.502667}, "transactions": [], "price": "$$", "location": {"address1": "456 Main St", "address2": "", "address3": "", "city": "Wakefield", "zip_code": "02879", "country": "US", "state": "RI", "display_address": ["456 Main St", "Wakefield, RI 02879"]}, "phone": "+14017839370", "display_phone": "(401) 783-9370", "distance": 5232.360579978581}, {"id": "kzbz5KZAx6MFnepLESbH6g", "alias": "bombay-flame-healthy-thousand-flavors-south-kingstown", "name": "Bombay Flame - Healthy Thousand Flavors", "image_url": "https://s3-media2.fl.yelpcdn.com/bphoto/N88-xIloPt8efyNKqbEK4Q/o.jpg", "is_closed": false, "url": "https://www.yelp.com/biz/bombay-flame-healthy-thousand-flavors-south-kingstown?adjust_creative=HbGs3gi3xS-SfqfxZRDuCw&utm_campaign=yelp_api_v3&utm_medium=api_v3_business_search&utm_source=HbGs3gi3xS-SfqfxZRDuCw", "review_count": 66, "categories": [{"alias": "indpak", "title": "Indian"}, {"alias": "vegan", "title": "Vegan"}, {"alias": "bars", "title": "Bars"}], "rating": 4.5, "coordinates": {"latitude": 41.4421, "longitude": -71.48621}, "transactions": ["pickup", "delivery"], "location": {"address1": "60 Old Tower Hill Rd", "address2": null, "address3": "", "city": "South Kingstown", "zip_code": "02879", "country": "US", "state": "RI", "display_address": ["60 Old Tower Hill Rd", "South Kingstown, RI 02879"]}, "phone": "+14017835263", "display_phone": "(401) 783-5263", "distance": 5255.612141162936}, {"id": "Xshe-eT-OT_Pz2zKMYDJzw", "alias": "davos-calzones-and-wraps-south-kingstown-2", "name": "Davo's Calzones and Wraps", "image_url": "https://s3-media3.fl.yelpcdn.com/bphoto/nYYF5lMwRAA5mnTXmmxPkQ/o.jpg", "is_closed": false, "url": "https://www.yelp.com/biz/davos-calzones-and-wraps-south-kingstown-2?adjust_creative=HbGs3gi3xS-SfqfxZRDuCw&utm_campaign=yelp_api_v3&utm_medium=api_v3_business_search&utm_source=HbGs3gi3xS-SfqfxZRDuCw", "review_count": 12, "categories": [{"alias": "mediterranean", "title": "Mediterranean"}, {"alias": "hotdogs", "title": "Fast Food"}], "rating": 3.0, "coordinates": {"latitude": 41.48524, "longitude": -71.52316}, "transactions": ["pickup", "delivery"], "location": {"address1": "99 Fortin Rd", "address2": null, "address3": "", "city": "South Kingstown", "zip_code": "02881", "country": "US", "state": "RI", "display_address": ["99 Fortin Rd", "South Kingstown, RI 02881"]}, "phone": "+14012843050", "display_phone": "(401) 284-3050", "distance": 533.9632262231386}, {"id": "n8Jmpkuq3D7EdpnAhcgq2g", "alias": "providence-bagel-south-kingstown", "name": "Providence Bagel", "image_url": "https://s3-media2.fl.yelpcdn.com/bphoto/t0Pb0LbTaoKESmOL-bBjbg/o.jpg", "is_closed": false, "url": "https://www.yelp.com/biz/providence-bagel-south-kingstown?adjust_creative=HbGs3gi3xS-SfqfxZRDuCw&utm_campaign=yelp_api_v3&utm_medium=api_v3_business_search&utm_source=HbGs3gi3xS-SfqfxZRDuCw", "review_count": 4, "categories": [{"alias": "bagels", "title": "Bagels"}, {"alias": "coffee", "title": "Coffee & Tea"}, {"alias": "breakfast_brunch", "title": "Breakfast & Brunch"}], "rating": 4.0, "coordinates": {"latitude": 41.485771, "longitude": -71.523684}, "transactions": [], "location": {"address1": "99 Fortin Rd", "address2": null, "address3": "", "city": "South Kingstown", "zip_code": "02881", "country": "US", "state": "RI", "display_address": ["99 Fortin Rd", "South Kingstown, RI 02881"]}, "phone": "+14014212222", "display_phone": "(401) 421-2222", "distance": 533.9632262231386}, {"id": "FkvaEiUbrVMZ0IYHnt_GcA", "alias": "crazy-burger-cafe-and-juice-bar-narragansett", "name": "Crazy Burger Cafe & Juice Bar", "image_url": "https://s3-media2.fl.yelpcdn.com/bphoto/g2b_fgAI9u6YJnlPYgnCwA/o.jpg", "is_closed": false, "url": "https://www.yelp.com/biz/crazy-burger-cafe-and-juice-bar-narragansett?adjust_creative=HbGs3gi3xS-SfqfxZRDuCw&utm_campaign=yelp_api_v3&utm_medium=api_v3_business_search&utm_source=HbGs3gi3xS-SfqfxZRDuCw", "review_count": 643, "categories": [{"alias": "sandwiches", "title": "Sandwiches"}, {"alias": "juicebars", "title": "Juice Bars & Smoothies"}, {"alias": "burgers", "title": "Burgers"}], "rating": 4.0, "coordinates": {"latitude": 41.42594, "longitude": -71.45953}, "transactions": [], "price": "$$", "location": {"address1": "144 Boon St", "address2": "", "address3": "", "city": "Narragansett", "zip_code": "02882", "country": "US", "state": "RI", "display_address": ["144 Boon St", "Narragansett, RI 02882"]}, "phone": "+14017831810", "display_phone": "(401) 783-1810", "distance": 8026.7955835147195}, {"id": "6p9x3VN_dcmAi8m1kfUFlA", "alias": "gansett-wraps-narragansett", "name": "Gansett Wraps", "image_url": "https://s3-media2.fl.yelpcdn.com/bphoto/wm7PBD88owFOQyV6pCyKjQ/o.jpg", "is_closed": false, "url": "https://www.yelp.com/biz/gansett-wraps-narragansett?adjust_creative=HbGs3gi3xS-SfqfxZRDuCw&utm_campaign=yelp_api_v3&utm_medium=api_v3_business_search&utm_source=HbGs3gi3xS-SfqfxZRDuCw", "review_count": 135, "categories": [{"alias": "salad", "title": "Salad"}, {"alias": "wraps", "title": "Wraps"}], "rating": 4.5, "coordinates": {"latitude": 41.42939, "longitude": -71.48084}, "transactions": [], "price": "$", "location": {"address1": "70 Point Judith Rd", "address2": "", "address3": "", "city": "Narragansett", "zip_code": "02882", "country": "US", "state": "RI", "display_address": ["70 Point Judith Rd", "Narragansett, RI 02882"]}, "phone": "+14017929292", "display_phone": "(401) 792-9292", "distance": 6646.6404742991235}, {"id": "k2FrgeWrCmlhabYjexurvA", "alias": "saltys-burgers-and-seafood-narragansett-3", "name": "Salty's Burgers and Seafood", "image_url": "https://s3-media1.fl.yelpcdn.com/bphoto/aEeI8SFHS6EWikUqKRGjyg/o.jpg", "is_closed": false, "url": "https://www.yelp.com/biz/saltys-burgers-and-seafood-narragansett-3?adjust_creative=HbGs3gi3xS-SfqfxZRDuCw&utm_campaign=yelp_api_v3&utm_medium=api_v3_business_search&utm_source=HbGs3gi3xS-SfqfxZRDuCw", "review_count": 5, "categories": [{"alias": "seafood", "title": "Seafood"}, {"alias": "burgers", "title": "Burgers"}], "rating": 4.0, "coordinates": {"latitude": 41.4371896447156, "longitude": -71.4527944470741}, "transactions": [], "location": {"address1": "77 Boston Neck Rd", "address2": "", "address3": null, "city": "Narragansett", "zip_code": "02882", "country": "US", "state": "RI", "display_address": ["77 Boston Neck Rd", "Narragansett, RI 02882"]}, "phone": "", "display_phone": "", "distance": 7557.976500674854}, {"id": "nPWdQbeWfevUFxVlXxcaXQ", "alias": "calaveras-mexican-taqueria-narragansett", "name": "Calaveras Mexican Taqueria", "image_url": "https://s3-media2.fl.yelpcdn.com/bphoto/83c3k-0lyR9YqOs55wfKSQ/o.jpg", "is_closed": false, "url": "https://www.yelp.com/biz/calaveras-mexican-taqueria-narragansett?adjust_creative=HbGs3gi3xS-SfqfxZRDuCw&utm_campaign=yelp_api_v3&utm_medium=api_v3_business_search&utm_source=HbGs3gi3xS-SfqfxZRDuCw", "review_count": 53, "categories": [{"alias": "mexican", "title": "Mexican"}], "rating": 3.5, "coordinates": {"latitude": 41.4334786, "longitude": -71.4632608}, "transactions": [], "price": "$$", "location": {"address1": "83 Narragansett Ave", "address2": null, "address3": null, "city": "Narragansett", "zip_code": "02882", "country": "US", "state": "RI", "display_address": ["83 Narragansett Ave", "Narragansett, RI 02882"]}, "phone": "+14017834909", "display_phone": "(401) 783-4909", "distance": 7207.159935155262}, {"id": "P23oRsUl1r4RnkWRFo-M3w", "alias": "bon-bon-appetit-exeter", "name": "Bon Bon Appetit", "image_url": "https://s3-media3.fl.yelpcdn.com/bphoto/HURnDXedij26evyQCNFxTg/o.jpg", "is_closed": false, "url": "https://www.yelp.com/biz/bon-bon-appetit-exeter?adjust_creative=HbGs3gi3xS-SfqfxZRDuCw&utm_campaign=yelp_api_v3&utm_medium=api_v3_business_search&utm_source=HbGs3gi3xS-SfqfxZRDuCw", "review_count": 18, "categories": [{"alias": "foodtrucks", "title": "Food Trucks"}, {"alias": "seafood", "title": "Seafood"}], "rating": 4.5, "coordinates": {"latitude": 41.5238918325676, "longitude": -71.5528376707628}, "transactions": [], "price": "$", "location": {"address1": "622 S County Traill", "address2": "", "address3": null, "city": "Exeter", "zip_code": "02822", "country": "US", "state": "RI", "display_address": ["622 S County Traill", "Exeter, RI 02822"]}, "phone": "+14012123020", "display_phone": "(401) 212-3020", "distance": 5422.598587243994}, {"id": "s90hCSNEo-9u8B8amn5rQQ", "alias": "tong-d-2-south-kingstown", "name": "Tong-D 2", "image_url": "https://s3-media1.fl.yelpcdn.com/bphoto/K0teML5ZqrwGiyyMxh1rbA/o.jpg", "is_closed": false, "url": "https://www.yelp.com/biz/tong-d-2-south-kingstown?adjust_creative=HbGs3gi3xS-SfqfxZRDuCw&utm_campaign=yelp_api_v3&utm_medium=api_v3_business_search&utm_source=HbGs3gi3xS-SfqfxZRDuCw", "review_count": 93, "categories": [{"alias": "thai", "title": "Thai"}, {"alias": "asianfusion", "title": "Asian Fusion"}, {"alias": "bars", "title": "Bars"}], "rating": 4.5, "coordinates": {"latitude": 41.455786, "longitude": -71.470604}, "transactions": [], "price": "$$", "location": {"address1": "50 S County Common Way", "address2": null, "address3": "", "city": "South Kingstown", "zip_code": "02879", "country": "US", "state": "RI", "display_address": ["50 S County Common Way", "South Kingstown, RI 02879"]}, "phone": "+14017834445", "display_phone": "(401) 783-4445", "distance": 5131.780508477046}, {"id": "4jy0Yk7iIUVpnvJuf0RqvQ", "alias": "sa-tang-wakefield-2", "name": "Sa-Tang", "image_url": "https://s3-media1.fl.yelpcdn.com/bphoto/3M_jAFGLzDTiJ7MFkh0tyw/o.jpg", "is_closed": false, "url": "https://www.yelp.com/biz/sa-tang-wakefield-2?adjust_creative=HbGs3gi3xS-SfqfxZRDuCw&utm_campaign=yelp_api_v3&utm_medium=api_v3_business_search&utm_source=HbGs3gi3xS-SfqfxZRDuCw", "review_count": 86, "categories": [{"alias": "thai", "title": "Thai"}, {"alias": "bars", "title": "Bars"}], "rating": 4.5, "coordinates": {"latitude": 41.4371331479922, "longitude": -71.5009345662187}, "transactions": [], "price": "$$", "location": {"address1": "402 Main St", "address2": "", "address3": "", "city": "Wakefield", "zip_code": "02879", "country": "US", "state": "RI", "display_address": ["402 Main St", "Wakefield, RI 02879"]}, "phone": "+14012844220", "display_phone": "(401) 284-4220", "distance": 5172.938899857484}, {"id": "R8Yka3q_tHzWTbMw8nii7Q", "alias": "homestead-restaurant-exeter", "name": "Homestead Restaurant", "image_url": "https://s3-media2.fl.yelpcdn.com/bphoto/Z15ZjhjhAS1zACJO1pHP4A/o.jpg", "is_closed": false, "url": "https://www.yelp.com/biz/homestead-restaurant-exeter?adjust_creative=HbGs3gi3xS-SfqfxZRDuCw&utm_campaign=yelp_api_v3&utm_medium=api_v3_business_search&utm_source=HbGs3gi3xS-SfqfxZRDuCw", "review_count": 35, "categories": [{"alias": "newamerican", "title": "American (New)"}], "rating": 3.5, "coordinates": {"latitude": 41.51598, "longitude": -71.55529}, "transactions": [], "price": "$$", "location": {"address1": "750 S County Trl", "address2": "", "address3": "", "city": "Exeter", "zip_code": "02822", "country": "US", "state": "RI", "display_address": ["750 S County Trl", "Exeter, RI 02822"]}, "phone": "+14012947810", "display_phone": "(401) 294-7810", "distance": 4712.376203814446}, {"id": "uNa8PjG8TCitawurgtOzeQ", "alias": "aunties-kitchen-wakefield", "name": "Auntie's Kitchen", "image_url": "https://s3-media3.fl.yelpcdn.com/bphoto/yC-owLx2DudLTylnTfwZow/o.jpg", "is_closed": false, "url": "https://www.yelp.com/biz/aunties-kitchen-wakefield?adjust_creative=HbGs3gi3xS-SfqfxZRDuCw&utm_campaign=yelp_api_v3&utm_medium=api_v3_business_search&utm_source=HbGs3gi3xS-SfqfxZRDuCw", "review_count": 13, "categories": [{"alias": "cafes", "title": "Cafes"}], "rating": 4.5, "coordinates": {"latitude": 41.438768, "longitude": -71.4979642}, "transactions": [], "location": {"address1": "237 Robinson St", "address2": "", "address3": null, "city": "Wakefield", "zip_code": "02879", "country": "US", "state": "RI", "display_address": ["237 Robinson St", "Wakefield, RI 02879"]}, "phone": "+14017832800", "display_phone": "(401) 783-2800", "distance": 5091.691775960814}, {"id": "NR0OVhwHD0JEzMErznQ6rQ", "alias": "bluebird-cafe-wakefield", "name": "Bluebird Cafe", "image_url": "https://s3-media2.fl.yelpcdn.com/bphoto/dHt4OH2xGrZihwEExEqKkA/o.jpg", "is_closed": false, "url": "https://www.yelp.com/biz/bluebird-cafe-wakefield?adjust_creative=HbGs3gi3xS-SfqfxZRDuCw&utm_campaign=yelp_api_v3&utm_medium=api_v3_business_search&utm_source=HbGs3gi3xS-SfqfxZRDuCw", "review_count": 75, "categories": [{"alias": "diners", "title": "Diners"}], "rating": 4.0, "coordinates": {"latitude": 41.4392604, "longitude": -71.4871685}, "transactions": [], "price": "$", "location": {"address1": "554 Kingstown Rd", "address2": "", "address3": "", "city": "Wakefield", "zip_code": "02879", "country": "US", "state": "RI", "display_address": ["554 Kingstown Rd", "Wakefield, RI 02879"]}, "phone": "+14017928940", "display_phone": "(401) 792-8940", "distance": 5434.363565482855}, {"id": "SVGI3aZrT3Fo07cP1r0ltg", "alias": "el-fuego-mexican-grill-wakefield", "name": "El Fuego Mexican Grill", "image_url": "https://s3-media2.fl.yelpcdn.com/bphoto/b17WRqOfP-f0aCbAfmdBeQ/o.jpg", "is_closed": false, "url": "https://www.yelp.com/biz/el-fuego-mexican-grill-wakefield?adjust_creative=HbGs3gi3xS-SfqfxZRDuCw&utm_campaign=yelp_api_v3&utm_medium=api_v3_business_search&utm_source=HbGs3gi3xS-SfqfxZRDuCw", "review_count": 115, "categories": [{"alias": "mexican", "title": "Mexican"}], "rating": 3.5, "coordinates": {"latitude": 41.43828, "longitude": -71.49921}, "transactions": [], "price": "$", "location": {"address1": "344 Main St", "address2": "", "address3": "", "city": "Wakefield", "zip_code": "02879", "country": "US", "state": "RI", "display_address": ["344 Main St", "Wakefield, RI 02879"]}, "phone": "+14012843353", "display_phone": "(401) 284-3353", "distance": 5130.163211772051}, {"id": "FO2Korx1nRBfmpnXaFNFkg", "alias": "meldgies-rivers-edge-cafe-wakefield", "name": "Meldgie's Rivers Edge Cafe ", "image_url": "https://s3-media1.fl.yelpcdn.com/bphoto/IYA63PoifxgJqHVuKrgSvw/o.jpg", "is_closed": false, "url": "https://www.yelp.com/biz/meldgies-rivers-edge-cafe-wakefield?adjust_creative=HbGs3gi3xS-SfqfxZRDuCw&utm_campaign=yelp_api_v3&utm_medium=api_v3_business_search&utm_source=HbGs3gi3xS-SfqfxZRDuCw", "review_count": 13, "categories": [{"alias": "diners", "title": "Diners"}], "rating": 4.0, "coordinates": {"latitude": 41.4475686, "longitude": -71.524667}, "transactions": [], "price": "$$", "location": {"address1": "406 Main St", "address2": "Ste B", "address3": null, "city": "Wakefield", "zip_code": "02879", "country": "US", "state": "RI", "display_address": ["406 Main St", "Ste B", "Wakefield, RI 02879"]}, "phone": "+14017895960", "display_phone": "(401) 789-5960", "distance": 3699.35073530166}, {"id": "VhE_bDcc_8x2S9rJiUJwlA", "alias": "mary-murphys-irish-pub-south-kingstown", "name": "Mary Murphy's Irish Pub", "image_url": "https://s3-media1.fl.yelpcdn.com/bphoto/h9ouw6tG7_Mj2-V6WCSleQ/o.jpg", "is_closed": false, "url": "https://www.yelp.com/biz/mary-murphys-irish-pub-south-kingstown?adjust_creative=HbGs3gi3xS-SfqfxZRDuCw&utm_campaign=yelp_api_v3&utm_medium=api_v3_business_search&utm_source=HbGs3gi3xS-SfqfxZRDuCw", "review_count": 31, "categories": [{"alias": "irish", "title": "Irish"}, {"alias": "irish_pubs", "title": "Irish Pub"}], "rating": 4.0, "coordinates": {"latitude": 41.4385, "longitude": -71.49944}, "transactions": [], "price": "$$", "location": {"address1": "333 Main St", "address2": "", "address3": "", "city": "South Kingstown", "zip_code": "02879", "country": "US", "state": "RI", "display_address": ["333 Main St", "South Kingstown, RI 02879"]}, "phone": "+14017889400", "display_phone": "(401) 788-9400", "distance": 5057.834963153071}, {"id": "Q8T_TpOc1ruHugzxACb1LA", "alias": "international-zone-kingston-2", "name": "International Zone", "image_url": "https://s3-media2.fl.yelpcdn.com/bphoto/yGcsOWDLLXHs1DdtA5yFwQ/o.jpg", "is_closed": false, "url": "https://www.yelp.com/biz/international-zone-kingston-2?adjust_creative=HbGs3gi3xS-SfqfxZRDuCw&utm_campaign=yelp_api_v3&utm_medium=api_v3_business_search&utm_source=HbGs3gi3xS-SfqfxZRDuCw", "review_count": 12, "categories": [{"alias": "italian", "title": "Italian"}, {"alias": "pizza", "title": "Pizza"}, {"alias": "desserts", "title": "Desserts"}], "rating": 3.5, "coordinates": {"latitude": 41.484783, "longitude": -71.524104}, "transactions": [], "price": "$", "location": {"address1": "100 Fortin Rd", "address2": "", "address3": "", "city": "Kingston", "zip_code": "02881", "country": "US", "state": "RI", "display_address": ["100 Fortin Rd", "Kingston, RI 02881"]}, "phone": "+14013602252", "display_phone": "(401) 360-2252", "distance": 466.59270735798896}, {"id": "9KhIUPGpnHc5HQ_tuS-PMg", "alias": "albies-place-kingston", "name": "Albie's Place", "image_url": "https://s3-media1.fl.yelpcdn.com/bphoto/KmDh5bCMN0BAa7ADRHxQbA/o.jpg", "is_closed": false, "url": "https://www.yelp.com/biz/albies-place-kingston?adjust_creative=HbGs3gi3xS-SfqfxZRDuCw&utm_campaign=yelp_api_v3&utm_medium=api_v3_business_search&utm_source=HbGs3gi3xS-SfqfxZRDuCw", "review_count": 14, "categories": [{"alias": "breakfast_brunch", "title": "Breakfast & Brunch"}, {"alias": "tradamerican", "title": "American (Traditional)"}, {"alias": "wraps", "title": "Wraps"}], "rating": 3.0, "coordinates": {"latitude": 41.48524, "longitude": -71.52316}, "transactions": ["pickup", "delivery"], "price": "$$", "location": {"address1": "99 Fortin Rd", "address2": "", "address3": "", "city": "Kingston", "zip_code": "02881", "country": "US", "state": "RI", "display_address": ["99 Fortin Rd", "Kingston, RI 02881"]}, "phone": "+14017923860", "display_phone": "(401) 792-3860", "distance": 533.9632262231386}, {"id": "2qZqMD5aSQxsDn5AMK-g9Q", "alias": "wolf-rocks-country-kitchen-slocum", "name": "Wolf Rock's Country Kitchen", "image_url": "https://s3-media3.fl.yelpcdn.com/bphoto/O2f7pE2eXJRdYoJdQ1rm5A/o.jpg", "is_closed": false, "url": "https://www.yelp.com/biz/wolf-rocks-country-kitchen-slocum?adjust_creative=HbGs3gi3xS-SfqfxZRDuCw&utm_campaign=yelp_api_v3&utm_medium=api_v3_business_search&utm_source=HbGs3gi3xS-SfqfxZRDuCw", "review_count": 7, "categories": [{"alias": "tradamerican", "title": "American (Traditional)"}], "rating": 4.5, "coordinates": {"latitude": 41.511644, "longitude": -71.556428}, "transactions": [], "price": "$", "location": {"address1": "806 S County Trail", "address2": "", "address3": "", "city": "Slocum", "zip_code": "02877", "country": "US", "state": "RI", "display_address": ["806 S County Trail", "Slocum, RI 02877"]}, "phone": "+14012944981", "display_phone": "(401) 294-4981", "distance": 4451.309027072235}, {"id": "S8uFL_-o2THu69sMHvvUCg", "alias": "taylors-landing-country-store-south-kingstown", "name": "Taylor's Landing Country Store", "image_url": "https://s3-media3.fl.yelpcdn.com/bphoto/fF18pFzehbfkxCEo4gQaHQ/o.jpg", "is_closed": false, "url": "https://www.yelp.com/biz/taylors-landing-country-store-south-kingstown?adjust_creative=HbGs3gi3xS-SfqfxZRDuCw&utm_campaign=yelp_api_v3&utm_medium=api_v3_business_search&utm_source=HbGs3gi3xS-SfqfxZRDuCw", "review_count": 38, "categories": [{"alias": "sandwiches", "title": "Sandwiches"}, {"alias": "coffee", "title": "Coffee & Tea"}], "rating": 4.0, "coordinates": {"latitude": 41.4829507470131, "longitude": -71.5518287569284}, "transactions": [], "price": "$", "location": {"address1": "3362 Kingstown Rd", "address2": "", "address3": "", "city": "South Kingstown", "zip_code": "02892", "country": "US", "state": "RI", "display_address": ["3362 Kingstown Rd", "South Kingstown, RI 02892"]}, "phone": "+14012840501", "display_phone": "(401) 284-0501", "distance": 2472.2476959399637}, {"id": "WcQbC9hRzfWYokJ_jbFNow", "alias": "china-garden-wakefield", "name": "China Garden", "image_url": "https://s3-media1.fl.yelpcdn.com/bphoto/w9dWDe45ypFYNSrzkU7ibA/o.jpg", "is_closed": false, "url": "https://www.yelp.com/biz/china-garden-wakefield?adjust_creative=HbGs3gi3xS-SfqfxZRDuCw&utm_campaign=yelp_api_v3&utm_medium=api_v3_business_search&utm_source=HbGs3gi3xS-SfqfxZRDuCw", "review_count": 28, "categories": [{"alias": "chinese", "title": "Chinese"}], "rating": 4.0, "coordinates": {"latitude": 41.4394967, "longitude": -71.4873235}, "transactions": [], "price": "$", "location": {"address1": "564 Kingstown Rd", "address2": "", "address3": "", "city": "Wakefield", "zip_code": "02879", "country": "US", "state": "RI", "display_address": ["564 Kingstown Rd", "Wakefield, RI 02879"]}, "phone": "+14017828838", "display_phone": "(401) 782-8838", "distance": 5421.788127712617}, {"id": "WdHrHqLAjcFtIG7VM8je_Q", "alias": "island-deli-wakefield", "name": "Island Deli", "image_url": "https://s3-media1.fl.yelpcdn.com/bphoto/5WnxJK3WwFgK13fTW3ijSQ/o.jpg", "is_closed": false, "url": "https://www.yelp.com/biz/island-deli-wakefield?adjust_creative=HbGs3gi3xS-SfqfxZRDuCw&utm_campaign=yelp_api_v3&utm_medium=api_v3_business_search&utm_source=HbGs3gi3xS-SfqfxZRDuCw", "review_count": 77, "categories": [{"alias": "delis", "title": "Delis"}, {"alias": "breakfast_brunch", "title": "Breakfast & Brunch"}, {"alias": "sandwiches", "title": "Sandwiches"}], "rating": 4.0, "coordinates": {"latitude": 41.4420956, "longitude": -71.4803838}, "transactions": [], "price": "$", "location": {"address1": "231 Old Tower Hill Rd", "address2": "", "address3": "", "city": "Wakefield", "zip_code": "02879", "country": "US", "state": "RI", "display_address": ["231 Old Tower Hill Rd", "Wakefield, RI 02879"]}, "phone": "+14012840636", "display_phone": "(401) 284-0636", "distance": 5545.806034142228}, {"id": "a8KGfkVd2L0-ByGpKAxaog", "alias": "caf-bar-wakefield", "name": "caf bar", "image_url": "https://s3-media3.fl.yelpcdn.com/bphoto/G6-qpiwiq4ka-67ORdd70Q/o.jpg", "is_closed": false, "url": "https://www.yelp.com/biz/caf-bar-wakefield?adjust_creative=HbGs3gi3xS-SfqfxZRDuCw&utm_campaign=yelp_api_v3&utm_medium=api_v3_business_search&utm_source=HbGs3gi3xS-SfqfxZRDuCw", "review_count": 60, "categories": [{"alias": "coffee", "title": "Coffee & Tea"}, {"alias": "juicebars", "title": "Juice Bars & Smoothies"}, {"alias": "breakfast_brunch", "title": "Breakfast & Brunch"}], "rating": 5.0, "coordinates": {"latitude": 41.44119, "longitude": -71.49284}, "transactions": [], "location": {"address1": "119 Main St", "address2": null, "address3": "", "city": "wakefield", "zip_code": "02879", "country": "US", "state": "RI", "display_address": ["119 Main St", "wakefield, RI 02879"]}, "phone": "+14017880788", "display_phone": "(401) 788-0788", "distance": 5028.9988728512035}, {"id": "08dYTCV14B7CnoWF04pgyw", "alias": "kingston-pizza-kingston", "name": "Kingston Pizza", "image_url": "https://s3-media1.fl.yelpcdn.com/bphoto/LiyJgas3kUUNHzWVKZSn9g/o.jpg", "is_closed": false, "url": "https://www.yelp.com/biz/kingston-pizza-kingston?adjust_creative=HbGs3gi3xS-SfqfxZRDuCw&utm_campaign=yelp_api_v3&utm_medium=api_v3_business_search&utm_source=HbGs3gi3xS-SfqfxZRDuCw", "review_count": 33, "categories": [{"alias": "pizza", "title": "Pizza"}], "rating": 2.5, "coordinates": {"latitude": 41.48308, "longitude": -71.5238}, "transactions": ["delivery", "pickup"], "price": "$$", "location": {"address1": "63 Briar Ln", "address2": "", "address3": "", "city": "Kingston", "zip_code": "02881", "country": "US", "state": "RI", "display_address": ["63 Briar Ln", "Kingston, RI 02881"]}, "phone": "+14017839130", "display_phone": "(401) 783-9130", "distance": 288.4777428132604}, {"id": "sYXAAXtBluCD1EEAdBNWpQ", "alias": "coastal-crepes-narragansett", "name": "Coastal Crepes", "image_url": "https://s3-media3.fl.yelpcdn.com/bphoto/h4PdBGh8x8yC01px04jMRA/o.jpg", "is_closed": false, "url": "https://www.yelp.com/biz/coastal-crepes-narragansett?adjust_creative=HbGs3gi3xS-SfqfxZRDuCw&utm_campaign=yelp_api_v3&utm_medium=api_v3_business_search&utm_source=HbGs3gi3xS-SfqfxZRDuCw", "review_count": 26, "categories": [{"alias": "creperies", "title": "Creperies"}], "rating": 4.5, "coordinates": {"latitude": 41.430968, "longitude": -71.458234}, "transactions": [], "price": "$", "location": {"address1": "20 Pier Market Pl", "address2": null, "address3": "", "city": "Narragansett", "zip_code": "02882", "country": "US", "state": "RI", "display_address": ["20 Pier Market Pl", "Narragansett, RI 02882"]}, "phone": "+14013639904", "display_phone": "(401) 363-9904", "distance": 7616.4256164712815}, {"id": "cIkxGQxnQr68x9ga81POaQ", "alias": "go-pasta-wakefield", "name": "Go Pasta", "image_url": "https://s3-media2.fl.yelpcdn.com/bphoto/ZJKdMbXU5bJIT0rUkkv8BQ/o.jpg", "is_closed": false, "url": "https://www.yelp.com/biz/go-pasta-wakefield?adjust_creative=HbGs3gi3xS-SfqfxZRDuCw&utm_campaign=yelp_api_v3&utm_medium=api_v3_business_search&utm_source=HbGs3gi3xS-SfqfxZRDuCw", "review_count": 34, "categories": [{"alias": "italian", "title": "Italian"}], "rating": 4.5, "coordinates": {"latitude": 41.4416675269604, "longitude": -71.4876602590084}, "transactions": [], "price": "$$", "location": {"address1": "30 Old Tower Hill Rd", "address2": null, "address3": null, "city": "Wakefield", "zip_code": "02879", "country": "US", "state": "RI", "display_address": ["30 Old Tower Hill Rd", "Wakefield, RI 02879"]}, "phone": "+14012844311", "display_phone": "(401) 284-4311", "distance": 5250.303184036126}, {"id": "05a7AHKnyF5PCiZGXNgQMg", "alias": "monahans-clam-shack-narragansett-3", "name": "Monahan's Clam Shack", "image_url": "https://s3-media1.fl.yelpcdn.com/bphoto/l_KuJPheZW8pEh4WEB95KQ/o.jpg", "is_closed": false, "url": "https://www.yelp.com/biz/monahans-clam-shack-narragansett-3?adjust_creative=HbGs3gi3xS-SfqfxZRDuCw&utm_campaign=yelp_api_v3&utm_medium=api_v3_business_search&utm_source=HbGs3gi3xS-SfqfxZRDuCw", "review_count": 301, "categories": [{"alias": "seafood", "title": "Seafood"}], "rating": 4.5, "coordinates": {"latitude": 41.42228, "longitude": -71.4558}, "transactions": [], "price": "$$", "location": {"address1": "190 Ocean Rd", "address2": "", "address3": "", "city": "Narragansett", "zip_code": "02882", "country": "US", "state": "RI", "display_address": ["190 Ocean Rd", "Narragansett, RI 02882"]}, "phone": "+14017822524", "display_phone": "(401) 782-2524", "distance": 8556.375268398346}, {"id": "a6tglzJ5NkYpFzg35Gd6Ww", "alias": "the-bike-stop-cafe-narragansett", "name": "The Bike Stop Cafe", "image_url": "https://s3-media3.fl.yelpcdn.com/bphoto/th7BUW4uG48BBxKIOkVGQw/o.jpg", "is_closed": false, "url": "https://www.yelp.com/biz/the-bike-stop-cafe-narragansett?adjust_creative=HbGs3gi3xS-SfqfxZRDuCw&utm_campaign=yelp_api_v3&utm_medium=api_v3_business_search&utm_source=HbGs3gi3xS-SfqfxZRDuCw", "review_count": 172, "categories": [{"alias": "pizza", "title": "Pizza"}, {"alias": "seafood", "title": "Seafood"}, {"alias": "breakfast_brunch", "title": "Breakfast & Brunch"}], "rating": 4.0, "coordinates": {"latitude": 41.4257397530802, "longitude": -71.4593648519794}, "transactions": [], "price": "$$", "location": {"address1": "148 Boon St", "address2": "", "address3": "", "city": "Narragansett", "zip_code": "02882", "country": "US", "state": "RI", "display_address": ["148 Boon St", "Narragansett, RI 02882"]}, "phone": "+14012841414", "display_phone": "(401) 284-1414", "distance": 8065.077493514701}, {"id": "d6WLz4xYCmg6-UQbCARqxQ", "alias": "rome-point-cafe-north-kingstown-2", "name": "Rome Point Cafe", "image_url": "https://s3-media2.fl.yelpcdn.com/bphoto/ZWQ2tTSPl42Eos09D4bdXA/o.jpg", "is_closed": false, "url": "https://www.yelp.com/biz/rome-point-cafe-north-kingstown-2?adjust_creative=HbGs3gi3xS-SfqfxZRDuCw&utm_campaign=yelp_api_v3&utm_medium=api_v3_business_search&utm_source=HbGs3gi3xS-SfqfxZRDuCw", "review_count": 39, "categories": [{"alias": "breakfast_brunch", "title": "Breakfast & Brunch"}, {"alias": "delis", "title": "Delis"}, {"alias": "sandwiches", "title": "Sandwiches"}], "rating": 4.5, "coordinates": {"latitude": 41.548599057028, "longitude": -71.441093339645}, "transactions": [], "price": "$", "location": {"address1": "820 Boston Neck Rd", "address2": "", "address3": null, "city": "North Kingstown", "zip_code": "02852", "country": "US", "state": "RI", "display_address": ["820 Boston Neck Rd", "North Kingstown, RI 02852"]}, "phone": "+14012942122", "display_phone": "(401) 294-2122", "distance": 10131.172087570165}, {"id": "tZWov8jOZ73TpeUXBOUN2w", "alias": "mariner-grille-narragansett", "name": "Mariner Grille", "image_url": "https://s3-media1.fl.yelpcdn.com/bphoto/tT6doA9pSB_3RehKevovoA/o.jpg", "is_closed": false, "url": "https://www.yelp.com/biz/mariner-grille-narragansett?adjust_creative=HbGs3gi3xS-SfqfxZRDuCw&utm_campaign=yelp_api_v3&utm_medium=api_v3_business_search&utm_source=HbGs3gi3xS-SfqfxZRDuCw", "review_count": 73, "categories": [{"alias": "seafood", "title": "Seafood"}, {"alias": "steak", "title": "Steakhouses"}, {"alias": "newamerican", "title": "American (New)"}], "rating": 4.0, "coordinates": {"latitude": 41.425999, "longitude": -71.480829}, "transactions": [], "price": "$$", "location": {"address1": "140 Point Judith Rd", "address2": "", "address3": "", "city": "Narragansett", "zip_code": "02882", "country": "US", "state": "RI", "display_address": ["140 Point Judith Rd", "Narragansett, RI 02882"]}, "phone": "+14012843282", "display_phone": "(401) 284-3282", "distance": 7058.709326107448}, {"id": "WNtaMlVaNTHIzjP39njxAw", "alias": "international-steakhouse-kingston", "name": "International Steakhouse", "image_url": "", "is_closed": false, "url": "https://www.yelp.com/biz/international-steakhouse-kingston?adjust_creative=HbGs3gi3xS-SfqfxZRDuCw&utm_campaign=yelp_api_v3&utm_medium=api_v3_business_search&utm_source=HbGs3gi3xS-SfqfxZRDuCw", "review_count": 3, "categories": [{"alias": "sandwiches", "title": "Sandwiches"}], "rating": 4.0, "coordinates": {"latitude": 41.485233977437, "longitude": -71.5237265825272}, "transactions": [], "price": "$", "location": {"address1": "99 Fortin Rd", "address2": "", "address3": "", "city": "Kingston", "zip_code": "02881", "country": "US", "state": "RI", "display_address": ["99 Fortin Rd", "Kingston, RI 02881"]}, "phone": "+14017920190", "display_phone": "(401) 792-0190", "distance": 533.9632262231386}, {"id": "D-kurb_dYsik2q8ZYLJTOQ", "alias": "ts-restaurant-narragansett", "name": "T's Restaurant", "image_url": "https://s3-media2.fl.yelpcdn.com/bphoto/mLnhiVBH8M8PBTOlIXP_bQ/o.jpg", "is_closed": false, "url": "https://www.yelp.com/biz/ts-restaurant-narragansett?adjust_creative=HbGs3gi3xS-SfqfxZRDuCw&utm_campaign=yelp_api_v3&utm_medium=api_v3_business_search&utm_source=HbGs3gi3xS-SfqfxZRDuCw", "review_count": 170, "categories": [{"alias": "breakfast_brunch", "title": "Breakfast & Brunch"}], "rating": 4.0, "coordinates": {"latitude": 41.429283, "longitude": -71.482481}, "transactions": [], "price": "$$", "location": {"address1": "91 Point Judith Rd", "address2": "", "address3": "", "city": "Narragansett", "zip_code": "02882", "country": "US", "state": "RI", "display_address": ["91 Point Judith Rd", "Narragansett, RI 02882"]}, "phone": "+14012843981", "display_phone": "(401) 284-3981", "distance": 6622.418018351918}, {"id": "8kGO3tmYTjG0n48FX-ZpCA", "alias": "twin-willows-narragansett", "name": "Twin Willows", "image_url": "https://s3-media4.fl.yelpcdn.com/bphoto/dv-kz9X-CFkddZ4UPOYCVw/o.jpg", "is_closed": false, "url": "https://www.yelp.com/biz/twin-willows-narragansett?adjust_creative=HbGs3gi3xS-SfqfxZRDuCw&utm_campaign=yelp_api_v3&utm_medium=api_v3_business_search&utm_source=HbGs3gi3xS-SfqfxZRDuCw", "review_count": 144, "categories": [{"alias": "seafood", "title": "Seafood"}, {"alias": "sportsbars", "title": "Sports Bars"}, {"alias": "tradamerican", "title": "American (Traditional)"}], "rating": 3.0, "coordinates": {"latitude": 41.47375, "longitude": -71.43369}, "transactions": [], "price": "$$", "location": {"address1": "865 Boston Neck Rd", "address2": "", "address3": "", "city": "Narragansett", "zip_code": "02882", "country": "US", "state": "RI", "display_address": ["865 Boston Neck Rd", "Narragansett, RI 02882"]}, "phone": "+14017898153", "display_phone": "(401) 789-8153", "distance": 7432.860447940213}, {"id": "XTsBYB32LzuIjUioM-EQWw", "alias": "tonys-pizzeria-wakefield-2", "name": "Tony's Pizzeria", "image_url": "https://s3-media1.fl.yelpcdn.com/bphoto/ZDkOUWaiyhMr-N5sbwj5JA/o.jpg", "is_closed": false, "url": "https://www.yelp.com/biz/tonys-pizzeria-wakefield-2?adjust_creative=HbGs3gi3xS-SfqfxZRDuCw&utm_campaign=yelp_api_v3&utm_medium=api_v3_business_search&utm_source=HbGs3gi3xS-SfqfxZRDuCw", "review_count": 52, "categories": [{"alias": "pizza", "title": "Pizza"}, {"alias": "salad", "title": "Salad"}, {"alias": "fishnchips", "title": "Fish & Chips"}], "rating": 3.0, "coordinates": {"latitude": 41.466243, "longitude": -71.51186}, "transactions": [], "price": "$$", "location": {"address1": "1916 Kingstown Rd", "address2": "", "address3": "", "city": "Wakefield", "zip_code": "02879", "country": "US", "state": "RI", "display_address": ["1916 Kingstown Rd", "Wakefield, RI 02879"]}, "phone": "+14017898383", "display_phone": "(401) 789-8383", "distance": 1841.6064799610515}, {"id": "eeJQK86eradHjWhO6xA4qg", "alias": "sweet-cakes-bakery-peace-dale", "name": "Sweet Cakes Bakery", "image_url": "https://s3-media4.fl.yelpcdn.com/bphoto/G3LIfyOYrP3N_ZCK_jJ7Sg/o.jpg", "is_closed": false, "url": "https://www.yelp.com/biz/sweet-cakes-bakery-peace-dale?adjust_creative=HbGs3gi3xS-SfqfxZRDuCw&utm_campaign=yelp_api_v3&utm_medium=api_v3_business_search&utm_source=HbGs3gi3xS-SfqfxZRDuCw", "review_count": 42, "categories": [{"alias": "bakeries", "title": "Bakeries"}, {"alias": "customcakes", "title": "Custom Cakes"}, {"alias": "cafes", "title": "Cafes"}], "rating": 4.0, "coordinates": {"latitude": 41.4512799, "longitude": -71.49975}, "transactions": [], "price": "$", "location": {"address1": "1227 Kingstown Rd", "address2": "", "address3": "", "city": "Peace Dale", "zip_code": "02879", "country": "US", "state": "RI", "display_address": ["1227 Kingstown Rd", "Peace Dale, RI 02879"]}, "phone": "+14017895420", "display_phone": "(401) 789-5420", "distance": 3782.9585374540197}, {"id": "f7h8PyLAheLn8O_bbEB4nA", "alias": "luk-thai-wakefield", "name": "Luk Thai", "image_url": "https://s3-media1.fl.yelpcdn.com/bphoto/MCp2OJqYmbRMI6k0AalZ5Q/o.jpg", "is_closed": false, "url": "https://www.yelp.com/biz/luk-thai-wakefield?adjust_creative=HbGs3gi3xS-SfqfxZRDuCw&utm_campaign=yelp_api_v3&utm_medium=api_v3_business_search&utm_source=HbGs3gi3xS-SfqfxZRDuCw", "review_count": 74, "categories": [{"alias": "thai", "title": "Thai"}], "rating": 4.0, "coordinates": {"latitude": 41.4379047045017, "longitude": -71.4999085664749}, "transactions": [], "price": "$$", "location": {"address1": "249 Main St", "address2": "", "address3": "", "city": "Wakefield", "zip_code": "02879", "country": "US", "state": "RI", "display_address": ["249 Main St", "Wakefield, RI 02879"]}, "phone": "+14012844370", "display_phone": "(401) 284-4370", "distance": 5123.119911596969}, {"id": "ucYEO0Pz8oQFQB7r6MGqIQ", "alias": "turtle-soup-narragansett", "name": "Turtle Soup", "image_url": "https://s3-media3.fl.yelpcdn.com/bphoto/g8s20l1UHZ70w_CuFKM4pg/o.jpg", "is_closed": false, "url": "https://www.yelp.com/biz/turtle-soup-narragansett?adjust_creative=HbGs3gi3xS-SfqfxZRDuCw&utm_campaign=yelp_api_v3&utm_medium=api_v3_business_search&utm_source=HbGs3gi3xS-SfqfxZRDuCw", "review_count": 136, "categories": [{"alias": "italian", "title": "Italian"}], "rating": 3.0, "coordinates": {"latitude": 41.426495, "longitude": -71.456326}, "transactions": [], "price": "$$", "location": {"address1": "113 Ocean Rd", "address2": "", "address3": "", "city": "Narragansett", "zip_code": "02882", "country": "US", "state": "RI", "display_address": ["113 Ocean Rd", "Narragansett, RI 02882"]}, "phone": "+14017928683", "display_phone": "(401) 792-8683", "distance": 8169.929205381296}, {"id": "8N_KX5HftuCp-HnCdc45Lw", "alias": "taste-of-china-exeter", "name": "Taste of China", "image_url": "https://s3-media2.fl.yelpcdn.com/bphoto/sU3X4hnqc-Rbyt_Lc3luUg/o.jpg", "is_closed": false, "url": "https://www.yelp.com/biz/taste-of-china-exeter?adjust_creative=HbGs3gi3xS-SfqfxZRDuCw&utm_campaign=yelp_api_v3&utm_medium=api_v3_business_search&utm_source=HbGs3gi3xS-SfqfxZRDuCw", "review_count": 24, "categories": [{"alias": "chinese", "title": "Chinese"}], "rating": 3.5, "coordinates": {"latitude": 41.5271492, "longitude": -71.5512161}, "transactions": [], "price": "$", "location": {"address1": "567 S County Trl", "address2": "Unit 109", "address3": "", "city": "Exeter", "zip_code": "02822", "country": "US", "state": "RI", "display_address": ["567 S County Trl", "Unit 109", "Exeter, RI 02822"]}, "phone": "+14012958886", "display_phone": "(401) 295-8886", "distance": 5729.5354118707955}, {"id": "WFBDNEE5Fe-ncPNaLtafMg", "alias": "sushi-go-wakefield", "name": "Sushi Go", "image_url": "https://s3-media4.fl.yelpcdn.com/bphoto/XgBh2CrfZs1OvLwbXw51Ng/o.jpg", "is_closed": false, "url": "https://www.yelp.com/biz/sushi-go-wakefield?adjust_creative=HbGs3gi3xS-SfqfxZRDuCw&utm_campaign=yelp_api_v3&utm_medium=api_v3_business_search&utm_source=HbGs3gi3xS-SfqfxZRDuCw", "review_count": 4, "categories": [{"alias": "sushi", "title": "Sushi Bars"}, {"alias": "japanese", "title": "Japanese"}], "rating": 5.0, "coordinates": {"latitude": 41.440609, "longitude": -71.4888077}, "transactions": [], "price": "$$", "location": {"address1": "600 Kingstown Rd", "address2": "", "address3": "600 Kingstown Rd", "city": "Wakefield", "zip_code": "02879", "country": "US", "state": "RI", "display_address": ["600 Kingstown Rd", "600 Kingstown Rd", "Wakefield, RI 02879"]}, "phone": "+14017834656", "display_phone": "(401) 783-4656", "distance": 5338.991810344433}, {"id": "-IA5XJH2y1z9rKq1lhiwFA", "alias": "dans-carriage-inn-and-saloon-north-kingstown", "name": "Dan's Carriage Inn & Saloon", "image_url": "https://s3-media1.fl.yelpcdn.com/bphoto/UOX62gIL9yQA_DrnzJ0Dvg/o.jpg", "is_closed": false, "url": "https://www.yelp.com/biz/dans-carriage-inn-and-saloon-north-kingstown?adjust_creative=HbGs3gi3xS-SfqfxZRDuCw&utm_campaign=yelp_api_v3&utm_medium=api_v3_business_search&utm_source=HbGs3gi3xS-SfqfxZRDuCw", "review_count": 65, "categories": [{"alias": "burgers", "title": "Burgers"}, {"alias": "bbq", "title": "Barbeque"}, {"alias": "tradamerican", "title": "American (Traditional)"}], "rating": 3.5, "coordinates": {"latitude": 41.54762, "longitude": -71.46861}, "transactions": ["delivery", "pickup"], "price": "$$", "location": {"address1": "1065 Tower Hill Rd", "address2": "", "address3": null, "city": "North Kingstown", "zip_code": "02852", "country": "US", "state": "RI", "display_address": ["1065 Tower Hill Rd", "North Kingstown, RI 02852"]}, "phone": "+14012940466", "display_phone": "(401) 294-0466", "distance": 8643.242842755097}, {"id": "Io4C5tUwnb_YzeaMXHBqBA", "alias": "shuckin-truck-narragansett-2", "name": "Shuckin Truck", "image_url": "https://s3-media2.fl.yelpcdn.com/bphoto/r7QRORfe9UYVS7GGzUm9DQ/o.jpg", "is_closed": false, "url": "https://www.yelp.com/biz/shuckin-truck-narragansett-2?adjust_creative=HbGs3gi3xS-SfqfxZRDuCw&utm_campaign=yelp_api_v3&utm_medium=api_v3_business_search&utm_source=HbGs3gi3xS-SfqfxZRDuCw", "review_count": 24, "categories": [{"alias": "foodtrucks", "title": "Food Trucks"}, {"alias": "seafood", "title": "Seafood"}], "rating": 4.5, "coordinates": {"latitude": 41.4274482727051, "longitude": -71.4597778320313}, "transactions": [], "price": "$$", "location": {"address1": "", "address2": "", "address3": "", "city": "Narragansett", "zip_code": "02882", "country": "US", "state": "RI", "display_address": ["Narragansett, RI 02882"]}, "phone": "+14017415953", "display_phone": "(401) 741-5953", "distance": 9573.731777216459}, {"id": "hC7JCnaIFpubmlbnetupdQ", "alias": "kingston-pizza-peacedale", "name": "Kingston Pizza", "image_url": "https://s3-media2.fl.yelpcdn.com/bphoto/kdxDdLPoL6psaq-nqifdhQ/o.jpg", "is_closed": false, "url": "https://www.yelp.com/biz/kingston-pizza-peacedale?adjust_creative=HbGs3gi3xS-SfqfxZRDuCw&utm_campaign=yelp_api_v3&utm_medium=api_v3_business_search&utm_source=HbGs3gi3xS-SfqfxZRDuCw", "review_count": 20, "categories": [{"alias": "pizza", "title": "Pizza"}], "rating": 4.0, "coordinates": {"latitude": 41.452, "longitude": -71.5016}, "transactions": [], "price": "$$", "location": {"address1": "1283 Kingstown Rd", "address2": null, "address3": null, "city": "Peacedale", "zip_code": "02879", "country": "US", "state": "RI", "display_address": ["1283 Kingstown Rd", "Peacedale, RI 02879"]}, "phone": "+14017898267", "display_phone": "(401) 789-8267", "distance": 3653.236917500524}, {"id": "LELTFJn7jIMvZBRdw_OVkg", "alias": "rachels-cafe-wakefield-2", "name": "Rachel's cafe", "image_url": "https://s3-media3.fl.yelpcdn.com/bphoto/omhQ8ThPa0wTG37KLhRARw/o.jpg", "is_closed": false, "url": "https://www.yelp.com/biz/rachels-cafe-wakefield-2?adjust_creative=HbGs3gi3xS-SfqfxZRDuCw&utm_campaign=yelp_api_v3&utm_medium=api_v3_business_search&utm_source=HbGs3gi3xS-SfqfxZRDuCw", "review_count": 28, "categories": [{"alias": "breakfast_brunch", "title": "Breakfast & Brunch"}, {"alias": "tradamerican", "title": "American (Traditional)"}, {"alias": "cafes", "title": "Cafes"}], "rating": 4.0, "coordinates": {"latitude": 41.455779, "longitude": -71.470121}, "transactions": [], "price": "$$", "location": {"address1": "36 S County Commons Way", "address2": null, "address3": "", "city": "Wakefield", "zip_code": "02879", "country": "US", "state": "RI", "display_address": ["36 S County Commons Way", "Wakefield, RI 02879"]}, "phone": "+14017837888", "display_phone": "(401) 783-7888", "distance": 5170.483095385999}, {"id": "34MiRVbf5fvQjdgF-f5P0g", "alias": "camdens-wakefield", "name": "Camden's", "image_url": "https://s3-media1.fl.yelpcdn.com/bphoto/7YO1JddZtUieCP0CT0uAww/o.jpg", "is_closed": false, "url": "https://www.yelp.com/biz/camdens-wakefield?adjust_creative=HbGs3gi3xS-SfqfxZRDuCw&utm_campaign=yelp_api_v3&utm_medium=api_v3_business_search&utm_source=HbGs3gi3xS-SfqfxZRDuCw", "review_count": 18, "categories": [{"alias": "tradamerican", "title": "American (Traditional)"}, {"alias": "burgers", "title": "Burgers"}, {"alias": "sandwiches", "title": "Sandwiches"}], "rating": 4.0, "coordinates": {"latitude": 41.44473, "longitude": -71.48998}, "transactions": [], "price": "$$", "location": {"address1": "756 Kingstown Rd", "address2": "", "address3": "", "city": "Wakefield", "zip_code": "02879", "country": "US", "state": "RI", "display_address": ["756 Kingstown Rd", "Wakefield, RI 02879"]}, "phone": "+14017822328", "display_phone": "(401) 782-2328", "distance": 4817.036143079068}, {"id": "L3tw7vbsZami-_qbJSo93Q", "alias": "new-dragon-narragansett", "name": "New Dragon", "image_url": "https://s3-media3.fl.yelpcdn.com/bphoto/ty8s7IhX7dNmtQnGmEs3Ig/o.jpg", "is_closed": false, "url": "https://www.yelp.com/biz/new-dragon-narragansett?adjust_creative=HbGs3gi3xS-SfqfxZRDuCw&utm_campaign=yelp_api_v3&utm_medium=api_v3_business_search&utm_source=HbGs3gi3xS-SfqfxZRDuCw", "review_count": 56, "categories": [{"alias": "chinese", "title": "Chinese"}], "rating": 3.5, "coordinates": {"latitude": 41.428742, "longitude": -71.48074}, "transactions": [], "price": "$$", "location": {"address1": "80 Point Judith Rd", "address2": "", "address3": "", "city": "Narragansett", "zip_code": "02882", "country": "US", "state": "RI", "display_address": ["80 Point Judith Rd", "Narragansett, RI 02882"]}, "phone": "+14017831125", "display_phone": "(401) 783-1125", "distance": 6654.169190248226}, {"id": "kAlZ6HK0cjJeqA5PSuxqXA", "alias": "kabuki-wakefield", "name": "Kabuki", "image_url": "https://s3-media4.fl.yelpcdn.com/bphoto/6z7LMEGx9VsmMs46CVmzbg/o.jpg", "is_closed": false, "url": "https://www.yelp.com/biz/kabuki-wakefield?adjust_creative=HbGs3gi3xS-SfqfxZRDuCw&utm_campaign=yelp_api_v3&utm_medium=api_v3_business_search&utm_source=HbGs3gi3xS-SfqfxZRDuCw", "review_count": 101, "categories": [{"alias": "japanese", "title": "Japanese"}, {"alias": "sushi", "title": "Sushi Bars"}, {"alias": "thai", "title": "Thai"}], "rating": 3.5, "coordinates": {"latitude": 41.441655, "longitude": -71.484963}, "transactions": [], "price": "$$", "location": {"address1": "91 Old Tower Hill Rd", "address2": "", "address3": "", "city": "Wakefield", "zip_code": "02879", "country": "US", "state": "RI", "display_address": ["91 Old Tower Hill Rd", "Wakefield, RI 02879"]}, "phone": "+14017880777", "display_phone": "(401) 788-0777", "distance": 5353.094548342727}, {"id": "oXi5uZqBHaRN-9LfbTz4iw", "alias": "solarcart-cafe-wakefield", "name": "SolarCart Cafe", "image_url": "https://s3-media3.fl.yelpcdn.com/bphoto/2jnm4N-kA74C1G385wcvjw/o.jpg", "is_closed": false, "url": "https://www.yelp.com/biz/solarcart-cafe-wakefield?adjust_creative=HbGs3gi3xS-SfqfxZRDuCw&utm_campaign=yelp_api_v3&utm_medium=api_v3_business_search&utm_source=HbGs3gi3xS-SfqfxZRDuCw", "review_count": 5, "categories": [{"alias": "foodtrucks", "title": "Food Trucks"}, {"alias": "cafes", "title": "Cafes"}], "rating": 5.0, "coordinates": {"latitude": 41.3783548485934, "longitude": -71.5497396899248}, "transactions": [], "location": {"address1": "344 Main St", "address2": "", "address3": null, "city": "Wakefield", "zip_code": "02879", "country": "US", "state": "RI", "display_address": ["344 Main St", "Wakefield, RI 02879"]}, "phone": "+14017936041", "display_phone": "(401) 793-6041", "distance": 11616.918041379893}, {"id": "hQO4-mgSCFu1SLC5lXx42A", "alias": "sophies-brew-house-exeter", "name": "Sophies Brew House", "image_url": "https://s3-media1.fl.yelpcdn.com/bphoto/iFSeBADxSw3xoa_aGIe8Sw/o.jpg", "is_closed": false, "url": "https://www.yelp.com/biz/sophies-brew-house-exeter?adjust_creative=HbGs3gi3xS-SfqfxZRDuCw&utm_campaign=yelp_api_v3&utm_medium=api_v3_business_search&utm_source=HbGs3gi3xS-SfqfxZRDuCw", "review_count": 24, "categories": [{"alias": "coffee", "title": "Coffee & Tea"}, {"alias": "bakeries", "title": "Bakeries"}, {"alias": "sandwiches", "title": "Sandwiches"}], "rating": 3.5, "coordinates": {"latitude": 41.518925, "longitude": -71.554805}, "transactions": [], "price": "$", "location": {"address1": "699 S County Trl", "address2": "", "address3": null, "city": "Exeter", "zip_code": "02822", "country": "US", "state": "RI", "display_address": ["699 S County Trl", "Exeter, RI 02822"]}, "phone": "+14012954273", "display_phone": "(401) 295-4273", "distance": 4991.90807860759}, {"id": "rfztrCWgT2Nt97BrFGnlsQ", "alias": "dragon-palace-of-wakefield-south-kingstown-3", "name": "Dragon Palace Of Wakefield", "image_url": "https://s3-media1.fl.yelpcdn.com/bphoto/fvw4ylyPXXLzuZj8u2bx7w/o.jpg", "is_closed": false, "url": "https://www.yelp.com/biz/dragon-palace-of-wakefield-south-kingstown-3?adjust_creative=HbGs3gi3xS-SfqfxZRDuCw&utm_campaign=yelp_api_v3&utm_medium=api_v3_business_search&utm_source=HbGs3gi3xS-SfqfxZRDuCw", "review_count": 51, "categories": [{"alias": "chinese", "title": "Chinese"}], "rating": 3.0, "coordinates": {"latitude": 41.4441108703613, "longitude": -71.4890975952148}, "transactions": [], "price": "$$", "location": {"address1": "733 Kingstown Rd", "address2": "", "address3": "", "city": "South Kingstown", "zip_code": "02879", "country": "US", "state": "RI", "display_address": ["733 Kingstown Rd", "South Kingstown, RI 02879"]}, "phone": "+14017892300", "display_phone": "(401) 789-2300", "distance": 4931.9230835120225}, {"id": "jNkgf4s_M9G1ITmNElgphg", "alias": "phils-restaurant-wakefield", "name": "Phil's Restaurant", "image_url": "https://s3-media2.fl.yelpcdn.com/bphoto/ne78EOu4uvJov-mKsPYZuA/o.jpg", "is_closed": false, "url": "https://www.yelp.com/biz/phils-restaurant-wakefield?adjust_creative=HbGs3gi3xS-SfqfxZRDuCw&utm_campaign=yelp_api_v3&utm_medium=api_v3_business_search&utm_source=HbGs3gi3xS-SfqfxZRDuCw", "review_count": 126, "categories": [{"alias": "diners", "title": "Diners"}, {"alias": "tradamerican", "title": "American (Traditional)"}, {"alias": "cocktailbars", "title": "Cocktail Bars"}], "rating": 3.5, "coordinates": {"latitude": 41.4385852, "longitude": -71.4993618}, "transactions": [], "price": "$$", "location": {"address1": "323 Main St", "address2": "", "address3": "", "city": "Wakefield", "zip_code": "02879", "country": "US", "state": "RI", "display_address": ["323 Main St", "Wakefield, RI 02879"]}, "phone": "+14017834073", "display_phone": "(401) 783-4073", "distance": 5044.76535178565}, {"id": "VTy3vECcVPfQyaTOY5oYKw", "alias": "pjs-pub-narragansett", "name": "PJ's Pub", "image_url": "https://s3-media4.fl.yelpcdn.com/bphoto/z2nk4G8-P-zb32clg07k_g/o.jpg", "is_closed": false, "url": "https://www.yelp.com/biz/pjs-pub-narragansett?adjust_creative=HbGs3gi3xS-SfqfxZRDuCw&utm_campaign=yelp_api_v3&utm_medium=api_v3_business_search&utm_source=HbGs3gi3xS-SfqfxZRDuCw", "review_count": 54, "categories": [{"alias": "pubs", "title": "Pubs"}, {"alias": "mediterranean", "title": "Mediterranean"}], "rating": 3.5, "coordinates": {"latitude": 41.4265, "longitude": -71.45977}, "transactions": [], "price": "$$", "location": {"address1": "135 Boon St", "address2": null, "address3": null, "city": "Narragansett", "zip_code": "02882", "country": "US", "state": "RI", "display_address": ["135 Boon St", "Narragansett, RI 02882"]}, "phone": "+14017893200", "display_phone": "(401) 789-3200", "distance": 7971.249568078085}, {"id": "L55IjPfkRUv-KyHXeINkXw", "alias": "thais-best-narragansett", "name": "Thai's Best", "image_url": "https://s3-media2.fl.yelpcdn.com/bphoto/l34M4pe_wTWHlUboZtnOpQ/o.jpg", "is_closed": false, "url": "https://www.yelp.com/biz/thais-best-narragansett?adjust_creative=HbGs3gi3xS-SfqfxZRDuCw&utm_campaign=yelp_api_v3&utm_medium=api_v3_business_search&utm_source=HbGs3gi3xS-SfqfxZRDuCw", "review_count": 7, "categories": [{"alias": "thai", "title": "Thai"}], "rating": 3.5, "coordinates": {"latitude": 41.4320754406459, "longitude": -71.4586635679007}, "transactions": [], "location": {"address1": "21 Pier Market Pl", "address2": "", "address3": null, "city": "Narragansett", "zip_code": "02882", "country": "US", "state": "RI", "display_address": ["21 Pier Market Pl", "Narragansett, RI 02882"]}, "phone": "+14017837645", "display_phone": "(401) 783-7645", "distance": 7584.910857456591}, {"id": "3YOzgk2UPbFQISWzqS9bHQ", "alias": "subway-kingston-36", "name": "Subway", "image_url": "https://s3-media3.fl.yelpcdn.com/bphoto/JztiFYNk_3e56oRhMcY3Dw/o.jpg", "is_closed": false, "url": "https://www.yelp.com/biz/subway-kingston-36?adjust_creative=HbGs3gi3xS-SfqfxZRDuCw&utm_campaign=yelp_api_v3&utm_medium=api_v3_business_search&utm_source=HbGs3gi3xS-SfqfxZRDuCw", "review_count": 4, "categories": [{"alias": "sandwiches", "title": "Sandwiches"}], "rating": 3.5, "coordinates": {"latitude": 41.48603, "longitude": -71.5240404483066}, "transactions": [], "price": "$", "location": {"address1": "99 Fortin Rd", "address2": "Ste 118 & 119", "address3": "", "city": "Kingston", "zip_code": "02881", "country": "US", "state": "RI", "display_address": ["99 Fortin Rd", "Ste 118 & 119", "Kingston, RI 02881"]}, "phone": "+14017894490", "display_phone": "(401) 789-4490", "distance": 598.7213462190819}, {"id": "FEgs4dE6_uEPwSCXJTXv7g", "alias": "breakfast-nook-ii-wakefield", "name": "Breakfast Nook II", "image_url": "https://s3-media3.fl.yelpcdn.com/bphoto/iPiuRMAUmD6rjQmVVVlOdg/o.jpg", "is_closed": false, "url": "https://www.yelp.com/biz/breakfast-nook-ii-wakefield?adjust_creative=HbGs3gi3xS-SfqfxZRDuCw&utm_campaign=yelp_api_v3&utm_medium=api_v3_business_search&utm_source=HbGs3gi3xS-SfqfxZRDuCw", "review_count": 61, "categories": [{"alias": "breakfast_brunch", "title": "Breakfast & Brunch"}], "rating": 4.0, "coordinates": {"latitude": 41.4399529248476, "longitude": -71.4873558282852}, "transactions": [], "price": "$", "location": {"address1": "575 Kingstown Rd", "address2": "", "address3": "", "city": "Wakefield", "zip_code": "02879", "country": "US", "state": "RI", "display_address": ["575 Kingstown Rd", "Wakefield, RI 02879"]}, "phone": "+14017831555", "display_phone": "(401) 783-1555", "distance": 5407.069333421421}, {"id": "fFwnhnFu56UaJ3Mvp5qe5g", "alias": "old-mountain-lanes-wakefield", "name": "Old Mountain Lanes", "image_url": "https://s3-media2.fl.yelpcdn.com/bphoto/PK-Fc4g9sIlMv02UVHXKzw/o.jpg", "is_closed": false, "url": "https://www.yelp.com/biz/old-mountain-lanes-wakefield?adjust_creative=HbGs3gi3xS-SfqfxZRDuCw&utm_campaign=yelp_api_v3&utm_medium=api_v3_business_search&utm_source=HbGs3gi3xS-SfqfxZRDuCw", "review_count": 27, "categories": [{"alias": "bowling", "title": "Bowling"}, {"alias": "bars", "title": "Bars"}, {"alias": "tradamerican", "title": "American (Traditional)"}], "rating": 4.0, "coordinates": {"latitude": 41.44473, "longitude": -71.48998}, "transactions": [], "location": {"address1": "756 Kingstown Rd", "address2": "", "address3": "", "city": "Wakefield", "zip_code": "02879", "country": "US", "state": "RI", "display_address": ["756 Kingstown Rd", "Wakefield, RI 02879"]}, "phone": "+14017835511", "display_phone": "(401) 783-5511", "distance": 4817.592827742907}, {"id": "x4cqp0vNS3N6kbihLheX3w", "alias": "picnic-basket-narragansett", "name": "Picnic Basket", "image_url": "https://s3-media4.fl.yelpcdn.com/bphoto/uBq_XCqcJYL90CcZfEpZtg/o.jpg", "is_closed": false, "url": "https://www.yelp.com/biz/picnic-basket-narragansett?adjust_creative=HbGs3gi3xS-SfqfxZRDuCw&utm_campaign=yelp_api_v3&utm_medium=api_v3_business_search&utm_source=HbGs3gi3xS-SfqfxZRDuCw", "review_count": 77, "categories": [{"alias": "delis", "title": "Delis"}, {"alias": "coffee", "title": "Coffee & Tea"}, {"alias": "vegetarian", "title": "Vegetarian"}], "rating": 3.5, "coordinates": {"latitude": 41.430758, "longitude": -71.4587991}, "transactions": ["pickup"], "price": "$", "location": {"address1": "20 Kingstown Rd", "address2": "", "address3": "", "city": "Narragansett", "zip_code": "02882", "country": "US", "state": "RI", "display_address": ["20 Kingstown Rd", "Narragansett, RI 02882"]}, "phone": "+14017822284", "display_phone": "(401) 782-2284", "distance": 7687.005643466929}, {"id": "f4lsi39nYE0posWc7l0gfw", "alias": "meldgies-rivers-edge-cafe-wakefield-2", "name": "Meldgie's Rivers Edge Cafe ", "image_url": "https://s3-media2.fl.yelpcdn.com/bphoto/x_cjiwf8rqSLvQ8URHw4FA/o.jpg", "is_closed": false, "url": "https://www.yelp.com/biz/meldgies-rivers-edge-cafe-wakefield-2?adjust_creative=HbGs3gi3xS-SfqfxZRDuCw&utm_campaign=yelp_api_v3&utm_medium=api_v3_business_search&utm_source=HbGs3gi3xS-SfqfxZRDuCw", "review_count": 7, "categories": [{"alias": "breakfast_brunch", "title": "Breakfast & Brunch"}, {"alias": "cafes", "title": "Cafes"}], "rating": 3.5, "coordinates": {"latitude": 41.4369321, "longitude": -71.5012044}, "transactions": [], "price": "$", "location": {"address1": "406 Main St", "address2": "", "address3": null, "city": "Wakefield", "zip_code": "02879", "country": "US", "state": "RI", "display_address": ["406 Main St", "Wakefield, RI 02879"]}, "phone": "+14017895960", "display_phone": "(401) 789-5960", "distance": 5236.963121572728}, {"id": "hvbEVUhsk2-WBjIgpQggKg", "alias": "dbs-pizza-south-kingstown", "name": "DB's Pizza", "image_url": "https://s3-media4.fl.yelpcdn.com/bphoto/D-9-dSC26Ror9wGF4jt2Dg/o.jpg", "is_closed": false, "url": "https://www.yelp.com/biz/dbs-pizza-south-kingstown?adjust_creative=HbGs3gi3xS-SfqfxZRDuCw&utm_campaign=yelp_api_v3&utm_medium=api_v3_business_search&utm_source=HbGs3gi3xS-SfqfxZRDuCw", "review_count": 20, "categories": [{"alias": "pizza", "title": "Pizza"}], "rating": 4.0, "coordinates": {"latitude": 41.4390717, "longitude": -71.4870453}, "transactions": [], "price": "$$", "location": {"address1": "546 Kingstown Rd", "address2": null, "address3": "", "city": "South Kingstown", "zip_code": "02879", "country": "US", "state": "RI", "display_address": ["546 Kingstown Rd", "South Kingstown, RI 02879"]}, "phone": "+14017894222", "display_phone": "(401) 789-4222", "distance": 5469.442313858489}, {"id": "QWW-g-wXCFmGc8YK0CnDmA", "alias": "pier-pizza-company-wakefield", "name": "Pier Pizza Company", "image_url": "https://s3-media1.fl.yelpcdn.com/bphoto/TCQ9U-unJTKSsNE2RHA_dw/o.jpg", "is_closed": false, "url": "https://www.yelp.com/biz/pier-pizza-company-wakefield?adjust_creative=HbGs3gi3xS-SfqfxZRDuCw&utm_campaign=yelp_api_v3&utm_medium=api_v3_business_search&utm_source=HbGs3gi3xS-SfqfxZRDuCw", "review_count": 40, "categories": [{"alias": "pizza", "title": "Pizza"}], "rating": 3.5, "coordinates": {"latitude": 41.438673, "longitude": -71.498962}, "transactions": [], "price": "$", "location": {"address1": "328 Main St", "address2": "", "address3": "", "city": "Wakefield", "zip_code": "02879", "country": "US", "state": "RI", "display_address": ["328 Main St", "Wakefield, RI 02879"]}, "phone": "+14017888181", "display_phone": "(401) 788-8181", "distance": 5073.488113615317}, {"id": "6LuGIl5hEIew74Uv7KH0tw", "alias": "bagelz-bakery-wakefield", "name": "Bagelz Bakery", "image_url": "https://s3-media2.fl.yelpcdn.com/bphoto/uUzL_insJ5ebRszzeYxszw/o.jpg", "is_closed": false, "url": "https://www.yelp.com/biz/bagelz-bakery-wakefield?adjust_creative=HbGs3gi3xS-SfqfxZRDuCw&utm_campaign=yelp_api_v3&utm_medium=api_v3_business_search&utm_source=HbGs3gi3xS-SfqfxZRDuCw", "review_count": 37, "categories": [{"alias": "bagels", "title": "Bagels"}, {"alias": "bakeries", "title": "Bakeries"}, {"alias": "sandwiches", "title": "Sandwiches"}], "rating": 4.0, "coordinates": {"latitude": 41.44104, "longitude": -71.486}, "transactions": [], "price": "$", "location": {"address1": "90 Pershing Ave", "address2": "", "address3": "", "city": "Wakefield", "zip_code": "02879", "country": "US", "state": "RI", "display_address": ["90 Pershing Ave", "Wakefield, RI 02879"]}, "phone": "+14017839700", "display_phone": "(401) 783-9700", "distance": 5348.88506194436}, {"id": "xuUJmrnyBQO6tcnlfMm3Pg", "alias": "401-deli-exeter", "name": "401 Deli", "image_url": "", "is_closed": false, "url": "https://www.yelp.com/biz/401-deli-exeter?adjust_creative=HbGs3gi3xS-SfqfxZRDuCw&utm_campaign=yelp_api_v3&utm_medium=api_v3_business_search&utm_source=HbGs3gi3xS-SfqfxZRDuCw", "review_count": 1, "categories": [{"alias": "italian", "title": "Italian"}, {"alias": "delis", "title": "Delis"}, {"alias": "tradamerican", "title": "American (Traditional)"}], "rating": 3.0, "coordinates": {"latitude": 41.527393, "longitude": -71.552181}, "transactions": [], "location": {"address1": "567 S County Trl", "address2": "Ste 206", "address3": "", "city": "Exeter", "zip_code": "02822", "country": "US", "state": "RI", "display_address": ["567 S County Trl", "Ste 206", "Exeter, RI 02822"]}, "phone": "+14016676148", "display_phone": "(401) 667-6148", "distance": 5729.5354118707955}, {"id": "XMmFAt83NDMHDMRZV9Xf-A", "alias": "catarinas-italian-village-narragansett-3", "name": "Catarina's Italian Village", "image_url": "https://s3-media3.fl.yelpcdn.com/bphoto/4RaoHFqs_R2VCJRrPDtUeQ/o.jpg", "is_closed": false, "url": "https://www.yelp.com/biz/catarinas-italian-village-narragansett-3?adjust_creative=HbGs3gi3xS-SfqfxZRDuCw&utm_campaign=yelp_api_v3&utm_medium=api_v3_business_search&utm_source=HbGs3gi3xS-SfqfxZRDuCw", "review_count": 54, "categories": [{"alias": "italian", "title": "Italian"}, {"alias": "steak", "title": "Steakhouses"}, {"alias": "seafood", "title": "Seafood"}], "rating": 3.0, "coordinates": {"latitude": 41.47807, "longitude": -71.43567}, "transactions": [], "price": "$$", "location": {"address1": "945 Boston Neck Rd", "address2": "", "address3": "", "city": "Narragansett", "zip_code": "02882", "country": "US", "state": "RI", "display_address": ["945 Boston Neck Rd", "Narragansett, RI 02882"]}, "phone": "+14017891725", "display_phone": "(401) 789-1725", "distance": 7251.7163498827995}, {"id": "GEl1OgdSUha2LF1UeBRnyQ", "alias": "matteos-bakery-north-kingstown-2", "name": "Matteos Bakery", "image_url": "https://s3-media1.fl.yelpcdn.com/bphoto/q1Z0ePckxfozmRJAlQHzuQ/o.jpg", "is_closed": false, "url": "https://www.yelp.com/biz/matteos-bakery-north-kingstown-2?adjust_creative=HbGs3gi3xS-SfqfxZRDuCw&utm_campaign=yelp_api_v3&utm_medium=api_v3_business_search&utm_source=HbGs3gi3xS-SfqfxZRDuCw", "review_count": 10, "categories": [{"alias": "bakeries", "title": "Bakeries"}, {"alias": "customcakes", "title": "Custom Cakes"}, {"alias": "pizza", "title": "Pizza"}], "rating": 4.5, "coordinates": {"latitude": 41.54862, "longitude": -71.4408}, "transactions": [], "location": {"address1": "820 Boston Neck Rd", "address2": null, "address3": null, "city": "North Kingstown", "zip_code": "02852", "country": "US", "state": "RI", "display_address": ["820 Boston Neck Rd", "North Kingstown, RI 02852"]}, "phone": "+14016670002", "display_phone": "(401) 667-0002", "distance": 10136.906063979091}, {"id": "uNtYHBr8xVzp0uK88GlTEA", "alias": "applebees-grill-bar-south-kingstown", "name": "Applebee's Grill + Bar", "image_url": "https://s3-media4.fl.yelpcdn.com/bphoto/KxmOC4Wta5ux64_9ogX0ww/o.jpg", "is_closed": false, "url": "https://www.yelp.com/biz/applebees-grill-bar-south-kingstown?adjust_creative=HbGs3gi3xS-SfqfxZRDuCw&utm_campaign=yelp_api_v3&utm_medium=api_v3_business_search&utm_source=HbGs3gi3xS-SfqfxZRDuCw", "review_count": 31, "categories": [{"alias": "tradamerican", "title": "American (Traditional)"}, {"alias": "sportsbars", "title": "Sports Bars"}, {"alias": "burgers", "title": "Burgers"}], "rating": 3.0, "coordinates": {"latitude": 41.4563, "longitude": -71.4694}, "transactions": ["delivery"], "price": "$$", "location": {"address1": "15 South County Commons Way", "address2": "", "address3": "", "city": "South Kingstown", "zip_code": "02879", "country": "US", "state": "RI", "display_address": ["15 South County Commons Way", "South Kingstown, RI 02879"]}, "phone": "+14017824578", "display_phone": "(401) 782-4578", "distance": 5186.122381603567}, {"id": "DyQh3qxQLfDhi8QadIUOlA", "alias": "arturo-joes-grill-and-bar-narragansett", "name": "Arturo Joe's Grill & Bar", "image_url": "https://s3-media1.fl.yelpcdn.com/bphoto/KCyiAQOf3_lr0RVSWpgzhw/o.jpg", "is_closed": false, "url": "https://www.yelp.com/biz/arturo-joes-grill-and-bar-narragansett?adjust_creative=HbGs3gi3xS-SfqfxZRDuCw&utm_campaign=yelp_api_v3&utm_medium=api_v3_business_search&utm_source=HbGs3gi3xS-SfqfxZRDuCw", "review_count": 128, "categories": [{"alias": "italian", "title": "Italian"}, {"alias": "bars", "title": "Bars"}, {"alias": "pizza", "title": "Pizza"}], "rating": 3.5, "coordinates": {"latitude": 41.426, "longitude": -71.48083}, "transactions": [], "price": "$$", "location": {"address1": "140 Point Judith Rd", "address2": "", "address3": "", "city": "Narragansett", "zip_code": "02882", "country": "US", "state": "RI", "display_address": ["140 Point Judith Rd", "Narragansett, RI 02882"]}, "phone": "+14017893230", "display_phone": "(401) 789-3230", "distance": 7058.709326107448}, {"id": "rYv0OuC-Hr8y7UdT9Gm18g", "alias": "kingston-pizza-north-point-narragansett", "name": "Kingston Pizza North Point", "image_url": "https://s3-media2.fl.yelpcdn.com/bphoto/nESED8FMTk5oHyEGPA9EaQ/o.jpg", "is_closed": false, "url": "https://www.yelp.com/biz/kingston-pizza-north-point-narragansett?adjust_creative=HbGs3gi3xS-SfqfxZRDuCw&utm_campaign=yelp_api_v3&utm_medium=api_v3_business_search&utm_source=HbGs3gi3xS-SfqfxZRDuCw", "review_count": 1, "categories": [{"alias": "pizza", "title": "Pizza"}, {"alias": "cheesesteaks", "title": "Cheesesteaks"}, {"alias": "wraps", "title": "Wraps"}], "rating": 5.0, "coordinates": {"latitude": 41.42693, "longitude": -71.48033}, "transactions": [], "location": {"address1": "120 Point Judith Rd", "address2": null, "address3": null, "city": "Narragansett", "zip_code": "02882", "country": "US", "state": "RI", "display_address": ["120 Point Judith Rd", "Narragansett, RI 02882"]}, "phone": "+14015157355", "display_phone": "(401) 515-7355", "distance": 6938.409109090626}, {"id": "wEbSduBun0RJQQFJJ3f87Q", "alias": "brewed-awakenings-coffeehouse-south-county-wakefield-3", "name": "Brewed Awakenings CoffeeHouse South County", "image_url": "https://s3-media3.fl.yelpcdn.com/bphoto/_jZeVAzIgFRJi_QTnyOGCQ/o.jpg", "is_closed": false, "url": "https://www.yelp.com/biz/brewed-awakenings-coffeehouse-south-county-wakefield-3?adjust_creative=HbGs3gi3xS-SfqfxZRDuCw&utm_campaign=yelp_api_v3&utm_medium=api_v3_business_search&utm_source=HbGs3gi3xS-SfqfxZRDuCw", "review_count": 82, "categories": [{"alias": "cafes", "title": "Cafes"}, {"alias": "sandwiches", "title": "Sandwiches"}, {"alias": "breakfast_brunch", "title": "Breakfast & Brunch"}], "rating": 3.0, "coordinates": {"latitude": 41.45588, "longitude": -71.47085}, "transactions": [], "price": "$", "location": {"address1": "60 S County Commons Way", "address2": "", "address3": "", "city": "Wakefield", "zip_code": "02879", "country": "US", "state": "RI", "display_address": ["60 S County Commons Way", "Wakefield, RI 02879"]}, "phone": "+14017830496", "display_phone": "(401) 783-0496", "distance": 5115.967389628496}, {"id": "73RtjdZtOOnIaOAw371doA", "alias": "effie-filippous-twisted-pizza-exeter", "name": "Effie Filippou's Twisted Pizza", "image_url": "https://s3-media1.fl.yelpcdn.com/bphoto/47o8X7BiLjTCuV7a7MDjvA/o.jpg", "is_closed": false, "url": "https://www.yelp.com/biz/effie-filippous-twisted-pizza-exeter?adjust_creative=HbGs3gi3xS-SfqfxZRDuCw&utm_campaign=yelp_api_v3&utm_medium=api_v3_business_search&utm_source=HbGs3gi3xS-SfqfxZRDuCw", "review_count": 60, "categories": [{"alias": "pizza", "title": "Pizza"}, {"alias": "greek", "title": "Greek"}, {"alias": "bars", "title": "Bars"}], "rating": 2.5, "coordinates": {"latitude": 41.527177, "longitude": -71.5523615}, "transactions": [], "price": "$$", "location": {"address1": "567 S County Trl", "address2": "", "address3": "Oak Harbour Plz", "city": "Exeter", "zip_code": "02822", "country": "US", "state": "RI", "display_address": ["567 S County Trl", "Oak Harbour Plz", "Exeter, RI 02822"]}, "phone": "+14012949767", "display_phone": "(401) 294-9767", "distance": 5730.556102046352}, {"id": "mRKOY5Mibo-icJXU-XwCwQ", "alias": "moes-southwest-grill-wakefield", "name": "Moe's Southwest Grill", "image_url": "https://s3-media2.fl.yelpcdn.com/bphoto/S65tic5-JpHA45c1s-SLuA/o.jpg", "is_closed": false, "url": "https://www.yelp.com/biz/moes-southwest-grill-wakefield?adjust_creative=HbGs3gi3xS-SfqfxZRDuCw&utm_campaign=yelp_api_v3&utm_medium=api_v3_business_search&utm_source=HbGs3gi3xS-SfqfxZRDuCw", "review_count": 21, "categories": [{"alias": "mexican", "title": "Mexican"}, {"alias": "tex-mex", "title": "Tex-Mex"}], "rating": 3.0, "coordinates": {"latitude": 41.441642716527, "longitude": -71.4885601401329}, "transactions": [], "price": "$", "location": {"address1": "600 Kingstown Rd", "address2": "", "address3": "", "city": "Wakefield", "zip_code": "02879", "country": "US", "state": "RI", "display_address": ["600 Kingstown Rd", "Wakefield, RI 02879"]}, "phone": "+14012842940", "display_phone": "(401) 284-2940", "distance": 5218.291154759513}, {"id": "gWS7JwYLeT4QVoBQaF749w", "alias": "sea-view-station-north-kingstown", "name": "Sea View Station", "image_url": "https://s3-media2.fl.yelpcdn.com/bphoto/wnjXbZBnQB6_Ci7Y9LD0kg/o.jpg", "is_closed": false, "url": "https://www.yelp.com/biz/sea-view-station-north-kingstown?adjust_creative=HbGs3gi3xS-SfqfxZRDuCw&utm_campaign=yelp_api_v3&utm_medium=api_v3_business_search&utm_source=HbGs3gi3xS-SfqfxZRDuCw", "review_count": 20, "categories": [{"alias": "tradamerican", "title": "American (Traditional)"}, {"alias": "breakfast_brunch", "title": "Breakfast & Brunch"}], "rating": 3.5, "coordinates": {"latitude": 41.5535761109508, "longitude": -71.4408076675166}, "transactions": [], "price": "$", "location": {"address1": "640 Boston Neck Rd", "address2": "", "address3": "", "city": "North Kingstown", "zip_code": "02852", "country": "US", "state": "RI", "display_address": ["640 Boston Neck Rd", "North Kingstown, RI 02852"]}, "phone": "+14012958666", "display_phone": "(401) 295-8666", "distance": 10574.37190226363}, {"id": "S9xVEfTwXbZSs8hx0pPeig", "alias": "international-slice-pizza-and-wings-kingston", "name": "International Slice Pizza and Wings", "image_url": "https://s3-media4.fl.yelpcdn.com/bphoto/VeEiHFVZhH4u1lGPvKt8QQ/o.jpg", "is_closed": false, "url": "https://www.yelp.com/biz/international-slice-pizza-and-wings-kingston?adjust_creative=HbGs3gi3xS-SfqfxZRDuCw&utm_campaign=yelp_api_v3&utm_medium=api_v3_business_search&utm_source=HbGs3gi3xS-SfqfxZRDuCw", "review_count": 1, "categories": [{"alias": "pizza", "title": "Pizza"}, {"alias": "italian", "title": "Italian"}, {"alias": "chicken_wings", "title": "Chicken Wings"}], "rating": 1.0, "coordinates": {"latitude": 41.485233977437, "longitude": -71.5237265825272}, "transactions": ["delivery", "pickup"], "location": {"address1": "99 Fortin Rd", "address2": "Ste 3A", "address3": null, "city": "Kingston", "zip_code": "02881", "country": "US", "state": "RI", "display_address": ["99 Fortin Rd", "Ste 3A", "Kingston, RI 02881"]}, "phone": "+14012841386", "display_phone": "(401) 284-1386", "distance": 533.9632262231386}, {"id": "E75rKYYtQreV1lgKJ0QMCw", "alias": "ocean-catch-seafood-wakefield-2", "name": "Ocean Catch Seafood", "image_url": "", "is_closed": false, "url": "https://www.yelp.com/biz/ocean-catch-seafood-wakefield-2?adjust_creative=HbGs3gi3xS-SfqfxZRDuCw&utm_campaign=yelp_api_v3&utm_medium=api_v3_business_search&utm_source=HbGs3gi3xS-SfqfxZRDuCw", "review_count": 1, "categories": [{"alias": "seafood", "title": "Seafood"}], "rating": 4.0, "coordinates": {"latitude": 41.43923, "longitude": -71.48748}, "transactions": [], "location": {"address1": "566 Kingstown Rd", "address2": "", "address3": "", "city": "Wakefield", "zip_code": "02879", "country": "US", "state": "RI", "display_address": ["566 Kingstown Rd", "Wakefield, RI 02879"]}, "phone": "+14017893474", "display_phone": "(401) 789-3474", "distance": 5426.703502823079}, {"id": "0xMIV3cZcDtSNG2bIy9Ryw", "alias": "bamboo-garden-narragansett", "name": "Bamboo Garden", "image_url": "https://s3-media4.fl.yelpcdn.com/bphoto/sETGpsuCi-DPSjO7KpgsYg/o.jpg", "is_closed": false, "url": "https://www.yelp.com/biz/bamboo-garden-narragansett?adjust_creative=HbGs3gi3xS-SfqfxZRDuCw&utm_campaign=yelp_api_v3&utm_medium=api_v3_business_search&utm_source=HbGs3gi3xS-SfqfxZRDuCw", "review_count": 12, "categories": [{"alias": "chinese", "title": "Chinese"}], "rating": 3.0, "coordinates": {"latitude": 41.47799, "longitude": -71.43602}, "transactions": [], "price": "$$", "location": {"address1": "944 Boston Neck Rd", "address2": null, "address3": null, "city": "Narragansett", "zip_code": "02882", "country": "US", "state": "RI", "display_address": ["944 Boston Neck Rd", "Narragansett, RI 02882"]}, "phone": "+14017888085", "display_phone": "(401) 788-8085", "distance": 7195.739470438983}, {"id": "GOeDkIWRdQf3b9v0O2Wb4g", "alias": "panera-bread-wakefield", "name": "Panera Bread", "image_url": "https://s3-media2.fl.yelpcdn.com/bphoto/9WwYaBmgc9O0p6ZtFgRAsg/o.jpg", "is_closed": false, "url": "https://www.yelp.com/biz/panera-bread-wakefield?adjust_creative=HbGs3gi3xS-SfqfxZRDuCw&utm_campaign=yelp_api_v3&utm_medium=api_v3_business_search&utm_source=HbGs3gi3xS-SfqfxZRDuCw", "review_count": 23, "categories": [{"alias": "sandwiches", "title": "Sandwiches"}, {"alias": "salad", "title": "Salad"}, {"alias": "soup", "title": "Soup"}], "rating": 2.5, "coordinates": {"latitude": 41.443884, "longitude": -71.482444}, "transactions": [], "price": "$$", "location": {"address1": "160 Old Tower Hill Rd", "address2": null, "address3": "", "city": "Wakefield", "zip_code": "02879", "country": "US", "state": "RI", "display_address": ["160 Old Tower Hill Rd", "Wakefield, RI 02879"]}, "phone": "+14017880102", "display_phone": "(401) 788-0102", "distance": 5283.184177404083}, {"id": "72OGzka9UU53HBebGAG84g", "alias": "five-guys-wakefield", "name": "Five Guys", "image_url": "https://s3-media4.fl.yelpcdn.com/bphoto/TsMCQlIpzr8uopzDU7-A4Q/o.jpg", "is_closed": false, "url": "https://www.yelp.com/biz/five-guys-wakefield?adjust_creative=HbGs3gi3xS-SfqfxZRDuCw&utm_campaign=yelp_api_v3&utm_medium=api_v3_business_search&utm_source=HbGs3gi3xS-SfqfxZRDuCw", "review_count": 20, "categories": [{"alias": "burgers", "title": "Burgers"}, {"alias": "hotdogs", "title": "Fast Food"}], "rating": 4.0, "coordinates": {"latitude": 41.44061, "longitude": -71.48881}, "transactions": [], "price": "$", "location": {"address1": "600 Kingstown Rd", "address2": "", "address3": "", "city": "Wakefield", "zip_code": "02879", "country": "US", "state": "RI", "display_address": ["600 Kingstown Rd", "Wakefield, RI 02879"]}, "phone": "+14012842395", "display_phone": "(401) 284-2395", "distance": 5218.291154759513}, {"id": "xgPjlQQ4ZYiqHPHKiomVXw", "alias": "the-cone-zone-exeter", "name": "The Cone Zone", "image_url": "", "is_closed": false, "url": "https://www.yelp.com/biz/the-cone-zone-exeter?adjust_creative=HbGs3gi3xS-SfqfxZRDuCw&utm_campaign=yelp_api_v3&utm_medium=api_v3_business_search&utm_source=HbGs3gi3xS-SfqfxZRDuCw", "review_count": 2, "categories": [{"alias": "hotdogs", "title": "Fast Food"}], "rating": 5.0, "coordinates": {"latitude": 41.52592, "longitude": -71.55203}, "transactions": [], "location": {"address1": "567 S County Trl", "address2": "", "address3": "", "city": "Exeter", "zip_code": "02822", "country": "US", "state": "RI", "display_address": ["567 S County Trl", "Exeter, RI 02822"]}, "phone": "+14016677644", "display_phone": "(401) 667-7644", "distance": 5729.5354118707955}, {"id": "z6mrOh37jdCHItDBDl-frg", "alias": "pancho-o-malleys-narragansett-2", "name": "Pancho O'Malleys", "image_url": "https://s3-media4.fl.yelpcdn.com/bphoto/fu6FXdSBMsRA5M4oE7zl1w/o.jpg", "is_closed": false, "url": "https://www.yelp.com/biz/pancho-o-malleys-narragansett-2?adjust_creative=HbGs3gi3xS-SfqfxZRDuCw&utm_campaign=yelp_api_v3&utm_medium=api_v3_business_search&utm_source=HbGs3gi3xS-SfqfxZRDuCw", "review_count": 45, "categories": [{"alias": "irish", "title": "Irish"}, {"alias": "mexican", "title": "Mexican"}, {"alias": "bars", "title": "Bars"}], "rating": 3.0, "coordinates": {"latitude": 41.4257991490733, "longitude": -71.4801891158715}, "transactions": [], "price": "$$", "location": {"address1": "140 Point Judith Rd", "address2": "", "address3": "", "city": "Narragansett", "zip_code": "02882", "country": "US", "state": "RI", "display_address": ["140 Point Judith Rd", "Narragansett, RI 02882"]}, "phone": "+14017822299", "display_phone": "(401) 782-2299", "distance": 7053.446939422707}, {"id": "PnUNpa2DEhO-RB_nsQ3UiQ", "alias": "twisted-pizza-wakefield-wakefield", "name": "Twisted Pizza- Wakefield", "image_url": "https://s3-media4.fl.yelpcdn.com/bphoto/Wv0gqEUdaoJ-xHxP0e-23g/o.jpg", "is_closed": false, "url": "https://www.yelp.com/biz/twisted-pizza-wakefield-wakefield?adjust_creative=HbGs3gi3xS-SfqfxZRDuCw&utm_campaign=yelp_api_v3&utm_medium=api_v3_business_search&utm_source=HbGs3gi3xS-SfqfxZRDuCw", "review_count": 19, "categories": [{"alias": "pizza", "title": "Pizza"}, {"alias": "greek", "title": "Greek"}, {"alias": "burgers", "title": "Burgers"}], "rating": 2.5, "coordinates": {"latitude": 41.4417409, "longitude": -71.4877449}, "transactions": [], "price": "$$", "location": {"address1": "28 Old Tower Hill Rd", "address2": null, "address3": "", "city": "Wakefield", "zip_code": "02879", "country": "US", "state": "RI", "display_address": ["28 Old Tower Hill Rd", "Wakefield, RI 02879"]}, "phone": "+14017828800", "display_phone": "(401) 782-8800", "distance": 5213.670890666807}, {"id": "TIW5jCJ1qI6CQxpAU5TQJA", "alias": "saffron-lounge-wakefield", "name": "Saffron Lounge", "image_url": "", "is_closed": false, "url": "https://www.yelp.com/biz/saffron-lounge-wakefield?adjust_creative=HbGs3gi3xS-SfqfxZRDuCw&utm_campaign=yelp_api_v3&utm_medium=api_v3_business_search&utm_source=HbGs3gi3xS-SfqfxZRDuCw", "review_count": 2, "categories": [{"alias": "restaurants", "title": "Restaurants"}], "rating": 2.0, "coordinates": {"latitude": 53.659236, "longitude": -1.554721}, "transactions": [], "location": {"address1": "11 High St", "address2": "", "address3": "Horbury", "city": "Wakefield", "zip_code": "WF4 5AB", "country": "GB", "state": "XWY", "display_address": ["11 High St", "Horbury", "Wakefield WF4 5AB", "United Kingdom"]}, "phone": "+441924277677", "display_phone": "+44 1924 277677", "distance": 5137.635004669098}, {"id": "dy9R137dnkNhWa3fs6ElPQ", "alias": "java-madness-wakefield", "name": "Java Madness", "image_url": "https://s3-media2.fl.yelpcdn.com/bphoto/oJXb2yIZ5u96QHqO55E5DQ/o.jpg", "is_closed": false, "url": "https://www.yelp.com/biz/java-madness-wakefield?adjust_creative=HbGs3gi3xS-SfqfxZRDuCw&utm_campaign=yelp_api_v3&utm_medium=api_v3_business_search&utm_source=HbGs3gi3xS-SfqfxZRDuCw", "review_count": 51, "categories": [{"alias": "coffee", "title": "Coffee & Tea"}, {"alias": "cafes", "title": "Cafes"}], "rating": 3.5, "coordinates": {"latitude": 41.4281628, "longitude": -71.4958398}, "transactions": [], "price": "$", "location": {"address1": "134 Salt Pond Rd", "address2": "", "address3": "", "city": "Wakefield", "zip_code": "02879", "country": "US", "state": "RI", "display_address": ["134 Salt Pond Rd", "Wakefield, RI 02879"]}, "phone": "+14017880088", "display_phone": "(401) 788-0088", "distance": 6241.530120136654}, {"id": "C5Jlj3D9zAK4AuKud7KqRw", "alias": "mcdonalds-wakefield-6", "name": "McDonald's", "image_url": "https://s3-media2.fl.yelpcdn.com/bphoto/bAAMSSoY2cYyILAc2QdGew/o.jpg", "is_closed": false, "url": "https://www.yelp.com/biz/mcdonalds-wakefield-6?adjust_creative=HbGs3gi3xS-SfqfxZRDuCw&utm_campaign=yelp_api_v3&utm_medium=api_v3_business_search&utm_source=HbGs3gi3xS-SfqfxZRDuCw", "review_count": 29, "categories": [{"alias": "coffee", "title": "Coffee & Tea"}, {"alias": "burgers", "title": "Burgers"}, {"alias": "hotdogs", "title": "Fast Food"}], "rating": 1.5, "coordinates": {"latitude": 41.44249716529, "longitude": -71.4831179380417}, "transactions": [], "price": "$", "location": {"address1": "149 Old Tower Hill Rd", "address2": null, "address3": null, "city": "Wakefield", "zip_code": "02879", "country": "US", "state": "RI", "display_address": ["149 Old Tower Hill Rd", "Wakefield, RI 02879"]}, "phone": "+14017835393", "display_phone": "(401) 783-5393", "distance": 5369.479293070877}, {"id": "Lts3tXLtuT9IEg11-d6aBw", "alias": "meldgies-diner-narragansett-2", "name": "Meldgie's Diner", "image_url": "https://s3-media4.fl.yelpcdn.com/bphoto/8LFlj0HVR22dLkgw36HW8g/o.jpg", "is_closed": false, "url": "https://www.yelp.com/biz/meldgies-diner-narragansett-2?adjust_creative=HbGs3gi3xS-SfqfxZRDuCw&utm_campaign=yelp_api_v3&utm_medium=api_v3_business_search&utm_source=HbGs3gi3xS-SfqfxZRDuCw", "review_count": 36, "categories": [{"alias": "breakfast_brunch", "title": "Breakfast & Brunch"}], "rating": 3.5, "coordinates": {"latitude": 41.4758482575417, "longitude": -71.4351359009743}, "transactions": [], "price": "$", "location": {"address1": "909 Boston Neck Rd", "address2": "", "address3": "", "city": "Narragansett", "zip_code": "02882", "country": "US", "state": "RI", "display_address": ["909 Boston Neck Rd", "Narragansett, RI 02882"]}, "phone": "+14017891351", "display_phone": "(401) 789-1351", "distance": 7336.109144561405}, {"id": "WSsvY-R-dtudoH_zxfHchg", "alias": "leos-pizza-narragansett", "name": "Leo's Pizza", "image_url": "https://s3-media3.fl.yelpcdn.com/bphoto/eUz7FVi3pdymqCnm0UywLQ/o.jpg", "is_closed": false, "url": "https://www.yelp.com/biz/leos-pizza-narragansett?adjust_creative=HbGs3gi3xS-SfqfxZRDuCw&utm_campaign=yelp_api_v3&utm_medium=api_v3_business_search&utm_source=HbGs3gi3xS-SfqfxZRDuCw", "review_count": 38, "categories": [{"alias": "pizza", "title": "Pizza"}], "rating": 3.5, "coordinates": {"latitude": 41.47732, "longitude": -71.43545}, "transactions": [], "price": "$$", "location": {"address1": "909 Boston Neck Rd", "address2": "", "address3": "", "city": "Narragansett", "zip_code": "02882", "country": "US", "state": "RI", "display_address": ["909 Boston Neck Rd", "Narragansett, RI 02882"]}, "phone": "+14017894950", "display_phone": "(401) 789-4950", "distance": 7336.48501975371}, {"id": "dAATXeTa07-T6qb3n00f9w", "alias": "coffee-n-bagel-connection-narragansett-2", "name": "Coffee n' Bagel Connection", "image_url": "https://s3-media2.fl.yelpcdn.com/bphoto/Whq7nzMuhyM9t4UVnRFoqA/o.jpg", "is_closed": false, "url": "https://www.yelp.com/biz/coffee-n-bagel-connection-narragansett-2?adjust_creative=HbGs3gi3xS-SfqfxZRDuCw&utm_campaign=yelp_api_v3&utm_medium=api_v3_business_search&utm_source=HbGs3gi3xS-SfqfxZRDuCw", "review_count": 62, "categories": [{"alias": "coffee", "title": "Coffee & Tea"}, {"alias": "bagels", "title": "Bagels"}, {"alias": "cafes", "title": "Cafes"}], "rating": 3.5, "coordinates": {"latitude": 41.4902, "longitude": -71.43729}, "transactions": [], "price": "$", "location": {"address1": "1175 Boston Neck Rd", "address2": "", "address3": "", "city": "Narragansett", "zip_code": "02882", "country": "US", "state": "RI", "display_address": ["1175 Boston Neck Rd", "Narragansett, RI 02882"]}, "phone": "+14017829920", "display_phone": "(401) 782-9920", "distance": 7146.058904589018}, {"id": "RORcDoQLZ1l2r2cA9KovHA", "alias": "exeter-town-pizza-exeter", "name": "Exeter Town Pizza", "image_url": "https://s3-media3.fl.yelpcdn.com/bphoto/a6p5egetrd8hEAeegZzbQA/o.jpg", "is_closed": false, "url": "https://www.yelp.com/biz/exeter-town-pizza-exeter?adjust_creative=HbGs3gi3xS-SfqfxZRDuCw&utm_campaign=yelp_api_v3&utm_medium=api_v3_business_search&utm_source=HbGs3gi3xS-SfqfxZRDuCw", "review_count": 17, "categories": [{"alias": "pizza", "title": "Pizza"}], "rating": 3.5, "coordinates": {"latitude": 41.545894, "longitude": -71.533206}, "transactions": [], "price": "$$", "location": {"address1": "393 S County Trl", "address2": "", "address3": "", "city": "Exeter", "zip_code": "02822", "country": "US", "state": "RI", "display_address": ["393 S County Trl", "Exeter, RI 02822"]}, "phone": "+14012942393", "display_phone": "(401) 294-2393", "distance": 7294.896002478111}, {"id": "j6AIcBxenBQt4BWlrQ6Dqg", "alias": "colvittos-pizza-and-bakery-narragansett-2", "name": "Colvitto's Pizza & Bakery", "image_url": "https://s3-media2.fl.yelpcdn.com/bphoto/GVD9JSXYcHCFgAwwCdEHgg/o.jpg", "is_closed": false, "url": "https://www.yelp.com/biz/colvittos-pizza-and-bakery-narragansett-2?adjust_creative=HbGs3gi3xS-SfqfxZRDuCw&utm_campaign=yelp_api_v3&utm_medium=api_v3_business_search&utm_source=HbGs3gi3xS-SfqfxZRDuCw", "review_count": 51, "categories": [{"alias": "bakeries", "title": "Bakeries"}, {"alias": "pizza", "title": "Pizza"}, {"alias": "italian", "title": "Italian"}], "rating": 3.5, "coordinates": {"latitude": 41.4293497, "longitude": -71.4824288}, "transactions": [], "price": "$", "location": {"address1": "91 Point Judith Rd", "address2": "Ste 16", "address3": "", "city": "Narragansett", "zip_code": "02882", "country": "US", "state": "RI", "display_address": ["91 Point Judith Rd", "Ste 16", "Narragansett, RI 02882"]}, "phone": "+14017838086", "display_phone": "(401) 783-8086", "distance": 6618.1904293212365}, {"id": "EGoMpcq146ExPUFzozMpOQ", "alias": "burger-king-wakefield-4", "name": "Burger King", "image_url": "https://s3-media4.fl.yelpcdn.com/bphoto/7BgSrcuPH9awZ2ehsXEdxQ/o.jpg", "is_closed": false, "url": "https://www.yelp.com/biz/burger-king-wakefield-4?adjust_creative=HbGs3gi3xS-SfqfxZRDuCw&utm_campaign=yelp_api_v3&utm_medium=api_v3_business_search&utm_source=HbGs3gi3xS-SfqfxZRDuCw", "review_count": 12, "categories": [{"alias": "burgers", "title": "Burgers"}, {"alias": "hotdogs", "title": "Fast Food"}], "rating": 1.5, "coordinates": {"latitude": 41.44261, "longitude": -71.4843099}, "transactions": [], "price": "$", "location": {"address1": "126 Old Tower Hill Rd", "address2": "", "address3": "", "city": "Wakefield", "zip_code": "02879", "country": "US", "state": "RI", "display_address": ["126 Old Tower Hill Rd", "Wakefield, RI 02879"]}, "phone": "", "display_phone": "", "distance": 5327.830828927305}, {"id": "3kN89a8IzF0J5Y528ab4TQ", "alias": "whales-tail-narragansett-2", "name": "Whale's Tail", "image_url": "", "is_closed": false, "url": "https://www.yelp.com/biz/whales-tail-narragansett-2?adjust_creative=HbGs3gi3xS-SfqfxZRDuCw&utm_campaign=yelp_api_v3&utm_medium=api_v3_business_search&utm_source=HbGs3gi3xS-SfqfxZRDuCw", "review_count": 3, "categories": [{"alias": "breakfast_brunch", "title": "Breakfast & Brunch"}], "rating": 1.5, "coordinates": {"latitude": 41.425999, "longitude": -71.480829}, "transactions": [], "price": "$$", "location": {"address1": "140 Pt Judith Rd", "address2": "Ste 5A", "address3": "", "city": "Narragansett", "zip_code": "02882", "country": "US", "state": "RI", "display_address": ["140 Pt Judith Rd", "Ste 5A", "Narragansett, RI 02882"]}, "phone": "+14012841546", "display_phone": "(401) 284-1546", "distance": 7058.709326107448}, {"id": "JNRp-NPXsG2iUyMttPkH7A", "alias": "subway-narragansett-4", "name": "Subway", "image_url": "https://s3-media2.fl.yelpcdn.com/bphoto/IKQS1dCJCjYN78DtN9yEqA/o.jpg", "is_closed": false, "url": "https://www.yelp.com/biz/subway-narragansett-4?adjust_creative=HbGs3gi3xS-SfqfxZRDuCw&utm_campaign=yelp_api_v3&utm_medium=api_v3_business_search&utm_source=HbGs3gi3xS-SfqfxZRDuCw", "review_count": 3, "categories": [{"alias": "sandwiches", "title": "Sandwiches"}], "rating": 5.0, "coordinates": {"latitude": 41.4301847575767, "longitude": -71.4824796122684}, "transactions": [], "price": "$", "location": {"address1": "14 Woodruff Ave", "address2": "Unit 5", "address3": "", "city": "Narragansett", "zip_code": "02882", "country": "US", "state": "RI", "display_address": ["14 Woodruff Ave", "Unit 5", "Narragansett, RI 02882"]}, "phone": "+14017828060", "display_phone": "(401) 782-8060", "distance": 6535.935815038795}, {"id": "MTrIzSPVJ3eJWBKhPFFCcQ", "alias": "dominos-pizza-narragansett", "name": "Domino's Pizza", "image_url": "https://s3-media2.fl.yelpcdn.com/bphoto/13wtK3nDBu0HxMyirGHvcQ/o.jpg", "is_closed": false, "url": "https://www.yelp.com/biz/dominos-pizza-narragansett?adjust_creative=HbGs3gi3xS-SfqfxZRDuCw&utm_campaign=yelp_api_v3&utm_medium=api_v3_business_search&utm_source=HbGs3gi3xS-SfqfxZRDuCw", "review_count": 11, "categories": [{"alias": "pizza", "title": "Pizza"}, {"alias": "chicken_wings", "title": "Chicken Wings"}, {"alias": "sandwiches", "title": "Sandwiches"}], "rating": 2.5, "coordinates": {"latitude": 41.426, "longitude": -71.48083}, "transactions": [], "price": "$", "location": {"address1": "140 Point Judith Rd", "address2": "", "address3": "", "city": "Narragansett", "zip_code": "02882", "country": "US", "state": "RI", "display_address": ["140 Point Judith Rd", "Narragansett, RI 02882"]}, "phone": "+14017821202", "display_phone": "(401) 782-1202", "distance": 7058.709326107448}, {"id": "DAOQ09y_X4_PEF7AzQ0qFA", "alias": "d-angelo-wakefield", "name": "D'Angelo", "image_url": "https://s3-media4.fl.yelpcdn.com/bphoto/gKemRNBxGGd8eJySga17hQ/o.jpg", "is_closed": false, "url": "https://www.yelp.com/biz/d-angelo-wakefield?adjust_creative=HbGs3gi3xS-SfqfxZRDuCw&utm_campaign=yelp_api_v3&utm_medium=api_v3_business_search&utm_source=HbGs3gi3xS-SfqfxZRDuCw", "review_count": 9, "categories": [{"alias": "sandwiches", "title": "Sandwiches"}, {"alias": "soup", "title": "Soup"}, {"alias": "wraps", "title": "Wraps"}], "rating": 3.0, "coordinates": {"latitude": 41.4420989, "longitude": -71.4836907}, "transactions": [], "price": "$$", "location": {"address1": "71 Old Tower Hill", "address2": "", "address3": "", "city": "Wakefield", "zip_code": "02879", "country": "US", "state": "RI", "display_address": ["71 Old Tower Hill", "Wakefield, RI 02879"]}, "phone": "+14017892050", "display_phone": "(401) 789-2050", "distance": 5375.92351358543}, {"id": "igfgAh0W9ooc6PQVrDX46Q", "alias": "narragansett-bay-lobster-narragansett", "name": "Narragansett Bay Lobster", "image_url": "", "is_closed": false, "url": "https://www.yelp.com/biz/narragansett-bay-lobster-narragansett?adjust_creative=HbGs3gi3xS-SfqfxZRDuCw&utm_campaign=yelp_api_v3&utm_medium=api_v3_business_search&utm_source=HbGs3gi3xS-SfqfxZRDuCw", "review_count": 1, "categories": [{"alias": "seafood", "title": "Seafood"}], "rating": 1.0, "coordinates": {"latitude": 41.4281999, "longitude": -71.47702}, "transactions": [], "location": {"address1": "20 Walts Way", "address2": null, "address3": null, "city": "Narragansett", "zip_code": "02882", "country": "US", "state": "RI", "display_address": ["20 Walts Way", "Narragansett, RI 02882"]}, "phone": "+14012843400", "display_phone": "(401) 284-3400", "distance": 6953.229555474618}, {"id": "qFAlL8WsmfhnNbKFCtVxEA", "alias": "subway-saunderstown-3", "name": "Subway", "image_url": "https://s3-media3.fl.yelpcdn.com/bphoto/l-Gr-Lu9_WrOApUhecA9GA/o.jpg", "is_closed": false, "url": "https://www.yelp.com/biz/subway-saunderstown-3?adjust_creative=HbGs3gi3xS-SfqfxZRDuCw&utm_campaign=yelp_api_v3&utm_medium=api_v3_business_search&utm_source=HbGs3gi3xS-SfqfxZRDuCw", "review_count": 2, "categories": [{"alias": "sandwiches", "title": "Sandwiches"}], "rating": 2.5, "coordinates": {"latitude": 41.4951765860375, "longitude": -71.45701}, "transactions": [], "price": "$", "location": {"address1": "3045 Tower Hill Rd", "address2": "Unit 4", "address3": null, "city": "Saunderstown", "zip_code": "02874", "country": "US", "state": "RI", "display_address": ["3045 Tower Hill Rd", "Unit 4", "Saunderstown, RI 02874"]}, "phone": "+14017881081", "display_phone": "(401) 788-1081", "distance": 5674.2061335792505}, {"id": "00LI1UYMmZz41gn-P_gbOQ", "alias": "boston-neck-pizza-north-kingstown", "name": "Boston Neck Pizza", "image_url": "https://s3-media2.fl.yelpcdn.com/bphoto/jP3mvXb3Y-A0ygyLZqNnhQ/o.jpg", "is_closed": false, "url": "https://www.yelp.com/biz/boston-neck-pizza-north-kingstown?adjust_creative=HbGs3gi3xS-SfqfxZRDuCw&utm_campaign=yelp_api_v3&utm_medium=api_v3_business_search&utm_source=HbGs3gi3xS-SfqfxZRDuCw", "review_count": 27, "categories": [{"alias": "pizza", "title": "Pizza"}], "rating": 3.0, "coordinates": {"latitude": 41.52556, "longitude": -71.4245}, "transactions": [], "price": "$$", "location": {"address1": "1814 Boston Neck Rd", "address2": "", "address3": "", "city": "North Kingstown", "zip_code": "02852", "country": "US", "state": "RI", "display_address": ["1814 Boston Neck Rd", "North Kingstown, RI 02852"]}, "phone": "+14012946868", "display_phone": "(401) 294-6868", "distance": 9575.859357565818}, {"id": "NJPutiSLbVNoUuDnHijY6g", "alias": "kfc-wakefield-4", "name": "KFC", "image_url": "https://s3-media2.fl.yelpcdn.com/bphoto/mfnc2G5gkVBwonklRguLdA/o.jpg", "is_closed": false, "url": "https://www.yelp.com/biz/kfc-wakefield-4?adjust_creative=HbGs3gi3xS-SfqfxZRDuCw&utm_campaign=yelp_api_v3&utm_medium=api_v3_business_search&utm_source=HbGs3gi3xS-SfqfxZRDuCw", "review_count": 7, "categories": [{"alias": "chicken_wings", "title": "Chicken Wings"}, {"alias": "hotdogs", "title": "Fast Food"}, {"alias": "chickenshop", "title": "Chicken Shop"}], "rating": 2.0, "coordinates": {"latitude": 41.4418852716743, "longitude": -71.4831244664985}, "transactions": ["pickup"], "price": "$", "location": {"address1": "139 Old Tower Hill Rd", "address2": "", "address3": "", "city": "Wakefield", "zip_code": "02879", "country": "US", "state": "RI", "display_address": ["139 Old Tower Hill Rd", "Wakefield, RI 02879"]}, "phone": "+14017889143", "display_phone": "(401) 788-9143", "distance": 5423.278105249705}, {"id": "PgXTzdjmVT28YPPBfWTgKQ", "alias": "kingston-pizza-bonnet", "name": "Kingston Pizza", "image_url": "https://s3-media1.fl.yelpcdn.com/bphoto/gp37kMbSXk_FMBSfygyPBA/o.jpg", "is_closed": false, "url": "https://www.yelp.com/biz/kingston-pizza-bonnet?adjust_creative=HbGs3gi3xS-SfqfxZRDuCw&utm_campaign=yelp_api_v3&utm_medium=api_v3_business_search&utm_source=HbGs3gi3xS-SfqfxZRDuCw", "review_count": 36, "categories": [{"alias": "pizza", "title": "Pizza"}, {"alias": "italian", "title": "Italian"}], "rating": 2.0, "coordinates": {"latitude": 41.478642, "longitude": -71.435855}, "transactions": ["pickup", "delivery"], "price": "$$", "location": {"address1": "961 Boston Neck Rd", "address2": "", "address3": "", "city": "Bonnet", "zip_code": "02874", "country": "US", "state": "RI", "display_address": ["961 Boston Neck Rd", "Bonnet, RI 02874"]}, "phone": "+14017893146", "display_phone": "(401) 789-3146", "distance": 7211.140420909349}, {"id": "KiHVtMvS_TgHJjJMXOlhLw", "alias": "subway-wakefield-10", "name": "Subway", "image_url": "https://s3-media1.fl.yelpcdn.com/bphoto/QWUwSbx4PsTC46iPeMvk2Q/o.jpg", "is_closed": false, "url": "https://www.yelp.com/biz/subway-wakefield-10?adjust_creative=HbGs3gi3xS-SfqfxZRDuCw&utm_campaign=yelp_api_v3&utm_medium=api_v3_business_search&utm_source=HbGs3gi3xS-SfqfxZRDuCw", "review_count": 5, "categories": [{"alias": "sandwiches", "title": "Sandwiches"}], "rating": 2.5, "coordinates": {"latitude": 41.4424926744013, "longitude": -71.4897268345906}, "transactions": ["pickup"], "price": "$", "location": {"address1": "684 Kingstown Rd", "address2": "Ste 02065S1B", "address3": null, "city": "Wakefield", "zip_code": "02879", "country": "US", "state": "RI", "display_address": ["684 Kingstown Rd", "Ste 02065S1B", "Wakefield, RI 02879"]}, "phone": "+14017831717", "display_phone": "(401) 783-1717", "distance": 5053.345339485568}, {"id": "Z5rK2v4UKS88ocU3PRfZAg", "alias": "taco-bell-wakefield", "name": "Taco Bell", "image_url": "https://s3-media2.fl.yelpcdn.com/bphoto/5jVsJeLpqvwAqhQz40JRbA/o.jpg", "is_closed": false, "url": "https://www.yelp.com/biz/taco-bell-wakefield?adjust_creative=HbGs3gi3xS-SfqfxZRDuCw&utm_campaign=yelp_api_v3&utm_medium=api_v3_business_search&utm_source=HbGs3gi3xS-SfqfxZRDuCw", "review_count": 10, "categories": [{"alias": "hotdogs", "title": "Fast Food"}, {"alias": "tacos", "title": "Tacos"}], "rating": 1.5, "coordinates": {"latitude": 41.441627, "longitude": -71.481989}, "transactions": [], "price": "$", "location": {"address1": "139 Old Tower Hill Road", "address2": "", "address3": "", "city": "Wakefield", "zip_code": "02879", "country": "US", "state": "RI", "display_address": ["139 Old Tower Hill Road", "Wakefield, RI 02879"]}, "phone": "+14017889143", "display_phone": "(401) 788-9143", "distance": 5503.554537675469}, {"id": "iIhOj2ELiNQns1TD3rux0A", "alias": "perrys-neighborhood-bar-and-grille-narragansett", "name": "Perrys Neighborhood Bar and Grille", "image_url": "", "is_closed": false, "url": "https://www.yelp.com/biz/perrys-neighborhood-bar-and-grille-narragansett?adjust_creative=HbGs3gi3xS-SfqfxZRDuCw&utm_campaign=yelp_api_v3&utm_medium=api_v3_business_search&utm_source=HbGs3gi3xS-SfqfxZRDuCw", "review_count": 5, "categories": [{"alias": "breakfast_brunch", "title": "Breakfast & Brunch"}, {"alias": "burgers", "title": "Burgers"}], "rating": 2.5, "coordinates": {"latitude": 41.4256516, "longitude": -71.4809036}, "transactions": [], "price": "$$", "location": {"address1": "140 Point Judith Rd", "address2": "Ste 5A", "address3": "", "city": "Narragansett", "zip_code": "02882", "country": "US", "state": "RI", "display_address": ["140 Point Judith Rd", "Ste 5A", "Narragansett, RI 02882"]}, "phone": "", "display_phone": "", "distance": 7415.145046038258}, {"id": "JIhRVJ4BAWPH9NZ0u-7Wzw", "alias": "flip-n-roll-fall-river", "name": "Flip N Roll", "image_url": "https://s3-media1.fl.yelpcdn.com/bphoto/A3l1k85peGnmCC17j-Bmhg/o.jpg", "is_closed": false, "url": "https://www.yelp.com/biz/flip-n-roll-fall-river?adjust_creative=HbGs3gi3xS-SfqfxZRDuCw&utm_campaign=yelp_api_v3&utm_medium=api_v3_business_search&utm_source=HbGs3gi3xS-SfqfxZRDuCw", "review_count": 1, "categories": [{"alias": "foodtrucks", "title": "Food Trucks"}, {"alias": "tradamerican", "title": "American (Traditional)"}, {"alias": "portuguese", "title": "Portuguese"}], "rating": 1.0, "coordinates": {"latitude": 41.68687, "longitude": -71.17062}, "transactions": [], "price": "$$", "location": {"address1": "", "address2": "", "address3": "", "city": "Fall River", "zip_code": "02724", "country": "US", "state": "MA", "display_address": ["Fall River, MA 02724"]}, "phone": "", "display_phone": "", "distance": 37003.563551154344}, {"id": "L7-tU5l519VLhzoUID6dOg", "alias": "kingston-pizza-wickford", "name": "Kingston Pizza", "image_url": "https://s3-media4.fl.yelpcdn.com/bphoto/4FaRnaLZaYeaaOa-eRA7Gw/o.jpg", "is_closed": false, "url": "https://www.yelp.com/biz/kingston-pizza-wickford?adjust_creative=HbGs3gi3xS-SfqfxZRDuCw&utm_campaign=yelp_api_v3&utm_medium=api_v3_business_search&utm_source=HbGs3gi3xS-SfqfxZRDuCw", "review_count": 11, "categories": [{"alias": "pizza", "title": "Pizza"}], "rating": 2.5, "coordinates": {"latitude": 41.5524274911232, "longitude": -71.4414711693951}, "transactions": ["delivery"], "price": "$", "location": {"address1": "677 Boston Neck Rd", "address2": "", "address3": "", "city": "Wickford", "zip_code": "02852", "country": "US", "state": "RI", "display_address": ["677 Boston Neck Rd", "Wickford, RI 02852"]}, "phone": "+14012941223", "display_phone": "(401) 294-1223", "distance": 10431.381024918119}]