[{"id": "3ezU1sWDu7Y9jc87h3U1pg", "alias": "tamarack-lodge-and-indie-glamping-resort-voluntown", "name": "Tamarack Lodge & Indie Glamping Resort", "image_url": "https://s3-media2.fl.yelpcdn.com/bphoto/_Dka-8NEaPQ79kRlh6kLhA/o.jpg", "is_closed": false, "url": "https://www.yelp.com/biz/tamarack-lodge-and-indie-glamping-resort-voluntown?adjust_creative=pzvBKuEUl0Vl1jtHQqJaog&utm_campaign=yelp_api_v3&utm_medium=api_v3_business_search&utm_source=pzvBKuEUl0Vl1jtHQqJaog", "review_count": 13, "categories": [{"alias": "venues", "title": "Venues & Event Spaces"}, {"alias": "tradamerican", "title": "American (Traditional)"}], "rating": 4.5, "coordinates": {"latitude": 41.57883, "longitude": -71.81558}, "transactions": [], "location": {"address1": "21 Ten Rod Rd", "address2": "", "address3": "", "city": "Voluntown", "zip_code": "06384", "country": "US", "state": "CT", "display_address": ["21 Ten Rod Rd", "Voluntown, CT 06384"]}, "phone": "+18603760224", "display_phone": "(860) 376-0224", "distance": 14563.620458800666}, {"id": "0UiNdCaKHvPFn8iwinKXHw", "alias": "summit-general-store-greene", "name": "Summit General Store", "image_url": "https://s3-media3.fl.yelpcdn.com/bphoto/U7Q15gyI951FYEabX7cJyA/o.jpg", "is_closed": false, "url": "https://www.yelp.com/biz/summit-general-store-greene?adjust_creative=pzvBKuEUl0Vl1jtHQqJaog&utm_campaign=yelp_api_v3&utm_medium=api_v3_business_search&utm_source=pzvBKuEUl0Vl1jtHQqJaog", "review_count": 11, "categories": [{"alias": "livestocksupply", "title": "Livestock Feed & Supply"}, {"alias": "delis", "title": "Delis"}], "rating": 4.5, "coordinates": {"latitude": 41.6914606, "longitude": -71.6994328}, "transactions": [], "location": {"address1": "25 Old Summit Rd", "address2": "", "address3": "", "city": "Greene", "zip_code": "02827", "country": "US", "state": "RI", "display_address": ["25 Old Summit Rd", "Greene, RI 02827"]}, "phone": "+14013973366", "display_phone": "(401) 397-3366", "distance": 2333.8241660395865}, {"id": "Bv1w7xDfUOW_0PTRGX4Q2w", "alias": "cornerstone-pub-exeter", "name": "Cornerstone Pub", "image_url": "https://s3-media4.fl.yelpcdn.com/bphoto/UdFsQXgWA5cDvdfEWXKOyQ/o.jpg", "is_closed": false, "url": "https://www.yelp.com/biz/cornerstone-pub-exeter?adjust_creative=pzvBKuEUl0Vl1jtHQqJaog&utm_campaign=yelp_api_v3&utm_medium=api_v3_business_search&utm_source=pzvBKuEUl0Vl1jtHQqJaog", "review_count": 90, "categories": [{"alias": "newamerican", "title": "American (New)"}, {"alias": "burgers", "title": "Burgers"}, {"alias": "pubs", "title": "Pubs"}], "rating": 4.5, "coordinates": {"latitude": 41.5836410522461, "longitude": -71.6530990600586}, "transactions": [], "price": "$$", "location": {"address1": "273 Nooseneck Hill Rd", "address2": "", "address3": "", "city": "Exeter", "zip_code": "02822", "country": "US", "state": "RI", "display_address": ["273 Nooseneck Hill Rd", "Exeter, RI 02822"]}, "phone": "+14013853025", "display_phone": "(401) 385-3025", "distance": 13507.580558729134}, {"id": "2YGe6lz0ReGsrAIPAyFEKA", "alias": "black-oak-kitchen-and-drinks-coventry-2", "name": "Black Oak Kitchen & Drinks", "image_url": "https://s3-media3.fl.yelpcdn.com/bphoto/B0yNi2mE3VdZkY1vfNEXBQ/o.jpg", "is_closed": false, "url": "https://www.yelp.com/biz/black-oak-kitchen-and-drinks-coventry-2?adjust_creative=pzvBKuEUl0Vl1jtHQqJaog&utm_campaign=yelp_api_v3&utm_medium=api_v3_business_search&utm_source=pzvBKuEUl0Vl1jtHQqJaog", "review_count": 65, "categories": [{"alias": "comfortfood", "title": "Comfort Food"}, {"alias": "salad", "title": "Salad"}, {"alias": "cocktailbars", "title": "Cocktail Bars"}], "rating": 4.0, "coordinates": {"latitude": 41.681868, "longitude": -71.561252}, "transactions": ["delivery", "pickup"], "price": "$$", "location": {"address1": "760 Tiogue Ave", "address2": "", "address3": null, "city": "Coventry", "zip_code": "02816", "country": "US", "state": "RI", "display_address": ["760 Tiogue Ave", "Coventry, RI 02816"]}, "phone": "+14016152500", "display_phone": "(401) 615-2500", "distance": 13807.333124650791}, {"id": "1qBt0IYWCkFuvLhQKda1IQ", "alias": "the-pond-pub-and-pizza-coventry", "name": "The Pond Pub & Pizza", "image_url": "https://s3-media2.fl.yelpcdn.com/bphoto/AkPs7Oe6QryZHlQgS2FQXw/o.jpg", "is_closed": false, "url": "https://www.yelp.com/biz/the-pond-pub-and-pizza-coventry?adjust_creative=pzvBKuEUl0Vl1jtHQqJaog&utm_campaign=yelp_api_v3&utm_medium=api_v3_business_search&utm_source=pzvBKuEUl0Vl1jtHQqJaog", "review_count": 12, "categories": [{"alias": "pizza", "title": "Pizza"}, {"alias": "bars", "title": "Bars"}], "rating": 4.5, "coordinates": {"latitude": 41.7047131061554, "longitude": -71.6166108101606}, "transactions": ["delivery", "pickup"], "location": {"address1": "2260 Flat RIver Rd", "address2": null, "address3": "", "city": "Coventry", "zip_code": "02816", "country": "US", "state": "RI", "display_address": ["2260 Flat RIver Rd", "Coventry, RI 02816"]}, "phone": "+14013970001", "display_phone": "(401) 397-0001", "distance": 9304.529186672014}, {"id": "rIxqf35NnE8cZlgwbCp6vw", "alias": "woodland-meeting-house-foster", "name": "Woodland Meeting House", "image_url": "https://s3-media3.fl.yelpcdn.com/bphoto/mV9c2sYHveSIcsPDKeN8-w/o.jpg", "is_closed": false, "url": "https://www.yelp.com/biz/woodland-meeting-house-foster?adjust_creative=pzvBKuEUl0Vl1jtHQqJaog&utm_campaign=yelp_api_v3&utm_medium=api_v3_business_search&utm_source=pzvBKuEUl0Vl1jtHQqJaog", "review_count": 20, "categories": [{"alias": "tradamerican", "title": "American (Traditional)"}, {"alias": "bars", "title": "Bars"}, {"alias": "venues", "title": "Venues & Event Spaces"}], "rating": 4.0, "coordinates": {"latitude": 41.83166, "longitude": -71.77794}, "transactions": [], "price": "$$", "location": {"address1": "115 E Killingly Rd", "address2": null, "address3": null, "city": "Foster", "zip_code": "02825", "country": "US", "state": "RI", "display_address": ["115 E Killingly Rd", "Foster, RI 02825"]}, "phone": "+14016473838", "display_phone": "(401) 647-3838", "distance": 15860.706346213437}, {"id": "89rHKhlbuRnnfyyV7NG_IQ", "alias": "weideles-pizza-and-pub-sterling", "name": "Weidele's Pizza & Pub", "image_url": "https://s3-media3.fl.yelpcdn.com/bphoto/0dmNJRsOjrq1cQoYhqWIXg/o.jpg", "is_closed": false, "url": "https://www.yelp.com/biz/weideles-pizza-and-pub-sterling?adjust_creative=pzvBKuEUl0Vl1jtHQqJaog&utm_campaign=yelp_api_v3&utm_medium=api_v3_business_search&utm_source=pzvBKuEUl0Vl1jtHQqJaog", "review_count": 18, "categories": [{"alias": "pizza", "title": "Pizza"}, {"alias": "beer_and_wine", "title": "Beer, Wine & Spirits"}], "rating": 3.5, "coordinates": {"latitude": 41.6991157531738, "longitude": -71.7943725585938}, "transactions": ["delivery"], "price": "$$", "location": {"address1": "901 Sterling Rd", "address2": "", "address3": "", "city": "Sterling", "zip_code": "06377", "country": "US", "state": "CT", "display_address": ["901 Sterling Rd", "Sterling, CT 06377"]}, "phone": "+18605646680", "display_phone": "(860) 564-6680", "distance": 5657.942191915556}, {"id": "0VIQA1-TtXvpQLxld6-5Iw", "alias": "pats-italian-restaurant-coventry", "name": "Pat's Italian Restaurant", "image_url": "https://s3-media4.fl.yelpcdn.com/bphoto/eqajkG_duDizESh4jQCYbg/o.jpg", "is_closed": false, "url": "https://www.yelp.com/biz/pats-italian-restaurant-coventry?adjust_creative=pzvBKuEUl0Vl1jtHQqJaog&utm_campaign=yelp_api_v3&utm_medium=api_v3_business_search&utm_source=pzvBKuEUl0Vl1jtHQqJaog", "review_count": 4, "categories": [{"alias": "italian", "title": "Italian"}], "rating": 4.0, "coordinates": {"latitude": 41.672371, "longitude": -71.595883}, "transactions": [], "location": {"address1": "1650 Nooseneck Hill Rd", "address2": "", "address3": null, "city": "Coventry", "zip_code": "02816", "country": "US", "state": "RI", "display_address": ["1650 Nooseneck Hill Rd", "Coventry, RI 02816"]}, "phone": "+14013208787", "display_phone": "(401) 320-8787", "distance": 11098.953426432958}, {"id": "OY2M6cvH5PynYYROW320zA", "alias": "tavern-on-the-hill-west-greenwich", "name": "Tavern On the Hill", "image_url": "https://s3-media3.fl.yelpcdn.com/bphoto/tCdEJaTfqw9Yk85eVbGkqQ/o.jpg", "is_closed": false, "url": "https://www.yelp.com/biz/tavern-on-the-hill-west-greenwich?adjust_creative=pzvBKuEUl0Vl1jtHQqJaog&utm_campaign=yelp_api_v3&utm_medium=api_v3_business_search&utm_source=pzvBKuEUl0Vl1jtHQqJaog", "review_count": 31, "categories": [{"alias": "bars", "title": "Bars"}, {"alias": "tradamerican", "title": "American (Traditional)"}], "rating": 4.0, "coordinates": {"latitude": 41.616128, "longitude": -71.635625}, "transactions": [], "price": "$$", "location": {"address1": "809 Nooseneck Hill Rd", "address2": "", "address3": "", "city": "West Greenwich", "zip_code": "02817", "country": "US", "state": "RI", "display_address": ["809 Nooseneck Hill Rd", "West Greenwich, RI 02817"]}, "phone": "+14013853835", "display_phone": "(401) 385-3835", "distance": 11335.570834118398}, {"id": "Z7dFSdqwu66VOduhtPhMLg", "alias": "arcadia-pizza-west-greenwich", "name": "Arcadia Pizza", "image_url": "https://s3-media1.fl.yelpcdn.com/bphoto/QPEDWSvs5oiXCPP9nj0dTA/o.jpg", "is_closed": false, "url": "https://www.yelp.com/biz/arcadia-pizza-west-greenwich?adjust_creative=pzvBKuEUl0Vl1jtHQqJaog&utm_campaign=yelp_api_v3&utm_medium=api_v3_business_search&utm_source=pzvBKuEUl0Vl1jtHQqJaog", "review_count": 49, "categories": [{"alias": "pizza", "title": "Pizza"}, {"alias": "burgers", "title": "Burgers"}, {"alias": "sandwiches", "title": "Sandwiches"}], "rating": 4.5, "coordinates": {"latitude": 41.612208, "longitude": -71.665471}, "transactions": [], "price": "$$", "location": {"address1": "780 Victory Hwy", "address2": "Unit 10", "address3": "", "city": "West Greenwich", "zip_code": "02817", "country": "US", "state": "RI", "display_address": ["780 Victory Hwy", "Unit 10", "West Greenwich, RI 02817"]}, "phone": "+14013923130", "display_phone": "(401) 392-3130", "distance": 10223.984761708707}, {"id": "shy0Y85GWw49WVzsdkK52Q", "alias": "the-woods-tavern-west-greenwich-2", "name": "The Woods Tavern", "image_url": "https://s3-media2.fl.yelpcdn.com/bphoto/wtrQZnQURg0cp6RZge1LYg/o.jpg", "is_closed": false, "url": "https://www.yelp.com/biz/the-woods-tavern-west-greenwich-2?adjust_creative=pzvBKuEUl0Vl1jtHQqJaog&utm_campaign=yelp_api_v3&utm_medium=api_v3_business_search&utm_source=pzvBKuEUl0Vl1jtHQqJaog", "review_count": 37, "categories": [{"alias": "soup", "title": "Soup"}, {"alias": "sandwiches", "title": "Sandwiches"}, {"alias": "burgers", "title": "Burgers"}], "rating": 3.5, "coordinates": {"latitude": 41.6572113, "longitude": -71.604126}, "transactions": ["delivery"], "price": "$$", "location": {"address1": "45 Nooseneck Hill Rd", "address2": null, "address3": "", "city": "West Greenwich", "zip_code": "02817", "country": "US", "state": "RI", "display_address": ["45 Nooseneck Hill Rd", "West Greenwich, RI 02817"]}, "phone": "+14013921314", "display_phone": "(401) 392-1314", "distance": 10819.798282582547}, {"id": "4Qlr65qCZoFYp9AEIWsqBg", "alias": "dans-place-west-greenwich", "name": "Dan's Place", "image_url": "https://s3-media1.fl.yelpcdn.com/bphoto/5GzxYiDUiztlyQc8eO1T1w/o.jpg", "is_closed": false, "url": "https://www.yelp.com/biz/dans-place-west-greenwich?adjust_creative=pzvBKuEUl0Vl1jtHQqJaog&utm_campaign=yelp_api_v3&utm_medium=api_v3_business_search&utm_source=pzvBKuEUl0Vl1jtHQqJaog", "review_count": 198, "categories": [{"alias": "pizza", "title": "Pizza"}, {"alias": "tradamerican", "title": "American (Traditional)"}, {"alias": "bars", "title": "Bars"}], "rating": 4.0, "coordinates": {"latitude": 41.607883, "longitude": -71.661329}, "transactions": [], "price": "$$", "location": {"address1": "880 Victory Hwy", "address2": "", "address3": "", "city": "West Greenwich", "zip_code": "02817", "country": "US", "state": "RI", "display_address": ["880 Victory Hwy", "West Greenwich, RI 02817"]}, "phone": "+14013923092", "display_phone": "(401) 392-3092", "distance": 10812.779780503999}, {"id": "dadTj-9h-zHtJPS2QpFUgA", "alias": "horsebrook-cafe-plainfield", "name": "Horsebrook Cafe", "image_url": "https://s3-media2.fl.yelpcdn.com/bphoto/Wr5c-yqGSh26crgESEnMFg/o.jpg", "is_closed": false, "url": "https://www.yelp.com/biz/horsebrook-cafe-plainfield?adjust_creative=pzvBKuEUl0Vl1jtHQqJaog&utm_campaign=yelp_api_v3&utm_medium=api_v3_business_search&utm_source=pzvBKuEUl0Vl1jtHQqJaog", "review_count": 44, "categories": [{"alias": "pizza", "title": "Pizza"}, {"alias": "pubs", "title": "Pubs"}, {"alias": "chicken_wings", "title": "Chicken Wings"}], "rating": 4.5, "coordinates": {"latitude": 41.68009, "longitude": -71.91946}, "transactions": ["delivery"], "price": "$$", "location": {"address1": "44 Railroad Ave", "address2": "", "address3": "", "city": "Plainfield", "zip_code": "06374", "country": "US", "state": "CT", "display_address": ["44 Railroad Ave", "Plainfield, CT 06374"]}, "phone": "+18605645234", "display_phone": "(860) 564-5234", "distance": 16074.910061956134}, {"id": "dhtbQqd5oWmRmwa80TzTYQ", "alias": "braza-brazilian-bbq-coventry", "name": "Braza Brazilian BBQ", "image_url": "https://s3-media4.fl.yelpcdn.com/bphoto/xHinLRK-sGZXhA7ySg2xkQ/o.jpg", "is_closed": false, "url": "https://www.yelp.com/biz/braza-brazilian-bbq-coventry?adjust_creative=pzvBKuEUl0Vl1jtHQqJaog&utm_campaign=yelp_api_v3&utm_medium=api_v3_business_search&utm_source=pzvBKuEUl0Vl1jtHQqJaog", "review_count": 19, "categories": [{"alias": "brazilian", "title": "Brazilian"}], "rating": 4.5, "coordinates": {"latitude": 41.689639, "longitude": -71.561516}, "transactions": [], "location": {"address1": "15 Sandy Bottom Rd", "address2": "", "address3": null, "city": "Coventry", "zip_code": "02816", "country": "US", "state": "RI", "display_address": ["15 Sandy Bottom Rd", "Coventry, RI 02816"]}, "phone": "+14012623639", "display_phone": "(401) 262-3639", "distance": 13767.607208175148}, {"id": "Ptw7JjFWpSpAwgDLfChwzg", "alias": "middle-of-nowhere-diner-exeter", "name": "Middle of Nowhere Diner", "image_url": "https://s3-media3.fl.yelpcdn.com/bphoto/38aOJhHWn-vEiYMhoQRBZw/o.jpg", "is_closed": false, "url": "https://www.yelp.com/biz/middle-of-nowhere-diner-exeter?adjust_creative=pzvBKuEUl0Vl1jtHQqJaog&utm_campaign=yelp_api_v3&utm_medium=api_v3_business_search&utm_source=pzvBKuEUl0Vl1jtHQqJaog", "review_count": 185, "categories": [{"alias": "diners", "title": "Diners"}, {"alias": "breakfast_brunch", "title": "Breakfast & Brunch"}, {"alias": "tradamerican", "title": "American (Traditional)"}], "rating": 4.0, "coordinates": {"latitude": 41.586883, "longitude": -71.651757}, "transactions": [], "price": "$", "location": {"address1": "222 Nooseneck Hill Rd", "address2": "", "address3": "", "city": "Exeter", "zip_code": "02822", "country": "US", "state": "RI", "display_address": ["222 Nooseneck Hill Rd", "Exeter, RI 02822"]}, "phone": "+14013978855", "display_phone": "(401) 397-8855", "distance": 13283.142131232926}, {"id": "jidDBs_RKUM5ZlDqlbZuUQ", "alias": "gut-bustas-danielson", "name": "Gut Bustas", "image_url": "https://s3-media3.fl.yelpcdn.com/bphoto/eU0JnWTaXYojtEz0Ki-qcg/o.jpg", "is_closed": false, "url": "https://www.yelp.com/biz/gut-bustas-danielson?adjust_creative=pzvBKuEUl0Vl1jtHQqJaog&utm_campaign=yelp_api_v3&utm_medium=api_v3_business_search&utm_source=pzvBKuEUl0Vl1jtHQqJaog", "review_count": 32, "categories": [{"alias": "burgers", "title": "Burgers"}, {"alias": "tradamerican", "title": "American (Traditional)"}, {"alias": "foodstands", "title": "Food Stands"}], "rating": 4.5, "coordinates": {"latitude": 41.8279224, "longitude": -71.8778887}, "transactions": ["delivery"], "price": "$$", "location": {"address1": "915 N Main St", "address2": "", "address3": "", "city": "Danielson", "zip_code": "06239", "country": "US", "state": "CT", "display_address": ["915 N Main St", "Danielson, CT 06239"]}, "phone": "+18609338615", "display_phone": "(860) 933-8615", "distance": 19651.57411939026}, {"id": "Q9J9azfaHtamwA527ax7Tw", "alias": "mr-zs-pipasa-plainfield-2", "name": "Mr Z's Pipasa", "image_url": "https://s3-media1.fl.yelpcdn.com/bphoto/tFLUnd6l8BbZ1zp7Om03Mw/o.jpg", "is_closed": false, "url": "https://www.yelp.com/biz/mr-zs-pipasa-plainfield-2?adjust_creative=pzvBKuEUl0Vl1jtHQqJaog&utm_campaign=yelp_api_v3&utm_medium=api_v3_business_search&utm_source=pzvBKuEUl0Vl1jtHQqJaog", "review_count": 64, "categories": [{"alias": "italian", "title": "Italian"}, {"alias": "pizza", "title": "Pizza"}], "rating": 3.5, "coordinates": {"latitude": 41.6663146654563, "longitude": -71.9156735860944}, "transactions": ["delivery"], "price": "$$", "location": {"address1": "788 Norwich Rd", "address2": "", "address3": "", "city": "Plainfield", "zip_code": "06374", "country": "US", "state": "CT", "display_address": ["788 Norwich Rd", "Plainfield, CT 06374"]}, "phone": "+18603171028", "display_phone": "(860) 317-1028", "distance": 15925.028334489934}, {"id": "WptKdYYVydpMOcnxhLsIsQ", "alias": "village-tavern-scituate", "name": "Village Tavern", "image_url": "https://s3-media1.fl.yelpcdn.com/bphoto/nEM4j6RegvIWXnKClO5zJQ/o.jpg", "is_closed": false, "url": "https://www.yelp.com/biz/village-tavern-scituate?adjust_creative=pzvBKuEUl0Vl1jtHQqJaog&utm_campaign=yelp_api_v3&utm_medium=api_v3_business_search&utm_source=pzvBKuEUl0Vl1jtHQqJaog", "review_count": 65, "categories": [{"alias": "tradamerican", "title": "American (Traditional)"}], "rating": 4.0, "coordinates": {"latitude": 41.8370009695461, "longitude": -71.5837440267205}, "transactions": ["delivery"], "price": "$$", "location": {"address1": "90 Hartford Pike", "address2": "", "address3": "", "city": "Scituate", "zip_code": "02857", "country": "US", "state": "RI", "display_address": ["90 Hartford Pike", "Scituate, RI 02857"]}, "phone": "+14017640893", "display_phone": "(401) 764-0893", "distance": 20042.115450607253}, {"id": "rNyNrOfeYavjaODmG_JMgg", "alias": "sherris-come-along-inn-coventry", "name": "Sherri's Come Along Inn", "image_url": "https://s3-media4.fl.yelpcdn.com/bphoto/BFimnJMYGM9UjmXib4b6MA/o.jpg", "is_closed": false, "url": "https://www.yelp.com/biz/sherris-come-along-inn-coventry?adjust_creative=pzvBKuEUl0Vl1jtHQqJaog&utm_campaign=yelp_api_v3&utm_medium=api_v3_business_search&utm_source=pzvBKuEUl0Vl1jtHQqJaog", "review_count": 22, "categories": [{"alias": "tradamerican", "title": "American (Traditional)"}, {"alias": "italian", "title": "Italian"}, {"alias": "burgers", "title": "Burgers"}], "rating": 4.5, "coordinates": {"latitude": 41.6954474, "longitude": -71.5334644}, "transactions": ["delivery", "pickup"], "location": {"address1": "402 Washington St", "address2": "", "address3": "", "city": "Coventry", "zip_code": "02816", "country": "US", "state": "RI", "display_address": ["402 Washington St", "Coventry, RI 02816"]}, "phone": "+14018288300", "display_phone": "(401) 828-8300", "distance": 16072.856609804961}, {"id": "P1MpAJuaGg_Hmsr8Hl0yyA", "alias": "riverview-restaurant-moosup", "name": "Riverview Restaurant", "image_url": "https://s3-media1.fl.yelpcdn.com/bphoto/kbRJzg_ujGJ48f59--IGuw/o.jpg", "is_closed": false, "url": "https://www.yelp.com/biz/riverview-restaurant-moosup?adjust_creative=pzvBKuEUl0Vl1jtHQqJaog&utm_campaign=yelp_api_v3&utm_medium=api_v3_business_search&utm_source=pzvBKuEUl0Vl1jtHQqJaog", "review_count": 32, "categories": [{"alias": "tradamerican", "title": "American (Traditional)"}], "rating": 3.0, "coordinates": {"latitude": 41.720073, "longitude": -71.860211}, "transactions": [], "price": "$$", "location": {"address1": "RR 14", "address2": "", "address3": "", "city": "Moosup", "zip_code": "06354", "country": "US", "state": "CT", "display_address": ["RR 14", "Moosup, CT 06354"]}, "phone": "+18605643632", "display_phone": "(860) 564-3632", "distance": 11496.253613329724}, {"id": "szjzVjRyaYj7-5EufQT1Tw", "alias": "grill-four-forty-five-brooklyn", "name": "Grill Four Forty-Five", "image_url": "https://s3-media1.fl.yelpcdn.com/bphoto/LAC_JhGi2eJx7P-BCFUZ1A/o.jpg", "is_closed": false, "url": "https://www.yelp.com/biz/grill-four-forty-five-brooklyn?adjust_creative=pzvBKuEUl0Vl1jtHQqJaog&utm_campaign=yelp_api_v3&utm_medium=api_v3_business_search&utm_source=pzvBKuEUl0Vl1jtHQqJaog", "review_count": 42, "categories": [{"alias": "newamerican", "title": "American (New)"}, {"alias": "seafood", "title": "Seafood"}, {"alias": "burgers", "title": "Burgers"}], "rating": 3.0, "coordinates": {"latitude": 41.79664, "longitude": -71.912447}, "transactions": [], "location": {"address1": "445 Providence Rd", "address2": "", "address3": null, "city": "Brooklyn", "zip_code": "06234", "country": "US", "state": "CT", "display_address": ["445 Providence Rd", "Brooklyn, CT 06234"]}, "phone": "+18607640445", "display_phone": "(860) 764-0445", "distance": 19301.322350021324}, {"id": "c9HB4HyuXa9djtAjc76gYw", "alias": "boneheads-wing-bar-west-warwick", "name": "Boneheads Wing Bar", "image_url": "https://s3-media4.fl.yelpcdn.com/bphoto/4IOWdznDMEr4oD-vjfUg6Q/o.jpg", "is_closed": false, "url": "https://www.yelp.com/biz/boneheads-wing-bar-west-warwick?adjust_creative=pzvBKuEUl0Vl1jtHQqJaog&utm_campaign=yelp_api_v3&utm_medium=api_v3_business_search&utm_source=pzvBKuEUl0Vl1jtHQqJaog", "review_count": 750, "categories": [{"alias": "burgers", "title": "Burgers"}, {"alias": "chicken_wings", "title": "Chicken Wings"}, {"alias": "tradamerican", "title": "American (Traditional)"}], "rating": 4.0, "coordinates": {"latitude": 41.70248, "longitude": -71.52653}, "transactions": ["delivery"], "price": "$$", "location": {"address1": "131 Washington St", "address2": null, "address3": "", "city": "West Warwick", "zip_code": "02893", "country": "US", "state": "RI", "display_address": ["131 Washington St", "West Warwick, RI 02893"]}, "phone": "+14018289464", "display_phone": "(401) 828-9464", "distance": 16685.059849453293}, {"id": "9f35VLW9hBn7Rsrsq9AsPQ", "alias": "seven-moons-coventry-coventry", "name": "Seven Moons Coventry", "image_url": "https://s3-media2.fl.yelpcdn.com/bphoto/UR3lp76Iq2-555-rXPzQRg/o.jpg", "is_closed": false, "url": "https://www.yelp.com/biz/seven-moons-coventry-coventry?adjust_creative=pzvBKuEUl0Vl1jtHQqJaog&utm_campaign=yelp_api_v3&utm_medium=api_v3_business_search&utm_source=pzvBKuEUl0Vl1jtHQqJaog", "review_count": 46, "categories": [{"alias": "chinese", "title": "Chinese"}, {"alias": "seafood", "title": "Seafood"}, {"alias": "asianfusion", "title": "Asian Fusion"}], "rating": 3.5, "coordinates": {"latitude": 41.6806771017338, "longitude": -71.5667840838432}, "transactions": ["delivery"], "location": {"address1": "856 Tiogue Ave", "address2": "", "address3": null, "city": "Coventry", "zip_code": "02816", "country": "US", "state": "RI", "display_address": ["856 Tiogue Ave", "Coventry, RI 02816"]}, "phone": "+14018289998", "display_phone": "(401) 828-9998", "distance": 13361.261456546488}, {"id": "zDmqHkh-JjjSNSMroDgAkQ", "alias": "town-grill-and-pizzeria-voluntown-2", "name": "Town Grill & Pizzeria", "image_url": "https://s3-media2.fl.yelpcdn.com/bphoto/TndYKKkGiuBYMH1CaqHAbQ/o.jpg", "is_closed": false, "url": "https://www.yelp.com/biz/town-grill-and-pizzeria-voluntown-2?adjust_creative=pzvBKuEUl0Vl1jtHQqJaog&utm_campaign=yelp_api_v3&utm_medium=api_v3_business_search&utm_source=pzvBKuEUl0Vl1jtHQqJaog", "review_count": 27, "categories": [{"alias": "pizza", "title": "Pizza"}, {"alias": "tradamerican", "title": "American (Traditional)"}], "rating": 3.5, "coordinates": {"latitude": 41.5757138922519, "longitude": -71.8571589920654}, "transactions": [], "price": "$", "location": {"address1": "104 Beach Pond Rd", "address2": "", "address3": "", "city": "Voluntown", "zip_code": "06384", "country": "US", "state": "CT", "display_address": ["104 Beach Pond Rd", "Voluntown, CT 06384"]}, "phone": "+18603763378", "display_phone": "(860) 376-3378", "distance": 16845.365133078998}, {"id": "I80aA8RQSIxAXND9bZdPjg", "alias": "sognalo-italian-deli-and-cafe-cranston", "name": "Sognalo Italian Deli & Cafe", "image_url": "https://s3-media3.fl.yelpcdn.com/bphoto/8i_hYy3VPi8PZcHRY6pcHQ/o.jpg", "is_closed": false, "url": "https://www.yelp.com/biz/sognalo-italian-deli-and-cafe-cranston?adjust_creative=pzvBKuEUl0Vl1jtHQqJaog&utm_campaign=yelp_api_v3&utm_medium=api_v3_business_search&utm_source=pzvBKuEUl0Vl1jtHQqJaog", "review_count": 5, "categories": [{"alias": "italian", "title": "Italian"}, {"alias": "delis", "title": "Delis"}, {"alias": "spanish", "title": "Spanish"}], "rating": 5.0, "coordinates": {"latitude": 41.790721, "longitude": -71.526953}, "transactions": [], "location": {"address1": "1 Starline Way", "address2": "", "address3": null, "city": "Cranston", "zip_code": "02921", "country": "US", "state": "RI", "display_address": ["1 Starline Way", "Cranston, RI 02921"]}, "phone": "+14013833997", "display_phone": "(401) 383-3997", "distance": 19908.439198227676}, {"id": "rqc8vJ80L6DI8J3pJjh-fA", "alias": "morse-tavern-coventry-3", "name": "Morse Tavern", "image_url": "https://s3-media2.fl.yelpcdn.com/bphoto/PWc9awivBLp9aE1Ocv6UBw/o.jpg", "is_closed": false, "url": "https://www.yelp.com/biz/morse-tavern-coventry-3?adjust_creative=pzvBKuEUl0Vl1jtHQqJaog&utm_campaign=yelp_api_v3&utm_medium=api_v3_business_search&utm_source=pzvBKuEUl0Vl1jtHQqJaog", "review_count": 78, "categories": [{"alias": "newamerican", "title": "American (New)"}], "rating": 3.0, "coordinates": {"latitude": 41.6848204225557, "longitude": -71.5478678047657}, "transactions": ["delivery"], "location": {"address1": "446 Tiogue Ave", "address2": "", "address3": null, "city": "Coventry", "zip_code": "02816", "country": "US", "state": "RI", "display_address": ["446 Tiogue Ave", "Coventry, RI 02816"]}, "phone": "+14018257300", "display_phone": "(401) 825-7300", "distance": 14894.275163674865}, {"id": "RPtT-YywwLqx0xZMhxZaTg", "alias": "sweet-peas-brooklyn", "name": "Sweet Peas", "image_url": "https://s3-media3.fl.yelpcdn.com/bphoto/uVQOPx4OISwdgXyCglCyrg/o.jpg", "is_closed": false, "url": "https://www.yelp.com/biz/sweet-peas-brooklyn?adjust_creative=pzvBKuEUl0Vl1jtHQqJaog&utm_campaign=yelp_api_v3&utm_medium=api_v3_business_search&utm_source=pzvBKuEUl0Vl1jtHQqJaog", "review_count": 19, "categories": [{"alias": "bakeries", "title": "Bakeries"}, {"alias": "cheese", "title": "Cheese Shops"}, {"alias": "tradamerican", "title": "American (Traditional)"}], "rating": 4.5, "coordinates": {"latitude": 41.79921, "longitude": -71.906}, "transactions": ["delivery", "pickup"], "price": "$$", "location": {"address1": "520 Providence Rd", "address2": "", "address3": "", "city": "Brooklyn", "zip_code": "06234", "country": "US", "state": "CT", "display_address": ["520 Providence Rd", "Brooklyn, CT 06234"]}, "phone": "+18607793040", "display_phone": "(860) 779-3040", "distance": 18989.053330146617}, {"id": "naEyZsIhWLJdGScpIArZVA", "alias": "pagliarinis-family-restaurant-and-pizza-coventry", "name": "Pagliarini's Family Restaurant & Pizza", "image_url": "https://s3-media2.fl.yelpcdn.com/bphoto/PwXbbp6DtCyZ21fZdZbgrA/o.jpg", "is_closed": false, "url": "https://www.yelp.com/biz/pagliarinis-family-restaurant-and-pizza-coventry?adjust_creative=pzvBKuEUl0Vl1jtHQqJaog&utm_campaign=yelp_api_v3&utm_medium=api_v3_business_search&utm_source=pzvBKuEUl0Vl1jtHQqJaog", "review_count": 32, "categories": [{"alias": "pizza", "title": "Pizza"}], "rating": 4.0, "coordinates": {"latitude": 41.6966631, "longitude": -71.5474068}, "transactions": ["delivery"], "price": "$$", "location": {"address1": "637 Washington St", "address2": "", "address3": "", "city": "Coventry", "zip_code": "02816", "country": "US", "state": "RI", "display_address": ["637 Washington St", "Coventry, RI 02816"]}, "phone": "+14018285555", "display_phone": "(401) 828-5555", "distance": 14837.747941763788}, {"id": "iKeG-OHNhzsx_F0qbyzM1A", "alias": "the-olde-theater-diner-coventry", "name": "The Olde Theater Diner", "image_url": "https://s3-media3.fl.yelpcdn.com/bphoto/n0zYBiELUZ_dC-B4JgXNlA/o.jpg", "is_closed": false, "url": "https://www.yelp.com/biz/the-olde-theater-diner-coventry?adjust_creative=pzvBKuEUl0Vl1jtHQqJaog&utm_campaign=yelp_api_v3&utm_medium=api_v3_business_search&utm_source=pzvBKuEUl0Vl1jtHQqJaog", "review_count": 105, "categories": [{"alias": "diners", "title": "Diners"}], "rating": 3.5, "coordinates": {"latitude": 41.6894233, "longitude": -71.5606689}, "transactions": ["delivery"], "price": "$$", "location": {"address1": "33 Sandy Bottom Rd", "address2": "", "address3": "", "city": "Coventry", "zip_code": "02816", "country": "US", "state": "RI", "display_address": ["33 Sandy Bottom Rd", "Coventry, RI 02816"]}, "phone": "+14018281810", "display_phone": "(401) 828-1810", "distance": 13706.11769651113}, {"id": "ETEkkS4q7--Fko812VFWdw", "alias": "the-cozy-grill-coventry", "name": "The Cozy Grill", "image_url": "https://s3-media1.fl.yelpcdn.com/bphoto/b901C9H6hPzMgtz2wsmODw/o.jpg", "is_closed": false, "url": "https://www.yelp.com/biz/the-cozy-grill-coventry?adjust_creative=pzvBKuEUl0Vl1jtHQqJaog&utm_campaign=yelp_api_v3&utm_medium=api_v3_business_search&utm_source=pzvBKuEUl0Vl1jtHQqJaog", "review_count": 60, "categories": [{"alias": "tradamerican", "title": "American (Traditional)"}], "rating": 3.5, "coordinates": {"latitude": 41.68542, "longitude": -71.54853}, "transactions": ["delivery"], "price": "$", "location": {"address1": "473 Tiogue Ave", "address2": "", "address3": "", "city": "Coventry", "zip_code": "02816", "country": "US", "state": "RI", "display_address": ["473 Tiogue Ave", "Coventry, RI 02816"]}, "phone": "+14018213440", "display_phone": "(401) 821-3440", "distance": 14834.879632644474}, {"id": "xDjnxfMKmzwB-qAPP4usHg", "alias": "corner-bistro-north-scituate-2", "name": "Corner Bistro", "image_url": "https://s3-media4.fl.yelpcdn.com/bphoto/QKG-1L2fGy825SctGHvPtA/o.jpg", "is_closed": false, "url": "https://www.yelp.com/biz/corner-bistro-north-scituate-2?adjust_creative=pzvBKuEUl0Vl1jtHQqJaog&utm_campaign=yelp_api_v3&utm_medium=api_v3_business_search&utm_source=pzvBKuEUl0Vl1jtHQqJaog", "review_count": 80, "categories": [{"alias": "italian", "title": "Italian"}, {"alias": "wine_bars", "title": "Wine Bars"}], "rating": 4.0, "coordinates": {"latitude": 41.8424072265625, "longitude": -71.6761932373047}, "transactions": [], "price": "$$", "location": {"address1": "1115 Hartford Pike", "address2": null, "address3": null, "city": "North Scituate", "zip_code": "02857", "country": "US", "state": "RI", "display_address": ["1115 Hartford Pike", "North Scituate, RI 02857"]}, "phone": "+14017640860", "display_phone": "(401) 764-0860", "distance": 17265.7290801119}, {"id": "xa6Ysy_MN0gMmfMzbZOz_g", "alias": "hash-ny-system-coventry", "name": "Hash Ny System", "image_url": "https://s3-media2.fl.yelpcdn.com/bphoto/TyhuQl_lu6oSuryltZ4kvw/o.jpg", "is_closed": false, "url": "https://www.yelp.com/biz/hash-ny-system-coventry?adjust_creative=pzvBKuEUl0Vl1jtHQqJaog&utm_campaign=yelp_api_v3&utm_medium=api_v3_business_search&utm_source=pzvBKuEUl0Vl1jtHQqJaog", "review_count": 3, "categories": [{"alias": "breakfast_brunch", "title": "Breakfast & Brunch"}, {"alias": "diners", "title": "Diners"}], "rating": 4.5, "coordinates": {"latitude": 41.7236, "longitude": -71.53469}, "transactions": [], "location": {"address1": "656 Main St", "address2": null, "address3": "", "city": "Coventry", "zip_code": "02816", "country": "US", "state": "RI", "display_address": ["656 Main St", "Coventry, RI 02816"]}, "phone": "+14013208476", "display_phone": "(401) 320-8476", "distance": 16319.512990098801}, {"id": "aPw8ian-JdQSEI1NfGcM9g", "alias": "gus-pub-and-pizzarama-plainfield", "name": "Gus' Pub And Pizzarama", "image_url": "https://s3-media2.fl.yelpcdn.com/bphoto/3Eb9wYunHyMFy75PSzsm5Q/o.jpg", "is_closed": false, "url": "https://www.yelp.com/biz/gus-pub-and-pizzarama-plainfield?adjust_creative=pzvBKuEUl0Vl1jtHQqJaog&utm_campaign=yelp_api_v3&utm_medium=api_v3_business_search&utm_source=pzvBKuEUl0Vl1jtHQqJaog", "review_count": 39, "categories": [{"alias": "pizza", "title": "Pizza"}, {"alias": "italian", "title": "Italian"}, {"alias": "bars", "title": "Bars"}], "rating": 4.0, "coordinates": {"latitude": 41.679593, "longitude": -71.917578}, "transactions": ["delivery"], "price": "$$", "location": {"address1": "5 Babcock Ave", "address2": "", "address3": "", "city": "Plainfield", "zip_code": "06374", "country": "US", "state": "CT", "display_address": ["5 Babcock Ave", "Plainfield, CT 06374"]}, "phone": "+18605642488", "display_phone": "(860) 564-2488", "distance": 15885.063803194058}, {"id": "mdgpnKPit_lH0WE21gnLtw", "alias": "skips-countryside-cafe-coventry", "name": "Skip's Countryside Cafe", "image_url": "https://s3-media4.fl.yelpcdn.com/bphoto/vXCHSipqlnV5haVoyGoHow/o.jpg", "is_closed": false, "url": "https://www.yelp.com/biz/skips-countryside-cafe-coventry?adjust_creative=pzvBKuEUl0Vl1jtHQqJaog&utm_campaign=yelp_api_v3&utm_medium=api_v3_business_search&utm_source=pzvBKuEUl0Vl1jtHQqJaog", "review_count": 8, "categories": [{"alias": "breakfast_brunch", "title": "Breakfast & Brunch"}], "rating": 3.5, "coordinates": {"latitude": 41.7046810051239, "longitude": -71.6160058425064}, "transactions": ["delivery"], "location": {"address1": "2246 Flat River Rd", "address2": "", "address3": null, "city": "Coventry", "zip_code": "02816", "country": "US", "state": "RI", "display_address": ["2246 Flat River Rd", "Coventry, RI 02816"]}, "phone": "", "display_phone": "", "distance": 9347.08200812648}, {"id": "RRrqYn7TKcZEV3spOAWwNQ", "alias": "farm-stand-cafe-scituate", "name": "Farm Stand Cafe", "image_url": "https://s3-media2.fl.yelpcdn.com/bphoto/AL_UZdlbzN9lOS_yDDRBCg/o.jpg", "is_closed": false, "url": "https://www.yelp.com/biz/farm-stand-cafe-scituate?adjust_creative=pzvBKuEUl0Vl1jtHQqJaog&utm_campaign=yelp_api_v3&utm_medium=api_v3_business_search&utm_source=pzvBKuEUl0Vl1jtHQqJaog", "review_count": 14, "categories": [{"alias": "cafes", "title": "Cafes"}, {"alias": "markets", "title": "Fruits & Veggies"}], "rating": 4.0, "coordinates": {"latitude": 41.8417477113255, "longitude": -71.67721547681}, "transactions": [], "price": "$", "location": {"address1": "1116 Chopmist Hill Rd", "address2": "", "address3": "", "city": "Scituate", "zip_code": "02857", "country": "US", "state": "RI", "display_address": ["1116 Chopmist Hill Rd", "Scituate, RI 02857"]}, "phone": "", "display_phone": "", "distance": 17172.508580337595}, {"id": "LqWeZAe7IK1QjgFrfIG4-A", "alias": "wolf-rocks-catering-exeter", "name": "Wolf Rock's Catering", "image_url": "https://s3-media4.fl.yelpcdn.com/bphoto/G9RLwrFx0u9HvCdtuglq2w/o.jpg", "is_closed": false, "url": "https://www.yelp.com/biz/wolf-rocks-catering-exeter?adjust_creative=pzvBKuEUl0Vl1jtHQqJaog&utm_campaign=yelp_api_v3&utm_medium=api_v3_business_search&utm_source=pzvBKuEUl0Vl1jtHQqJaog", "review_count": 4, "categories": [{"alias": "restaurants", "title": "Restaurants"}], "rating": 5.0, "coordinates": {"latitude": 41.5798683166504, "longitude": -71.576286315918}, "transactions": [], "location": {"address1": null, "address2": "", "address3": "", "city": "Exeter", "zip_code": "02822", "country": "US", "state": "RI", "display_address": ["Exeter, RI 02822"]}, "phone": "+14012944981", "display_phone": "(401) 294-4981", "distance": 15055.156198526634}, {"id": "BKZJqQX8IGDqEg2kGNHCzQ", "alias": "harris-bar-and-grill-coventry", "name": "Harris Bar & Grill", "image_url": "https://s3-media2.fl.yelpcdn.com/bphoto/Bxsh-4B0QwUiaqsi9gpwbg/o.jpg", "is_closed": false, "url": "https://www.yelp.com/biz/harris-bar-and-grill-coventry?adjust_creative=pzvBKuEUl0Vl1jtHQqJaog&utm_campaign=yelp_api_v3&utm_medium=api_v3_business_search&utm_source=pzvBKuEUl0Vl1jtHQqJaog", "review_count": 26, "categories": [{"alias": "bars", "title": "Bars"}, {"alias": "italian", "title": "Italian"}, {"alias": "newamerican", "title": "American (New)"}], "rating": 4.0, "coordinates": {"latitude": 41.7234, "longitude": -71.53452}, "transactions": ["delivery"], "price": "$$", "location": {"address1": "666 Main St", "address2": "", "address3": "", "city": "Coventry", "zip_code": "02816", "country": "US", "state": "RI", "display_address": ["666 Main St", "Coventry, RI 02816"]}, "phone": "+14018239178", "display_phone": "(401) 823-9178", "distance": 16344.738825048731}, {"id": "8hbVqav2A52SAU_wmliIhg", "alias": "gentleman-farmer-coventry", "name": "Gentleman Farmer", "image_url": "https://s3-media2.fl.yelpcdn.com/bphoto/AJ6ymqCFyxprsr9UAaj9iw/o.jpg", "is_closed": false, "url": "https://www.yelp.com/biz/gentleman-farmer-coventry?adjust_creative=pzvBKuEUl0Vl1jtHQqJaog&utm_campaign=yelp_api_v3&utm_medium=api_v3_business_search&utm_source=pzvBKuEUl0Vl1jtHQqJaog", "review_count": 24, "categories": [{"alias": "tradamerican", "title": "American (Traditional)"}], "rating": 3.0, "coordinates": {"latitude": 41.6635599, "longitude": -71.60211}, "transactions": ["delivery"], "price": "$", "location": {"address1": "2405 Nooseneck Hill Rd", "address2": "", "address3": "", "city": "Coventry", "zip_code": "02816", "country": "US", "state": "RI", "display_address": ["2405 Nooseneck Hill Rd", "Coventry, RI 02816"]}, "phone": "+14013920130", "display_phone": "(401) 392-0130", "distance": 10816.702845705795}, {"id": "VgdxeoTdj7XM0RF1aJeMkw", "alias": "hotel-central-central-village", "name": "Hotel Central", "image_url": "", "is_closed": false, "url": "https://www.yelp.com/biz/hotel-central-central-village?adjust_creative=pzvBKuEUl0Vl1jtHQqJaog&utm_campaign=yelp_api_v3&utm_medium=api_v3_business_search&utm_source=pzvBKuEUl0Vl1jtHQqJaog", "review_count": 1, "categories": [{"alias": "restaurants", "title": "Restaurants"}], "rating": 5.0, "coordinates": {"latitude": 41.7230045785463, "longitude": -71.9067790698469}, "transactions": [], "location": {"address1": "Main", "address2": "", "address3": "", "city": "Central Village", "zip_code": "06332", "country": "US", "state": "CT", "display_address": ["Main", "Central Village, CT 06332"]}, "phone": "+18605645062", "display_phone": "(860) 564-5062", "distance": 15321.815696126287}, {"id": "_cIoHf69sU2pIXl6yjYQRQ", "alias": "walts-hot-dogs-exeter", "name": "Walt's Hot Dogs", "image_url": "https://s3-media1.fl.yelpcdn.com/bphoto/_qXV5Iype-ZFPUVIieW8ew/o.jpg", "is_closed": false, "url": "https://www.yelp.com/biz/walts-hot-dogs-exeter?adjust_creative=pzvBKuEUl0Vl1jtHQqJaog&utm_campaign=yelp_api_v3&utm_medium=api_v3_business_search&utm_source=pzvBKuEUl0Vl1jtHQqJaog", "review_count": 7, "categories": [{"alias": "hotdog", "title": "Hot Dogs"}], "rating": 4.5, "coordinates": {"latitude": 41.5791664, "longitude": -71.6018829}, "transactions": [], "price": "$", "location": {"address1": "900 10 Rod Rd", "address2": "", "address3": "", "city": "Exeter", "zip_code": "02822", "country": "US", "state": "RI", "display_address": ["900 10 Rod Rd", "Exeter, RI 02822"]}, "phone": "", "display_phone": "", "distance": 16454.927389957924}, {"id": "VtlGJUd7VORXB96g6Gkxqw", "alias": "music-lady-cafe-central-village", "name": "Music Lady Cafe", "image_url": "https://s3-media4.fl.yelpcdn.com/bphoto/8tUnJUyV1KH7RBkgr0rpDQ/o.jpg", "is_closed": false, "url": "https://www.yelp.com/biz/music-lady-cafe-central-village?adjust_creative=pzvBKuEUl0Vl1jtHQqJaog&utm_campaign=yelp_api_v3&utm_medium=api_v3_business_search&utm_source=pzvBKuEUl0Vl1jtHQqJaog", "review_count": 7, "categories": [{"alias": "newamerican", "title": "American (New)"}, {"alias": "pubs", "title": "Pubs"}], "rating": 3.0, "coordinates": {"latitude": 41.7194075447637, "longitude": -71.8962093475864}, "transactions": [], "location": {"address1": "6 Green Hollw Rd", "address2": "", "address3": "", "city": "Central Village", "zip_code": "06332", "country": "US", "state": "CT", "display_address": ["6 Green Hollw Rd", "Central Village, CT 06332"]}, "phone": "+18605640666", "display_phone": "(860) 564-0666", "distance": 14378.324178950357}, {"id": "6xcdzY4VZrXEDd0cZsoFoQ", "alias": "new-hong-kong-star-plainfield-2", "name": "New Hong Kong Star", "image_url": "https://s3-media2.fl.yelpcdn.com/bphoto/TFBf_jOkzxoa_nNs5Q31UQ/o.jpg", "is_closed": false, "url": "https://www.yelp.com/biz/new-hong-kong-star-plainfield-2?adjust_creative=pzvBKuEUl0Vl1jtHQqJaog&utm_campaign=yelp_api_v3&utm_medium=api_v3_business_search&utm_source=pzvBKuEUl0Vl1jtHQqJaog", "review_count": 17, "categories": [{"alias": "chinese", "title": "Chinese"}], "rating": 4.0, "coordinates": {"latitude": 41.662915, "longitude": -71.9125295}, "transactions": ["pickup"], "price": "$", "location": {"address1": "69 Lathrop Rd", "address2": "", "address3": "", "city": "Plainfield", "zip_code": "06374", "country": "US", "state": "CT", "display_address": ["69 Lathrop Rd", "Plainfield, CT 06374"]}, "phone": "+18605648498", "display_phone": "(860) 564-8498", "distance": 15870.618580730727}, {"id": "aFGWW2iPXj3OWP45_Git2A", "alias": "nacho-mamis-taco-shop-west-warwick", "name": "Nacho Mamis Taco Shop", "image_url": "https://s3-media4.fl.yelpcdn.com/bphoto/YvPBZU7w9LLLg4JZqrWcCQ/o.jpg", "is_closed": false, "url": "https://www.yelp.com/biz/nacho-mamis-taco-shop-west-warwick?adjust_creative=pzvBKuEUl0Vl1jtHQqJaog&utm_campaign=yelp_api_v3&utm_medium=api_v3_business_search&utm_source=pzvBKuEUl0Vl1jtHQqJaog", "review_count": 3, "categories": [{"alias": "tex-mex", "title": "Tex-Mex"}, {"alias": "tacos", "title": "Tacos"}, {"alias": "salad", "title": "Salad"}], "rating": 4.5, "coordinates": {"latitude": 41.7009268, "longitude": -71.5284657}, "transactions": ["delivery", "pickup"], "location": {"address1": "231 Washington St", "address2": "", "address3": null, "city": "West Warwick", "zip_code": "02893", "country": "US", "state": "RI", "display_address": ["231 Washington St", "West Warwick, RI 02893"]}, "phone": "+14018228226", "display_phone": "(401) 822-8226", "distance": 16513.783131686232}, {"id": "KaFVuy14xgPM_3jkp2ngPA", "alias": "big-dawggs-griswold", "name": "Big Dawggs", "image_url": "https://s3-media2.fl.yelpcdn.com/bphoto/Cz3hfpM0JRXf2_4arj1dgQ/o.jpg", "is_closed": false, "url": "https://www.yelp.com/biz/big-dawggs-griswold?adjust_creative=pzvBKuEUl0Vl1jtHQqJaog&utm_campaign=yelp_api_v3&utm_medium=api_v3_business_search&utm_source=pzvBKuEUl0Vl1jtHQqJaog", "review_count": 8, "categories": [{"alias": "hotdog", "title": "Hot Dogs"}, {"alias": "foodtrucks", "title": "Food Trucks"}], "rating": 4.0, "coordinates": {"latitude": 41.5824783917777, "longitude": -71.9147496200406}, "transactions": [], "price": "$", "location": {"address1": "1111 Voluntown Rd", "address2": "", "address3": "", "city": "Griswold", "zip_code": "06351", "country": "US", "state": "CT", "display_address": ["1111 Voluntown Rd", "Griswold, CT 06351"]}, "phone": "+18603349778", "display_phone": "(860) 334-9778", "distance": 19782.431906810943}, {"id": "-ywXNp1-Pw_cH4KRb9W_Bg", "alias": "rufinos-pizzeria-scituate", "name": "Rufinos Pizzeria", "image_url": "https://s3-media1.fl.yelpcdn.com/bphoto/a1LrkZE-JOUjFnMEF1LCFg/o.jpg", "is_closed": false, "url": "https://www.yelp.com/biz/rufinos-pizzeria-scituate?adjust_creative=pzvBKuEUl0Vl1jtHQqJaog&utm_campaign=yelp_api_v3&utm_medium=api_v3_business_search&utm_source=pzvBKuEUl0Vl1jtHQqJaog", "review_count": 15, "categories": [{"alias": "pizza", "title": "Pizza"}], "rating": 3.5, "coordinates": {"latitude": 41.7304469480088, "longitude": -71.5635037782368}, "transactions": ["delivery", "pickup"], "location": {"address1": "4 Hope Furnace Rd", "address2": "", "address3": null, "city": "Scituate", "zip_code": "02831", "country": "US", "state": "RI", "display_address": ["4 Hope Furnace Rd", "Scituate, RI 02831"]}, "phone": "+14018261444", "display_phone": "(401) 826-1444", "distance": 14233.43648332933}, {"id": "PhrJqQuEUNMHmYEVUQ8zrw", "alias": "babys-bonetown-bbq-clayville-3", "name": "Baby's Bonetown  BBQ", "image_url": "https://s3-media3.fl.yelpcdn.com/bphoto/3GL2sq98twYjfjH_J_mhvQ/o.jpg", "is_closed": false, "url": "https://www.yelp.com/biz/babys-bonetown-bbq-clayville-3?adjust_creative=pzvBKuEUl0Vl1jtHQqJaog&utm_campaign=yelp_api_v3&utm_medium=api_v3_business_search&utm_source=pzvBKuEUl0Vl1jtHQqJaog", "review_count": 18, "categories": [{"alias": "foodtrucks", "title": "Food Trucks"}, {"alias": "bbq", "title": "Barbeque"}], "rating": 3.5, "coordinates": {"latitude": 41.77466, "longitude": -71.67334}, "transactions": [], "price": "$$", "location": {"address1": "", "address2": null, "address3": "", "city": "Clayville", "zip_code": "02815", "country": "US", "state": "RI", "display_address": ["Clayville, RI 02815"]}, "phone": "+15089443219", "display_phone": "(508) 944-3219", "distance": 10218.086433633427}, {"id": "io6MzhIx-GUKGOgC9Uq25Q", "alias": "helens-place-foster", "name": "Helen's\u00a0Place", "image_url": "https://s3-media2.fl.yelpcdn.com/bphoto/t3htm31YCKBzVvW9W04B6g/o.jpg", "is_closed": false, "url": "https://www.yelp.com/biz/helens-place-foster?adjust_creative=pzvBKuEUl0Vl1jtHQqJaog&utm_campaign=yelp_api_v3&utm_medium=api_v3_business_search&utm_source=pzvBKuEUl0Vl1jtHQqJaog", "review_count": 7, "categories": [{"alias": "divebars", "title": "Dive Bars"}, {"alias": "hotdogs", "title": "Fast Food"}], "rating": 4.5, "coordinates": {"latitude": 41.803726, "longitude": -71.774}, "transactions": [], "price": "$", "location": {"address1": "172 Danielson Pike", "address2": "", "address3": "", "city": "Foster", "zip_code": "02825", "country": "US", "state": "RI", "display_address": ["172 Danielson Pike", "Foster, RI 02825"]}, "phone": "+14016470520", "display_phone": "(401) 647-0520", "distance": 13038.093316047585}, {"id": "1EOuSB4DAmrcmOaWtEm9HQ", "alias": "la-cantina-bar-and-grill-plainfield", "name": "La Cantina Bar and Grill", "image_url": "https://s3-media4.fl.yelpcdn.com/bphoto/GoByOaRsX-9CLCsY5DRzXw/o.jpg", "is_closed": false, "url": "https://www.yelp.com/biz/la-cantina-bar-and-grill-plainfield?adjust_creative=pzvBKuEUl0Vl1jtHQqJaog&utm_campaign=yelp_api_v3&utm_medium=api_v3_business_search&utm_source=pzvBKuEUl0Vl1jtHQqJaog", "review_count": 21, "categories": [{"alias": "pizza", "title": "Pizza"}, {"alias": "mexican", "title": "Mexican"}, {"alias": "bars", "title": "Bars"}], "rating": 4.0, "coordinates": {"latitude": 41.7109900171947, "longitude": -71.9050971418619}, "transactions": ["delivery"], "price": "$$", "location": {"address1": "123 Norwich Rd", "address2": "", "address3": "", "city": "Plainfield", "zip_code": "06374", "country": "US", "state": "CT", "display_address": ["123 Norwich Rd", "Plainfield, CT 06374"]}, "phone": "+18603171082", "display_phone": "(860) 317-1082", "distance": 14939.091619985205}, {"id": "Hf622Pxe6XETMLaJVQtZXQ", "alias": "victorian-house-plainfield", "name": "Victorian House", "image_url": "https://s3-media1.fl.yelpcdn.com/bphoto/_FgJNAxwNpEt1CbYFgCr5Q/o.jpg", "is_closed": false, "url": "https://www.yelp.com/biz/victorian-house-plainfield?adjust_creative=pzvBKuEUl0Vl1jtHQqJaog&utm_campaign=yelp_api_v3&utm_medium=api_v3_business_search&utm_source=pzvBKuEUl0Vl1jtHQqJaog", "review_count": 12, "categories": [{"alias": "breakfast_brunch", "title": "Breakfast & Brunch"}], "rating": 5.0, "coordinates": {"latitude": 41.7093811035156, "longitude": -71.906120300293}, "transactions": ["delivery", "pickup"], "price": "$", "location": {"address1": "159 Norwich Rd", "address2": null, "address3": null, "city": "Plainfield", "zip_code": "06374", "country": "US", "state": "CT", "display_address": ["159 Norwich Rd", "Plainfield, CT 06374"]}, "phone": "+18605642505", "display_phone": "(860) 564-2505", "distance": 14999.271514483557}, {"id": "Ke8zdBzJvvWK-WtKmLfr8Q", "alias": "dannys-depot-diner-central-village", "name": "Danny's Depot Diner", "image_url": "https://s3-media2.fl.yelpcdn.com/bphoto/8sy5Z89CjtPqXrEZouL2zA/o.jpg", "is_closed": false, "url": "https://www.yelp.com/biz/dannys-depot-diner-central-village?adjust_creative=pzvBKuEUl0Vl1jtHQqJaog&utm_campaign=yelp_api_v3&utm_medium=api_v3_business_search&utm_source=pzvBKuEUl0Vl1jtHQqJaog", "review_count": 9, "categories": [{"alias": "diners", "title": "Diners"}, {"alias": "cafes", "title": "Cafes"}, {"alias": "sandwiches", "title": "Sandwiches"}], "rating": 4.0, "coordinates": {"latitude": 41.7229273564174, "longitude": -71.9068332016468}, "transactions": ["delivery"], "price": "$", "location": {"address1": "10 Putnam Rd", "address2": "", "address3": "", "city": "Central Village", "zip_code": "06332", "country": "US", "state": "CT", "display_address": ["10 Putnam Rd", "Central Village, CT 06332"]}, "phone": "+18605643447", "display_phone": "(860) 564-3447", "distance": 15324.26243606642}, {"id": "7rRck0Vo7_E75o_Wcqngjg", "alias": "wicked-good-pizza-west-greenwich", "name": "Wicked Good Pizza", "image_url": "https://s3-media3.fl.yelpcdn.com/bphoto/NtADSOUurPQZWLLpWy0XcA/o.jpg", "is_closed": false, "url": "https://www.yelp.com/biz/wicked-good-pizza-west-greenwich?adjust_creative=pzvBKuEUl0Vl1jtHQqJaog&utm_campaign=yelp_api_v3&utm_medium=api_v3_business_search&utm_source=pzvBKuEUl0Vl1jtHQqJaog", "review_count": 13, "categories": [{"alias": "pizza", "title": "Pizza"}], "rating": 3.5, "coordinates": {"latitude": 41.6592645, "longitude": -71.6032579}, "transactions": ["delivery"], "location": {"address1": "12 Nooseneck Hill Rd", "address2": "", "address3": "", "city": "West Greenwich", "zip_code": "02817", "country": "US", "state": "RI", "display_address": ["12 Nooseneck Hill Rd", "West Greenwich, RI 02817"]}, "phone": "+14013853851", "display_phone": "(401) 385-3851", "distance": 10896.101314558893}, {"id": "YsQQIldnQZOGMszUDWR-yQ", "alias": "jesses-ny-system-johnston", "name": "Jesse's NY System", "image_url": "https://s3-media2.fl.yelpcdn.com/bphoto/WiEgjunBL6JKb84m3F8rMg/o.jpg", "is_closed": false, "url": "https://www.yelp.com/biz/jesses-ny-system-johnston?adjust_creative=pzvBKuEUl0Vl1jtHQqJaog&utm_campaign=yelp_api_v3&utm_medium=api_v3_business_search&utm_source=pzvBKuEUl0Vl1jtHQqJaog", "review_count": 9, "categories": [{"alias": "diners", "title": "Diners"}], "rating": 3.5, "coordinates": {"latitude": 41.791481, "longitude": -71.551728}, "transactions": [], "price": "$", "location": {"address1": "2238 Plainfield Pike", "address2": "", "address3": "", "city": "Johnston", "zip_code": "02919", "country": "US", "state": "RI", "display_address": ["2238 Plainfield Pike", "Johnston, RI 02919"]}, "phone": "+14019421960", "display_phone": "(401) 942-1960", "distance": 18281.215951273698}, {"id": "4U20U3Ev5PdPH4UEq9f64A", "alias": "edis-place-moosup", "name": "Edi's Place", "image_url": "https://s3-media4.fl.yelpcdn.com/bphoto/O3DPD_MEHKL5-2x5nMHJ7g/o.jpg", "is_closed": false, "url": "https://www.yelp.com/biz/edis-place-moosup?adjust_creative=pzvBKuEUl0Vl1jtHQqJaog&utm_campaign=yelp_api_v3&utm_medium=api_v3_business_search&utm_source=pzvBKuEUl0Vl1jtHQqJaog", "review_count": 2, "categories": [{"alias": "pizza", "title": "Pizza"}], "rating": 4.0, "coordinates": {"latitude": 41.7118, "longitude": -71.88446}, "transactions": ["delivery"], "location": {"address1": "73 Ward Ave", "address2": "", "address3": null, "city": "Moosup", "zip_code": "06354", "country": "US", "state": "CT", "display_address": ["73 Ward Ave", "Moosup, CT 06354"]}, "phone": "+18605643679", "display_phone": "(860) 564-3679", "distance": 13261.1474383118}, {"id": "nalHCyHXXs-Aui2i_FU83Q", "alias": "scituate-famous-pizza-north-scituate", "name": "Scituate Famous Pizza", "image_url": "https://s3-media1.fl.yelpcdn.com/bphoto/s4p_ISITNxaj5cijx_T1oA/o.jpg", "is_closed": false, "url": "https://www.yelp.com/biz/scituate-famous-pizza-north-scituate?adjust_creative=pzvBKuEUl0Vl1jtHQqJaog&utm_campaign=yelp_api_v3&utm_medium=api_v3_business_search&utm_source=pzvBKuEUl0Vl1jtHQqJaog", "review_count": 44, "categories": [{"alias": "pizza", "title": "Pizza"}], "rating": 3.0, "coordinates": {"latitude": 41.8370628356934, "longitude": -71.5841598510742}, "transactions": [], "price": "$$", "location": {"address1": "92 Hartford Pike", "address2": "", "address3": "", "city": "North Scituate", "zip_code": "02857", "country": "US", "state": "RI", "display_address": ["92 Hartford Pike", "North Scituate, RI 02857"]}, "phone": "+14019340278", "display_phone": "(401) 934-0278", "distance": 20025.34113199221}, {"id": "kAba61pAXVA8TgN5lFDxFA", "alias": "big-daddys-pizza-coventry", "name": "Big Daddy's Pizza", "image_url": "", "is_closed": false, "url": "https://www.yelp.com/biz/big-daddys-pizza-coventry?adjust_creative=pzvBKuEUl0Vl1jtHQqJaog&utm_campaign=yelp_api_v3&utm_medium=api_v3_business_search&utm_source=pzvBKuEUl0Vl1jtHQqJaog", "review_count": 1, "categories": [{"alias": "restaurants", "title": "Restaurants"}], "rating": 5.0, "coordinates": {"latitude": 41.7046809196472, "longitude": -71.6160059720278}, "transactions": [], "location": {"address1": "2246 Flat River Rd", "address2": null, "address3": null, "city": "Coventry", "zip_code": "02816", "country": "US", "state": "RI", "display_address": ["2246 Flat River Rd", "Coventry, RI 02816"]}, "phone": "+14013853660", "display_phone": "(401) 385-3660", "distance": 9347.08200812648}, {"id": "X1izrM-7t12AHYUQYcH0wA", "alias": "zips-diner-dayville", "name": "Zip's Diner", "image_url": "https://s3-media1.fl.yelpcdn.com/bphoto/0y-v_MIpEBSPhFVkIyYSKg/o.jpg", "is_closed": false, "url": "https://www.yelp.com/biz/zips-diner-dayville?adjust_creative=pzvBKuEUl0Vl1jtHQqJaog&utm_campaign=yelp_api_v3&utm_medium=api_v3_business_search&utm_source=pzvBKuEUl0Vl1jtHQqJaog", "review_count": 79, "categories": [{"alias": "diners", "title": "Diners"}], "rating": 3.5, "coordinates": {"latitude": 41.840520753248, "longitude": -71.87582973412}, "transactions": [], "price": "$", "location": {"address1": "Rte 101 And 12", "address2": "", "address3": "", "city": "Dayville", "zip_code": "06241", "country": "US", "state": "CT", "display_address": ["Rte 101 And 12", "Dayville, CT 06241"]}, "phone": "+18607746335", "display_phone": "(860) 774-6335", "distance": 20632.64428518169}, {"id": "4d2v3YTGmHstrHOGLQr1cg", "alias": "luckys-bar-and-pizza-foster", "name": "Lucky's Bar & Pizza", "image_url": "https://s3-media4.fl.yelpcdn.com/bphoto/6T5JF0ZZQ4_BKieUnSBQwA/o.jpg", "is_closed": false, "url": "https://www.yelp.com/biz/luckys-bar-and-pizza-foster?adjust_creative=pzvBKuEUl0Vl1jtHQqJaog&utm_campaign=yelp_api_v3&utm_medium=api_v3_business_search&utm_source=pzvBKuEUl0Vl1jtHQqJaog", "review_count": 9, "categories": [{"alias": "pizza", "title": "Pizza"}, {"alias": "bars", "title": "Bars"}], "rating": 4.0, "coordinates": {"latitude": 41.81252, "longitude": -71.7526}, "transactions": [], "price": "$$", "location": {"address1": "143 Danielson Pike", "address2": "", "address3": "", "city": "Foster", "zip_code": "02825", "country": "US", "state": "RI", "display_address": ["143 Danielson Pike", "Foster, RI 02825"]}, "phone": "+14016472537", "display_phone": "(401) 647-2537", "distance": 13552.95237625846}, {"id": "M80i1IlhAqzG26m2TL_w_g", "alias": "cold-brook-cafe-scituate", "name": "Cold Brook Cafe", "image_url": "https://s3-media1.fl.yelpcdn.com/bphoto/nzKzik3WeScwbZQOSiksEg/o.jpg", "is_closed": false, "url": "https://www.yelp.com/biz/cold-brook-cafe-scituate?adjust_creative=pzvBKuEUl0Vl1jtHQqJaog&utm_campaign=yelp_api_v3&utm_medium=api_v3_business_search&utm_source=pzvBKuEUl0Vl1jtHQqJaog", "review_count": 16, "categories": [{"alias": "breakfast_brunch", "title": "Breakfast & Brunch"}, {"alias": "newamerican", "title": "American (New)"}, {"alias": "sandwiches", "title": "Sandwiches"}], "rating": 4.5, "coordinates": {"latitude": 41.8317333428683, "longitude": -71.5872223021108}, "transactions": [], "price": "$", "location": {"address1": "138 Danielson Pike", "address2": "", "address3": null, "city": "Scituate", "zip_code": "02857", "country": "US", "state": "RI", "display_address": ["138 Danielson Pike", "Scituate, RI 02857"]}, "phone": "+14017645334", "display_phone": "(401) 764-5334", "distance": 19400.004844737978}, {"id": "A6z565n125C9LeO0V5-B1g", "alias": "harris-deli-and-catering-coventry", "name": "Harris Deli & Catering", "image_url": "https://s3-media3.fl.yelpcdn.com/bphoto/yEHhKwA6IWbnsGElp8DzFQ/o.jpg", "is_closed": false, "url": "https://www.yelp.com/biz/harris-deli-and-catering-coventry?adjust_creative=pzvBKuEUl0Vl1jtHQqJaog&utm_campaign=yelp_api_v3&utm_medium=api_v3_business_search&utm_source=pzvBKuEUl0Vl1jtHQqJaog", "review_count": 1, "categories": [{"alias": "catering", "title": "Caterers"}, {"alias": "delis", "title": "Delis"}], "rating": 4.0, "coordinates": {"latitude": 41.7241005867093, "longitude": -71.5352952447634}, "transactions": [], "location": {"address1": "656 Main St", "address2": "", "address3": "", "city": "Coventry", "zip_code": "02816", "country": "US", "state": "RI", "display_address": ["656 Main St", "Coventry, RI 02816"]}, "phone": "+14018256044", "display_phone": "(401) 825-6044", "distance": 16312.255330736445}, {"id": "5D5IOSaX868zhaldGDnGDA", "alias": "new-york-pizza-danielson", "name": "New York Pizza", "image_url": "https://s3-media2.fl.yelpcdn.com/bphoto/Vvr5tYyj0s9B1Jo3NYbZ6w/o.jpg", "is_closed": false, "url": "https://www.yelp.com/biz/new-york-pizza-danielson?adjust_creative=pzvBKuEUl0Vl1jtHQqJaog&utm_campaign=yelp_api_v3&utm_medium=api_v3_business_search&utm_source=pzvBKuEUl0Vl1jtHQqJaog", "review_count": 60, "categories": [{"alias": "pizza", "title": "Pizza"}, {"alias": "bars", "title": "Bars"}, {"alias": "tradamerican", "title": "American (Traditional)"}], "rating": 3.5, "coordinates": {"latitude": 41.8048011714794, "longitude": -71.8839700520039}, "transactions": ["delivery"], "price": "$$", "location": {"address1": "8 Furnace St", "address2": "", "address3": null, "city": "Danielson", "zip_code": "06239", "country": "US", "state": "CT", "display_address": ["8 Furnace St", "Danielson, CT 06239"]}, "phone": "+18604129094", "display_phone": "(860) 412-9094", "distance": 18093.396384811487}, {"id": "dK81ybfg-iwM7w-UUV1cIA", "alias": "yamato-hibachi-and-sushi-dayville", "name": "Yamato Hibachi and Sushi", "image_url": "https://s3-media2.fl.yelpcdn.com/bphoto/oifyXJ2vaMs_0TE_BDUngQ/o.jpg", "is_closed": false, "url": "https://www.yelp.com/biz/yamato-hibachi-and-sushi-dayville?adjust_creative=pzvBKuEUl0Vl1jtHQqJaog&utm_campaign=yelp_api_v3&utm_medium=api_v3_business_search&utm_source=pzvBKuEUl0Vl1jtHQqJaog", "review_count": 43, "categories": [{"alias": "japanese", "title": "Japanese"}, {"alias": "noodles", "title": "Noodles"}, {"alias": "seafood", "title": "Seafood"}], "rating": 3.5, "coordinates": {"latitude": 41.84006, "longitude": -71.87531}, "transactions": [], "price": "$$", "location": {"address1": "729 Hartford Pike", "address2": null, "address3": null, "city": "Dayville", "zip_code": "06241", "country": "US", "state": "CT", "display_address": ["729 Hartford Pike", "Dayville, CT 06241"]}, "phone": "+18607740888", "display_phone": "(860) 774-0888", "distance": 20562.560772557634}, {"id": "xRX6BY2Dpt_CwsdeusMLaQ", "alias": "bishop-hill-tavern-johnston", "name": "Bishop Hill Tavern", "image_url": "https://s3-media2.fl.yelpcdn.com/bphoto/qcQrq161B_nYcQHTPBk1jw/o.jpg", "is_closed": false, "url": "https://www.yelp.com/biz/bishop-hill-tavern-johnston?adjust_creative=pzvBKuEUl0Vl1jtHQqJaog&utm_campaign=yelp_api_v3&utm_medium=api_v3_business_search&utm_source=pzvBKuEUl0Vl1jtHQqJaog", "review_count": 42, "categories": [{"alias": "bars", "title": "Bars"}, {"alias": "tradamerican", "title": "American (Traditional)"}], "rating": 3.5, "coordinates": {"latitude": 41.8341827392578, "longitude": -71.5630416870117}, "transactions": ["delivery"], "price": "$$", "location": {"address1": "2868 Hartford Ave", "address2": "", "address3": "", "city": "Johnston", "zip_code": "02919", "country": "US", "state": "RI", "display_address": ["2868 Hartford Ave", "Johnston, RI 02919"]}, "phone": "+14019340097", "display_phone": "(401) 934-0097", "distance": 20867.737577291282}, {"id": "KteX1CYSyHNhiambfEX1Kg", "alias": "bill-s-place-west-warwick", "name": "Bill\u2019s Place", "image_url": "https://s3-media4.fl.yelpcdn.com/bphoto/0B2lK_5AUHMGa6Hw2KnvqQ/o.jpg", "is_closed": false, "url": "https://www.yelp.com/biz/bill-s-place-west-warwick?adjust_creative=pzvBKuEUl0Vl1jtHQqJaog&utm_campaign=yelp_api_v3&utm_medium=api_v3_business_search&utm_source=pzvBKuEUl0Vl1jtHQqJaog", "review_count": 62, "categories": [{"alias": "pizza", "title": "Pizza"}, {"alias": "tradamerican", "title": "American (Traditional)"}], "rating": 4.0, "coordinates": {"latitude": 41.72237, "longitude": -71.53388}, "transactions": ["delivery"], "price": "$$", "location": {"address1": "707 Main St", "address2": "", "address3": "", "city": "West Warwick", "zip_code": "02893", "country": "US", "state": "RI", "display_address": ["707 Main St", "West Warwick, RI 02893"]}, "phone": "+14018282300", "display_phone": "(401) 828-2300", "distance": 16378.984808199624}, {"id": "rWY-Ziti_mnkZT4fg5CFrw", "alias": "popeyes-louisiana-kitchen-w-greenwich", "name": "Popeyes Louisiana Kitchen", "image_url": "https://s3-media3.fl.yelpcdn.com/bphoto/VTwWpdLUaZTpShJF6gMYXA/o.jpg", "is_closed": false, "url": "https://www.yelp.com/biz/popeyes-louisiana-kitchen-w-greenwich?adjust_creative=pzvBKuEUl0Vl1jtHQqJaog&utm_campaign=yelp_api_v3&utm_medium=api_v3_business_search&utm_source=pzvBKuEUl0Vl1jtHQqJaog", "review_count": 20, "categories": [{"alias": "hotdogs", "title": "Fast Food"}, {"alias": "chicken_wings", "title": "Chicken Wings"}], "rating": 3.5, "coordinates": {"latitude": 41.608992, "longitude": -71.665454}, "transactions": [], "price": "$", "location": {"address1": "849 Victory Hwy", "address2": "", "address3": "", "city": "W Greenwich", "zip_code": "02817", "country": "US", "state": "RI", "display_address": ["849 Victory Hwy", "W Greenwich, RI 02817"]}, "phone": "+14013977774", "display_phone": "(401) 397-7774", "distance": 10535.957059654353}, {"id": "eruvZRLVlvEqWMR9Lfgn_A", "alias": "heirloom-food-company-danielson", "name": "Heirloom Food Company", "image_url": "https://s3-media1.fl.yelpcdn.com/bphoto/e-nOpm4XArMumaBWg6C0iA/o.jpg", "is_closed": false, "url": "https://www.yelp.com/biz/heirloom-food-company-danielson?adjust_creative=pzvBKuEUl0Vl1jtHQqJaog&utm_campaign=yelp_api_v3&utm_medium=api_v3_business_search&utm_source=pzvBKuEUl0Vl1jtHQqJaog", "review_count": 107, "categories": [{"alias": "vegetarian", "title": "Vegetarian"}, {"alias": "coffee", "title": "Coffee & Tea"}, {"alias": "sandwiches", "title": "Sandwiches"}], "rating": 4.5, "coordinates": {"latitude": 41.8169926, "longitude": -71.8765292}, "transactions": ["delivery"], "price": "$$", "location": {"address1": "630 N Main St", "address2": "", "address3": "", "city": "Danielson", "zip_code": "06239", "country": "US", "state": "CT", "display_address": ["630 N Main St", "Danielson, CT 06239"]}, "phone": "+18607793373", "display_phone": "(860) 779-3373", "distance": 18642.3598707796}, {"id": "2EtFxzmiD2al24fRXeOS6g", "alias": "expressos-pizza-restaurant-johnston", "name": "Expressos Pizza Restaurant", "image_url": "https://s3-media3.fl.yelpcdn.com/bphoto/iin33BYQ6RQyy06L1DQ43w/o.jpg", "is_closed": false, "url": "https://www.yelp.com/biz/expressos-pizza-restaurant-johnston?adjust_creative=pzvBKuEUl0Vl1jtHQqJaog&utm_campaign=yelp_api_v3&utm_medium=api_v3_business_search&utm_source=pzvBKuEUl0Vl1jtHQqJaog", "review_count": 15, "categories": [{"alias": "italian", "title": "Italian"}, {"alias": "pizza", "title": "Pizza"}], "rating": 4.0, "coordinates": {"latitude": 41.8352012634277, "longitude": -71.5660705566406}, "transactions": ["delivery"], "price": "$", "location": {"address1": "2949 Hartford Ave", "address2": null, "address3": null, "city": "Johnston", "zip_code": "02919", "country": "US", "state": "RI", "display_address": ["2949 Hartford Ave", "Johnston, RI 02919"]}, "phone": "+14019342515", "display_phone": "(401) 934-2515", "distance": 20778.329014253446}, {"id": "HpuhVsytRiS_D3-pBuJvHw", "alias": "shady-acres-diner-foster", "name": "Shady Acres Diner", "image_url": "https://s3-media4.fl.yelpcdn.com/bphoto/o23yLmosOXhajc3SluhNxA/o.jpg", "is_closed": false, "url": "https://www.yelp.com/biz/shady-acres-diner-foster?adjust_creative=pzvBKuEUl0Vl1jtHQqJaog&utm_campaign=yelp_api_v3&utm_medium=api_v3_business_search&utm_source=pzvBKuEUl0Vl1jtHQqJaog", "review_count": 24, "categories": [{"alias": "breakfast_brunch", "title": "Breakfast & Brunch"}], "rating": 3.5, "coordinates": {"latitude": 41.806656, "longitude": -71.767935}, "transactions": [], "price": "$", "location": {"address1": "164 Danielson Pike", "address2": "", "address3": "", "city": "Foster", "zip_code": "02825", "country": "US", "state": "RI", "display_address": ["164 Danielson Pike", "Foster, RI 02825"]}, "phone": "+14016477019", "display_phone": "(401) 647-7019", "distance": 13211.083148005799}, {"id": "Uky8fk4fAqoTBnHDot_Dsg", "alias": "bessies-gravity-hill-creamery-sterling", "name": "Bessie's Gravity Hill Creamery", "image_url": "https://s3-media4.fl.yelpcdn.com/bphoto/UhICE_CiTFDemOYze2QmsQ/o.jpg", "is_closed": false, "url": "https://www.yelp.com/biz/bessies-gravity-hill-creamery-sterling?adjust_creative=pzvBKuEUl0Vl1jtHQqJaog&utm_campaign=yelp_api_v3&utm_medium=api_v3_business_search&utm_source=pzvBKuEUl0Vl1jtHQqJaog", "review_count": 3, "categories": [{"alias": "coffee", "title": "Coffee & Tea"}, {"alias": "breakfast_brunch", "title": "Breakfast & Brunch"}, {"alias": "icecream", "title": "Ice Cream & Frozen Yogurt"}], "rating": 4.5, "coordinates": {"latitude": 41.70878, "longitude": -71.83065}, "transactions": [], "price": "$", "location": {"address1": "41 Main St", "address2": null, "address3": "", "city": "Sterling", "zip_code": "06377", "country": "US", "state": "CT", "display_address": ["41 Main St", "Sterling, CT 06377"]}, "phone": "+18603171068", "display_phone": "(860) 317-1068", "distance": 8811.791495828082}, {"id": "xNCeCVr_Ly2adwKGv9jlTw", "alias": "little-country-pizza-exeter", "name": "Little Country Pizza", "image_url": "https://s3-media2.fl.yelpcdn.com/bphoto/EANAplBdR0B2JoN2Vb2gvQ/o.jpg", "is_closed": false, "url": "https://www.yelp.com/biz/little-country-pizza-exeter?adjust_creative=pzvBKuEUl0Vl1jtHQqJaog&utm_campaign=yelp_api_v3&utm_medium=api_v3_business_search&utm_source=pzvBKuEUl0Vl1jtHQqJaog", "review_count": 41, "categories": [{"alias": "pizza", "title": "Pizza"}, {"alias": "sandwiches", "title": "Sandwiches"}, {"alias": "bbq", "title": "Barbeque"}], "rating": 4.0, "coordinates": {"latitude": 41.578511, "longitude": -71.654604}, "transactions": [], "price": "$", "location": {"address1": "349 Nooseneck Hill Rd", "address2": "", "address3": "", "city": "Exeter", "zip_code": "02822", "country": "US", "state": "RI", "display_address": ["349 Nooseneck Hill Rd", "Exeter, RI 02822"]}, "phone": "+14013972500", "display_phone": "(401) 397-2500", "distance": 13953.729153736269}, {"id": "Oq_rfnsS4YbOmgMWoilymQ", "alias": "pizza-pizzazz-moosup", "name": "Pizza Pizzazz", "image_url": "https://s3-media1.fl.yelpcdn.com/bphoto/fiztUuZYsGW8-5TFRtC9Sg/o.jpg", "is_closed": false, "url": "https://www.yelp.com/biz/pizza-pizzazz-moosup?adjust_creative=pzvBKuEUl0Vl1jtHQqJaog&utm_campaign=yelp_api_v3&utm_medium=api_v3_business_search&utm_source=pzvBKuEUl0Vl1jtHQqJaog", "review_count": 10, "categories": [{"alias": "pizza", "title": "Pizza"}], "rating": 3.0, "coordinates": {"latitude": 41.71323, "longitude": -71.88248}, "transactions": ["delivery"], "location": {"address1": "24 Prospect St", "address2": null, "address3": null, "city": "Moosup", "zip_code": "06354", "country": "US", "state": "CT", "display_address": ["24 Prospect St", "Moosup, CT 06354"]}, "phone": "+18605640500", "display_phone": "(860) 564-0500", "distance": 13121.703079023422}, {"id": "AFDjrxc-nWG_ZO53jKYZ5w", "alias": "famous-pizza-johnston", "name": "Famous Pizza", "image_url": "https://s3-media1.fl.yelpcdn.com/bphoto/xpq8xyvKrJKYvTJswRbQIQ/o.jpg", "is_closed": false, "url": "https://www.yelp.com/biz/famous-pizza-johnston?adjust_creative=pzvBKuEUl0Vl1jtHQqJaog&utm_campaign=yelp_api_v3&utm_medium=api_v3_business_search&utm_source=pzvBKuEUl0Vl1jtHQqJaog", "review_count": 14, "categories": [{"alias": "pizza", "title": "Pizza"}], "rating": 3.5, "coordinates": {"latitude": 41.7903060913086, "longitude": -71.5231246948242}, "transactions": ["delivery"], "price": "$", "location": {"address1": "2071 Plainfield Pike", "address2": "Unit 4", "address3": null, "city": "Johnston", "zip_code": "02919", "country": "US", "state": "RI", "display_address": ["2071 Plainfield Pike", "Unit 4", "Johnston, RI 02919"]}, "phone": "+14019462337", "display_phone": "(401) 946-2337", "distance": 20146.452102384646}, {"id": "kDkVd7ZVqBc1glYqEZx3hQ", "alias": "country-view-restaurant-brooklyn", "name": "Country View Restaurant", "image_url": "https://s3-media2.fl.yelpcdn.com/bphoto/mTRO0a4k8Y1C5-uUuCWcLw/o.jpg", "is_closed": false, "url": "https://www.yelp.com/biz/country-view-restaurant-brooklyn?adjust_creative=pzvBKuEUl0Vl1jtHQqJaog&utm_campaign=yelp_api_v3&utm_medium=api_v3_business_search&utm_source=pzvBKuEUl0Vl1jtHQqJaog", "review_count": 83, "categories": [{"alias": "breakfast_brunch", "title": "Breakfast & Brunch"}, {"alias": "coffee", "title": "Coffee & Tea"}], "rating": 4.5, "coordinates": {"latitude": 41.788207, "longitude": -71.90272}, "transactions": ["delivery"], "price": "$", "location": {"address1": "170 South St", "address2": "", "address3": "", "city": "Brooklyn", "zip_code": "06234", "country": "US", "state": "CT", "display_address": ["170 South St", "Brooklyn, CT 06234"]}, "phone": "+18607741200", "display_phone": "(860) 774-1200", "distance": 18094.50627921718}, {"id": "QfH8gfhXwfP8mQ_YRSX-CA", "alias": "phenix-square-restaurant-west-warwick", "name": "Phenix Square Restaurant", "image_url": "https://s3-media3.fl.yelpcdn.com/bphoto/xCym9lRhAfCzyesfDZx9cg/o.jpg", "is_closed": false, "url": "https://www.yelp.com/biz/phenix-square-restaurant-west-warwick?adjust_creative=pzvBKuEUl0Vl1jtHQqJaog&utm_campaign=yelp_api_v3&utm_medium=api_v3_business_search&utm_source=pzvBKuEUl0Vl1jtHQqJaog", "review_count": 10, "categories": [{"alias": "restaurants", "title": "Restaurants"}], "rating": 3.5, "coordinates": {"latitude": 41.72131, "longitude": -71.531845}, "transactions": [], "price": "$", "location": {"address1": "9 Pleasant St", "address2": "", "address3": "", "city": "West Warwick", "zip_code": "02893", "country": "US", "state": "RI", "display_address": ["9 Pleasant St", "West Warwick, RI 02893"]}, "phone": "+14018288110", "display_phone": "(401) 828-8110", "distance": 16527.80905800886}, {"id": "3eW8M4sMMlavJKj4tZAbAg", "alias": "thai-basil-danielson", "name": "Thai Basil", "image_url": "https://s3-media1.fl.yelpcdn.com/bphoto/8NvQdpCIYkCn0lvSsl3Phw/o.jpg", "is_closed": false, "url": "https://www.yelp.com/biz/thai-basil-danielson?adjust_creative=pzvBKuEUl0Vl1jtHQqJaog&utm_campaign=yelp_api_v3&utm_medium=api_v3_business_search&utm_source=pzvBKuEUl0Vl1jtHQqJaog", "review_count": 78, "categories": [{"alias": "thai", "title": "Thai"}], "rating": 3.5, "coordinates": {"latitude": 41.81629, "longitude": -71.88432}, "transactions": ["delivery"], "price": "$$", "location": {"address1": "187 North St", "address2": null, "address3": null, "city": "Danielson", "zip_code": "06239", "country": "US", "state": "CT", "display_address": ["187 North St", "Danielson, CT 06239"]}, "phone": "+18607741986", "display_phone": "(860) 774-1986", "distance": 19006.516591727486}, {"id": "I88EJR0YwEEXmamSSA5FKw", "alias": "ra-ras-ice-cream-parlor-moosup", "name": "Ra Ra's Ice Cream Parlor", "image_url": "https://s3-media3.fl.yelpcdn.com/bphoto/TOGBEi38bJtnLWQhAhL4Sw/o.jpg", "is_closed": false, "url": "https://www.yelp.com/biz/ra-ras-ice-cream-parlor-moosup?adjust_creative=pzvBKuEUl0Vl1jtHQqJaog&utm_campaign=yelp_api_v3&utm_medium=api_v3_business_search&utm_source=pzvBKuEUl0Vl1jtHQqJaog", "review_count": 19, "categories": [{"alias": "icecream", "title": "Ice Cream & Frozen Yogurt"}, {"alias": "burgers", "title": "Burgers"}, {"alias": "tex-mex", "title": "Tex-Mex"}], "rating": 4.5, "coordinates": {"latitude": 41.7166408, "longitude": -71.8930071}, "transactions": ["delivery"], "price": "$", "location": {"address1": "340 Prospect St", "address2": null, "address3": null, "city": "Moosup", "zip_code": "06354", "country": "US", "state": "CT", "display_address": ["340 Prospect St", "Moosup, CT 06354"]}, "phone": "+18605643930", "display_phone": "(860) 564-3930", "distance": 14072.572355521774}, {"id": "3sr6IW9LtceWJFE1E11mvQ", "alias": "the-knotty-oak-room-coventry", "name": "The Knotty Oak Room", "image_url": "https://s3-media4.fl.yelpcdn.com/bphoto/9VC-RHtfXgyOR5Xz12HRFQ/o.jpg", "is_closed": false, "url": "https://www.yelp.com/biz/the-knotty-oak-room-coventry?adjust_creative=pzvBKuEUl0Vl1jtHQqJaog&utm_campaign=yelp_api_v3&utm_medium=api_v3_business_search&utm_source=pzvBKuEUl0Vl1jtHQqJaog", "review_count": 2, "categories": [{"alias": "cookingschools", "title": "Cooking Schools"}, {"alias": "breakfast_brunch", "title": "Breakfast & Brunch"}], "rating": 5.0, "coordinates": {"latitude": 41.6833224892616, "longitude": -71.5879359841347}, "transactions": [], "location": {"address1": "40 Reservoir Rd", "address2": "", "address3": null, "city": "Coventry", "zip_code": "02816", "country": "US", "state": "RI", "display_address": ["40 Reservoir Rd", "Coventry, RI 02816"]}, "phone": "+14018229499", "display_phone": "(401) 822-9499", "distance": 11588.509273860649}, {"id": "yIdM359GPsqjvL__3kYCBA", "alias": "cindys-diner-and-restaurant-north-scituate", "name": "Cindy's Diner & Restaurant", "image_url": "https://s3-media3.fl.yelpcdn.com/bphoto/U3f3b4L0GhPekaOSNReSjQ/o.jpg", "is_closed": false, "url": "https://www.yelp.com/biz/cindys-diner-and-restaurant-north-scituate?adjust_creative=pzvBKuEUl0Vl1jtHQqJaog&utm_campaign=yelp_api_v3&utm_medium=api_v3_business_search&utm_source=pzvBKuEUl0Vl1jtHQqJaog", "review_count": 63, "categories": [{"alias": "diners", "title": "Diners"}], "rating": 4.0, "coordinates": {"latitude": 41.8350677490234, "longitude": -71.5728378295898}, "transactions": [], "price": "$", "location": {"address1": "46 Hartford Ave", "address2": "", "address3": "", "city": "North Scituate", "zip_code": "02857", "country": "US", "state": "RI", "display_address": ["46 Hartford Ave", "North Scituate, RI 02857"]}, "phone": "+14019342449", "display_phone": "(401) 934-2449", "distance": 20423.64675190573}, {"id": "vO3aA_gQVRHomxFzJYze9Q", "alias": "mexican-grill-dayville", "name": "Mexican Grill", "image_url": "https://s3-media2.fl.yelpcdn.com/bphoto/qeex9dpTOZMGgCViF_K0zQ/o.jpg", "is_closed": false, "url": "https://www.yelp.com/biz/mexican-grill-dayville?adjust_creative=pzvBKuEUl0Vl1jtHQqJaog&utm_campaign=yelp_api_v3&utm_medium=api_v3_business_search&utm_source=pzvBKuEUl0Vl1jtHQqJaog", "review_count": 62, "categories": [{"alias": "mexican", "title": "Mexican"}], "rating": 3.5, "coordinates": {"latitude": 41.8385403, "longitude": -71.8761247}, "transactions": ["delivery"], "price": "$$", "location": {"address1": "1086 N Main St", "address2": "", "address3": "", "city": "Dayville", "zip_code": "06241", "country": "US", "state": "CT", "display_address": ["1086 N Main St", "Dayville, CT 06241"]}, "phone": "+18604129115", "display_phone": "(860) 412-9115", "distance": 20471.500854245423}, {"id": "JzzOQvIrC6jq6rYL0eIzTA", "alias": "jws-pub-coventry", "name": "Jw's Pub", "image_url": "https://s3-media2.fl.yelpcdn.com/bphoto/zU2UuWxz9GW7i2O-GKb3pg/o.jpg", "is_closed": false, "url": "https://www.yelp.com/biz/jws-pub-coventry?adjust_creative=pzvBKuEUl0Vl1jtHQqJaog&utm_campaign=yelp_api_v3&utm_medium=api_v3_business_search&utm_source=pzvBKuEUl0Vl1jtHQqJaog", "review_count": 31, "categories": [{"alias": "chicken_wings", "title": "Chicken Wings"}, {"alias": "burgers", "title": "Burgers"}, {"alias": "cocktailbars", "title": "Cocktail Bars"}], "rating": 4.5, "coordinates": {"latitude": 41.6956, "longitude": -71.53568}, "transactions": ["delivery"], "price": "$$", "location": {"address1": "433 Washington St", "address2": null, "address3": "", "city": "Coventry", "zip_code": "02816", "country": "US", "state": "RI", "display_address": ["433 Washington St", "Coventry, RI 02816"]}, "phone": "+14012623350", "display_phone": "(401) 262-3350", "distance": 15894.838854704916}, {"id": "Io4C5tUwnb_YzeaMXHBqBA", "alias": "shuckin-truck-narragansett-2", "name": "Shuckin Truck", "image_url": "https://s3-media2.fl.yelpcdn.com/bphoto/r7QRORfe9UYVS7GGzUm9DQ/o.jpg", "is_closed": false, "url": "https://www.yelp.com/biz/shuckin-truck-narragansett-2?adjust_creative=pzvBKuEUl0Vl1jtHQqJaog&utm_campaign=yelp_api_v3&utm_medium=api_v3_business_search&utm_source=pzvBKuEUl0Vl1jtHQqJaog", "review_count": 24, "categories": [{"alias": "foodtrucks", "title": "Food Trucks"}, {"alias": "seafood", "title": "Seafood"}], "rating": 4.5, "coordinates": {"latitude": 41.4274482727051, "longitude": -71.4597778320313}, "transactions": [], "price": "$$", "location": {"address1": "", "address2": "", "address3": "", "city": "Narragansett", "zip_code": "02882", "country": "US", "state": "RI", "display_address": ["Narragansett, RI 02882"]}, "phone": "+14017415953", "display_phone": "(401) 741-5953", "distance": 38162.36748970296}, {"id": "sDzJgIecPF5EDJsyeMZCDQ", "alias": "hanks-restaurant-brooklyn", "name": "Hank's Restaurant", "image_url": "https://s3-media4.fl.yelpcdn.com/bphoto/pkhVNcBbR_dul-OqtLH3KA/o.jpg", "is_closed": false, "url": "https://www.yelp.com/biz/hanks-restaurant-brooklyn?adjust_creative=pzvBKuEUl0Vl1jtHQqJaog&utm_campaign=yelp_api_v3&utm_medium=api_v3_business_search&utm_source=pzvBKuEUl0Vl1jtHQqJaog", "review_count": 40, "categories": [{"alias": "salad", "title": "Salad"}, {"alias": "seafood", "title": "Seafood"}, {"alias": "tradamerican", "title": "American (Traditional)"}], "rating": 3.0, "coordinates": {"latitude": 41.7968898, "longitude": -71.915269}, "transactions": ["delivery"], "price": "$$", "location": {"address1": "416 Providence Rd", "address2": "", "address3": "", "city": "Brooklyn", "zip_code": "06234", "country": "US", "state": "CT", "display_address": ["416 Providence Rd", "Brooklyn, CT 06234"]}, "phone": "+18607746071", "display_phone": "(860) 774-6071", "distance": 19484.765359417328}, {"id": "6DLCTSRkVrRqpz_aW5798w", "alias": "china-garden-scituate", "name": "China Garden", "image_url": "https://s3-media2.fl.yelpcdn.com/bphoto/WJV9dzNnqpB1VYTsNbxtTQ/o.jpg", "is_closed": false, "url": "https://www.yelp.com/biz/china-garden-scituate?adjust_creative=pzvBKuEUl0Vl1jtHQqJaog&utm_campaign=yelp_api_v3&utm_medium=api_v3_business_search&utm_source=pzvBKuEUl0Vl1jtHQqJaog", "review_count": 24, "categories": [{"alias": "chinese", "title": "Chinese"}], "rating": 4.0, "coordinates": {"latitude": 41.8363533, "longitude": -71.5737762}, "transactions": ["delivery"], "price": "$", "location": {"address1": "37 Village Plz Way", "address2": "", "address3": "", "city": "Scituate", "zip_code": "02857", "country": "US", "state": "RI", "display_address": ["37 Village Plz Way", "Scituate, RI 02857"]}, "phone": "+14019499888", "display_phone": "(401) 949-9888", "distance": 20526.343715894505}, {"id": "XBNvv5TmctLFauyOvSA5BQ", "alias": "hunan-balcony-coventry", "name": "Hunan Balcony", "image_url": "https://s3-media1.fl.yelpcdn.com/bphoto/at0dv7GAsatur6jG7DPBXg/o.jpg", "is_closed": false, "url": "https://www.yelp.com/biz/hunan-balcony-coventry?adjust_creative=pzvBKuEUl0Vl1jtHQqJaog&utm_campaign=yelp_api_v3&utm_medium=api_v3_business_search&utm_source=pzvBKuEUl0Vl1jtHQqJaog", "review_count": 22, "categories": [{"alias": "chinese", "title": "Chinese"}], "rating": 4.0, "coordinates": {"latitude": 41.69493, "longitude": -71.55028}, "transactions": ["delivery"], "price": "$", "location": {"address1": "687 Washington St", "address2": "", "address3": "", "city": "Coventry", "zip_code": "02816", "country": "US", "state": "RI", "display_address": ["687 Washington St", "Coventry, RI 02816"]}, "phone": "+14018263833", "display_phone": "(401) 826-3833", "distance": 14663.935537823903}, {"id": "UxeA5Z5aaYYk7-I8DUnNww", "alias": "new-ocean-palace-brooklyn", "name": "New Ocean Palace", "image_url": "https://s3-media4.fl.yelpcdn.com/bphoto/5m-UNkuNLPQcmeZ-HsFuUA/o.jpg", "is_closed": false, "url": "https://www.yelp.com/biz/new-ocean-palace-brooklyn?adjust_creative=pzvBKuEUl0Vl1jtHQqJaog&utm_campaign=yelp_api_v3&utm_medium=api_v3_business_search&utm_source=pzvBKuEUl0Vl1jtHQqJaog", "review_count": 34, "categories": [{"alias": "chinese", "title": "Chinese"}], "rating": 3.0, "coordinates": {"latitude": 41.79921, "longitude": -71.906}, "transactions": [], "price": "$$", "location": {"address1": "520 Providence Rd", "address2": "", "address3": "", "city": "Brooklyn", "zip_code": "06234", "country": "US", "state": "CT", "display_address": ["520 Providence Rd", "Brooklyn, CT 06234"]}, "phone": "+18607799722", "display_phone": "(860) 779-9722", "distance": 18989.053330146617}, {"id": "K2ZW7dkJQSu7VEtmEEpuVw", "alias": "nolles-coffee-bar-danielson", "name": "Nolles Coffee Bar", "image_url": "https://s3-media1.fl.yelpcdn.com/bphoto/WjvFSiDG-yt3pTQzo43JUw/o.jpg", "is_closed": false, "url": "https://www.yelp.com/biz/nolles-coffee-bar-danielson?adjust_creative=pzvBKuEUl0Vl1jtHQqJaog&utm_campaign=yelp_api_v3&utm_medium=api_v3_business_search&utm_source=pzvBKuEUl0Vl1jtHQqJaog", "review_count": 20, "categories": [{"alias": "cafes", "title": "Cafes"}], "rating": 4.0, "coordinates": {"latitude": 41.80456, "longitude": -71.88248}, "transactions": [], "location": {"address1": "113 School St", "address2": "", "address3": null, "city": "Danielson", "zip_code": "06239", "country": "US", "state": "CT", "display_address": ["113 School St", "Danielson, CT 06239"]}, "phone": "+18609337471", "display_phone": "(860) 933-7471", "distance": 17991.80308872759}, {"id": "UasRQvWFBusL3JhUFimtcg", "alias": "farmstand-cafe-and-bakery-scituate", "name": "Farmstand cafe and bakery", "image_url": "https://s3-media1.fl.yelpcdn.com/bphoto/65wAHNdl2dxKAAa9NQZjQA/o.jpg", "is_closed": false, "url": "https://www.yelp.com/biz/farmstand-cafe-and-bakery-scituate?adjust_creative=pzvBKuEUl0Vl1jtHQqJaog&utm_campaign=yelp_api_v3&utm_medium=api_v3_business_search&utm_source=pzvBKuEUl0Vl1jtHQqJaog", "review_count": 1, "categories": [{"alias": "breakfast_brunch", "title": "Breakfast & Brunch"}, {"alias": "sandwiches", "title": "Sandwiches"}, {"alias": "bakeries", "title": "Bakeries"}], "rating": 1.0, "coordinates": {"latitude": 41.842216, "longitude": -71.676623}, "transactions": [], "location": {"address1": "985 Chopmist Hill Rd", "address2": null, "address3": "", "city": "Scituate", "zip_code": "02857", "country": "US", "state": "RI", "display_address": ["985 Chopmist Hill Rd", "Scituate, RI 02857"]}, "phone": "+14016475423", "display_phone": "(401) 647-5423", "distance": 17234.87093784466}, {"id": "wA4fq1FvDqv7ZYXcPcJJGA", "alias": "frankos-pizza-and-restaurant-plainfield-4", "name": "Franko's Pizza & Restaurant", "image_url": "https://s3-media4.fl.yelpcdn.com/bphoto/3xJvwD_I2bHLoFGOHVlVSA/o.jpg", "is_closed": false, "url": "https://www.yelp.com/biz/frankos-pizza-and-restaurant-plainfield-4?adjust_creative=pzvBKuEUl0Vl1jtHQqJaog&utm_campaign=yelp_api_v3&utm_medium=api_v3_business_search&utm_source=pzvBKuEUl0Vl1jtHQqJaog", "review_count": 7, "categories": [{"alias": "pizza", "title": "Pizza"}, {"alias": "italian", "title": "Italian"}, {"alias": "fishnchips", "title": "Fish & Chips"}], "rating": 1.5, "coordinates": {"latitude": 41.71826, "longitude": -71.9022}, "transactions": ["delivery"], "location": {"address1": "20 Norwich Rd", "address2": "", "address3": "", "city": "Plainfield", "zip_code": "06374", "country": "US", "state": "CT", "display_address": ["20 Norwich Rd", "Plainfield, CT 06374"]}, "phone": "+18605649969", "display_phone": "(860) 564-9969", "distance": 14865.914812497436}, {"id": "B9KCNFvJDW5Px6Sz_PfxLg", "alias": "cozy-corner-restaurant-brooklyn", "name": "Cozy Corner Restaurant", "image_url": "https://s3-media2.fl.yelpcdn.com/bphoto/yniX03fUHkELmvbDFg32UQ/o.jpg", "is_closed": false, "url": "https://www.yelp.com/biz/cozy-corner-restaurant-brooklyn?adjust_creative=pzvBKuEUl0Vl1jtHQqJaog&utm_campaign=yelp_api_v3&utm_medium=api_v3_business_search&utm_source=pzvBKuEUl0Vl1jtHQqJaog", "review_count": 12, "categories": [{"alias": "newamerican", "title": "American (New)"}], "rating": 4.0, "coordinates": {"latitude": 41.74797, "longitude": -71.91651}, "transactions": [], "price": "$", "location": {"address1": "679 Wauregan Rd", "address2": "", "address3": "", "city": "Brooklyn", "zip_code": "06234", "country": "US", "state": "CT", "display_address": ["679 Wauregan Rd", "Brooklyn, CT 06234"]}, "phone": "+18607742629", "display_phone": "(860) 774-2629", "distance": 16933.19818177436}, {"id": "XS4ciYJ2INr7g4Un0JrA6A", "alias": "donahues-pizza-west-warwick", "name": "Donahue's Pizza", "image_url": "https://s3-media3.fl.yelpcdn.com/bphoto/tXCx0foYEH2v0Fnup3XNGw/o.jpg", "is_closed": false, "url": "https://www.yelp.com/biz/donahues-pizza-west-warwick?adjust_creative=pzvBKuEUl0Vl1jtHQqJaog&utm_campaign=yelp_api_v3&utm_medium=api_v3_business_search&utm_source=pzvBKuEUl0Vl1jtHQqJaog", "review_count": 18, "categories": [{"alias": "pizza", "title": "Pizza"}, {"alias": "hotdogs", "title": "Fast Food"}, {"alias": "sandwiches", "title": "Sandwiches"}], "rating": 4.5, "coordinates": {"latitude": 41.70557, "longitude": -71.5238215}, "transactions": ["delivery"], "location": {"address1": "1207 Main St", "address2": "", "address3": null, "city": "West Warwick", "zip_code": "02893", "country": "US", "state": "RI", "display_address": ["1207 Main St", "West Warwick, RI 02893"]}, "phone": "+14018235100", "display_phone": "(401) 823-5100", "distance": 16936.777461047473}, {"id": "BhvEkZZOQCwOTaLxovg3WA", "alias": "moes-southwest-grill-killingly", "name": "Moe's Southwest Grill", "image_url": "https://s3-media3.fl.yelpcdn.com/bphoto/QdCArmm56DCtXU5tT7Rkqw/o.jpg", "is_closed": false, "url": "https://www.yelp.com/biz/moes-southwest-grill-killingly?adjust_creative=pzvBKuEUl0Vl1jtHQqJaog&utm_campaign=yelp_api_v3&utm_medium=api_v3_business_search&utm_source=pzvBKuEUl0Vl1jtHQqJaog", "review_count": 10, "categories": [{"alias": "tex-mex", "title": "Tex-Mex"}, {"alias": "mexican", "title": "Mexican"}], "rating": 4.0, "coordinates": {"latitude": 41.8411709, "longitude": -71.8760444}, "transactions": ["delivery"], "price": "$", "location": {"address1": "710 Hartford Pike", "address2": "", "address3": null, "city": "Killingly", "zip_code": "06241", "country": "US", "state": "CT", "display_address": ["710 Hartford Pike", "Killingly, CT 06241"]}, "phone": "+18604129063", "display_phone": "(860) 412-9063", "distance": 20680.967128677956}, {"id": "y1Ot4lNCCbl0AivjxnDAbg", "alias": "dragon-palace-coventry", "name": "Dragon Palace", "image_url": "https://s3-media2.fl.yelpcdn.com/bphoto/Uz7fYCw4eaSqKWosTjNiTg/o.jpg", "is_closed": false, "url": "https://www.yelp.com/biz/dragon-palace-coventry?adjust_creative=pzvBKuEUl0Vl1jtHQqJaog&utm_campaign=yelp_api_v3&utm_medium=api_v3_business_search&utm_source=pzvBKuEUl0Vl1jtHQqJaog", "review_count": 84, "categories": [{"alias": "chinese", "title": "Chinese"}, {"alias": "sushi", "title": "Sushi Bars"}, {"alias": "japanese", "title": "Japanese"}], "rating": 3.5, "coordinates": {"latitude": 41.68498, "longitude": -71.55182}, "transactions": ["delivery"], "price": "$$", "location": {"address1": "577 Tiogue Ave", "address2": "", "address3": "", "city": "Coventry", "zip_code": "02816", "country": "US", "state": "RI", "display_address": ["577 Tiogue Ave", "Coventry, RI 02816"]}, "phone": "+14018280100", "display_phone": "(401) 828-0100", "distance": 14426.472735715068}, {"id": "rMTtKGQQ9hxd58a1aqNWFw", "alias": "ocean-palace-chinese-restaurant-danielson", "name": "Ocean Palace Chinese Restaurant", "image_url": "", "is_closed": false, "url": "https://www.yelp.com/biz/ocean-palace-chinese-restaurant-danielson?adjust_creative=pzvBKuEUl0Vl1jtHQqJaog&utm_campaign=yelp_api_v3&utm_medium=api_v3_business_search&utm_source=pzvBKuEUl0Vl1jtHQqJaog", "review_count": 4, "categories": [{"alias": "chinese", "title": "Chinese"}], "rating": 4.0, "coordinates": {"latitude": 41.7983563989401, "longitude": -71.9049898535013}, "transactions": ["delivery"], "location": {"address1": "520 Providence Rd", "address2": "", "address3": "", "city": "Danielson", "zip_code": "06239", "country": "US", "state": "CT", "display_address": ["520 Providence Rd", "Danielson, CT 06239"]}, "phone": "+18607799699", "display_phone": "(860) 779-9699", "distance": 18246.77085530234}, {"id": "ZqhRQK925I7dP8F0n5oGvw", "alias": "famous-pizza-of-west-warwick-west-warwick-3", "name": "Famous Pizza Of West Warwick", "image_url": "https://s3-media4.fl.yelpcdn.com/bphoto/RXbBSv0Htwd6byXoG1pJBw/o.jpg", "is_closed": false, "url": "https://www.yelp.com/biz/famous-pizza-of-west-warwick-west-warwick-3?adjust_creative=pzvBKuEUl0Vl1jtHQqJaog&utm_campaign=yelp_api_v3&utm_medium=api_v3_business_search&utm_source=pzvBKuEUl0Vl1jtHQqJaog", "review_count": 60, "categories": [{"alias": "pizza", "title": "Pizza"}, {"alias": "sandwiches", "title": "Sandwiches"}, {"alias": "fishnchips", "title": "Fish & Chips"}], "rating": 4.0, "coordinates": {"latitude": 41.6827072, "longitude": -71.5247419}, "transactions": ["delivery"], "price": "$$", "location": {"address1": "1738 Main St", "address2": null, "address3": "", "city": "West Warwick", "zip_code": "02893", "country": "US", "state": "RI", "display_address": ["1738 Main St", "West Warwick, RI 02893"]}, "phone": "+14018286994", "display_phone": "(401) 828-6994", "distance": 16825.072428164345}, {"id": "iQERhkvJV4uYBXfi6Yw0uQ", "alias": "cuozzos-pizza-and-restaurant-north-scituate", "name": "Cuozzo's Pizza & Restaurant", "image_url": "https://s3-media1.fl.yelpcdn.com/bphoto/ACnmvmOFUnHUOQR3vM8sfw/o.jpg", "is_closed": false, "url": "https://www.yelp.com/biz/cuozzos-pizza-and-restaurant-north-scituate?adjust_creative=pzvBKuEUl0Vl1jtHQqJaog&utm_campaign=yelp_api_v3&utm_medium=api_v3_business_search&utm_source=pzvBKuEUl0Vl1jtHQqJaog", "review_count": 27, "categories": [{"alias": "pizza", "title": "Pizza"}], "rating": 4.0, "coordinates": {"latitude": 41.836267, "longitude": -71.574671}, "transactions": [], "price": "$$", "location": {"address1": "27 Village Plaza Way", "address2": "", "address3": "", "city": "North Scituate", "zip_code": "02857", "country": "US", "state": "RI", "display_address": ["27 Village Plaza Way", "North Scituate, RI 02857"]}, "phone": "+14019343040", "display_phone": "(401) 934-3040", "distance": 20432.988888331693}, {"id": "Q3mqox1cSd9dc8H7jxR5Vw", "alias": "rick-and-dees-restaurant-coventry-2", "name": "Rick & Dee's Restaurant", "image_url": "https://s3-media4.fl.yelpcdn.com/bphoto/OaNmJmliF6KY776gsfrtMQ/o.jpg", "is_closed": false, "url": "https://www.yelp.com/biz/rick-and-dees-restaurant-coventry-2?adjust_creative=pzvBKuEUl0Vl1jtHQqJaog&utm_campaign=yelp_api_v3&utm_medium=api_v3_business_search&utm_source=pzvBKuEUl0Vl1jtHQqJaog", "review_count": 27, "categories": [{"alias": "cafes", "title": "Cafes"}, {"alias": "diners", "title": "Diners"}, {"alias": "breakfast_brunch", "title": "Breakfast & Brunch"}], "rating": 4.0, "coordinates": {"latitude": 41.692641, "longitude": -71.557161}, "transactions": ["delivery"], "price": "$", "location": {"address1": "17 Knotty Oak Rd", "address2": "", "address3": "", "city": "Coventry", "zip_code": "02816", "country": "US", "state": "RI", "display_address": ["17 Knotty Oak Rd", "Coventry, RI 02816"]}, "phone": "+14018283732", "display_phone": "(401) 828-3732", "distance": 14090.169371739363}, {"id": "brqF8SN2uMnByD-BV-wevw", "alias": "daybreaks-diner-plainfield", "name": "Daybreaks Diner", "image_url": "https://s3-media2.fl.yelpcdn.com/bphoto/MZEH6kg4XmdEb9ChbM4Mlw/o.jpg", "is_closed": false, "url": "https://www.yelp.com/biz/daybreaks-diner-plainfield?adjust_creative=pzvBKuEUl0Vl1jtHQqJaog&utm_campaign=yelp_api_v3&utm_medium=api_v3_business_search&utm_source=pzvBKuEUl0Vl1jtHQqJaog", "review_count": 20, "categories": [{"alias": "diners", "title": "Diners"}], "rating": 4.0, "coordinates": {"latitude": 41.67967, "longitude": -71.91922}, "transactions": [], "price": "$", "location": {"address1": "43 Railroad Ave", "address2": null, "address3": null, "city": "Plainfield", "zip_code": "06374", "country": "US", "state": "CT", "display_address": ["43 Railroad Ave", "Plainfield, CT 06374"]}, "phone": "+18605645499", "display_phone": "(860) 564-5499", "distance": 16023.148874656692}, {"id": "1NmMgZgohbeZXz4HaXQs8Q", "alias": "brick-and-basil-wood-fired-pizza-yantic", "name": "Brick & Basil Wood Fired Pizza", "image_url": "https://s3-media4.fl.yelpcdn.com/bphoto/vco2AInCtXdaQDmc8gZSZA/o.jpg", "is_closed": false, "url": "https://www.yelp.com/biz/brick-and-basil-wood-fired-pizza-yantic?adjust_creative=pzvBKuEUl0Vl1jtHQqJaog&utm_campaign=yelp_api_v3&utm_medium=api_v3_business_search&utm_source=pzvBKuEUl0Vl1jtHQqJaog", "review_count": 107, "categories": [{"alias": "foodtrucks", "title": "Food Trucks"}, {"alias": "pizza", "title": "Pizza"}], "rating": 4.5, "coordinates": {"latitude": 41.55742, "longitude": -72.11517}, "transactions": ["delivery"], "price": "$$", "location": {"address1": "276 W Town St", "address2": null, "address3": "", "city": "Yantic", "zip_code": "06360", "country": "US", "state": "CT", "display_address": ["276 W Town St", "Yantic, CT 06360"]}, "phone": "+18608899663", "display_phone": "(860) 889-9663", "distance": 35556.972857235276}, {"id": "O0YbXvDdLCfJ1gov-lcHFQ", "alias": "99-restaurants-dayville-3", "name": "99 Restaurants", "image_url": "https://s3-media2.fl.yelpcdn.com/bphoto/LIfOvGNR4XCGAU-EvIruNg/o.jpg", "is_closed": false, "url": "https://www.yelp.com/biz/99-restaurants-dayville-3?adjust_creative=pzvBKuEUl0Vl1jtHQqJaog&utm_campaign=yelp_api_v3&utm_medium=api_v3_business_search&utm_source=pzvBKuEUl0Vl1jtHQqJaog", "review_count": 53, "categories": [{"alias": "pubs", "title": "Pubs"}, {"alias": "tradamerican", "title": "American (Traditional)"}], "rating": 3.0, "coordinates": {"latitude": 41.8421873, "longitude": -71.8825503}, "transactions": [], "price": "$$", "location": {"address1": "1068 Killingly Commons Dr", "address2": null, "address3": null, "city": "Dayville", "zip_code": "06241", "country": "US", "state": "CT", "display_address": ["1068 Killingly Commons Dr", "Dayville, CT 06241"]}, "phone": "+18607743399", "display_phone": "(860) 774-3399", "distance": 21119.116378909843}, {"id": "rc7icnund_mtQnvarCIhgg", "alias": "pizza-king-dayville", "name": "Pizza King", "image_url": "https://s3-media3.fl.yelpcdn.com/bphoto/flElnn2IaXuZbgMnOaqE_g/o.jpg", "is_closed": false, "url": "https://www.yelp.com/biz/pizza-king-dayville?adjust_creative=pzvBKuEUl0Vl1jtHQqJaog&utm_campaign=yelp_api_v3&utm_medium=api_v3_business_search&utm_source=pzvBKuEUl0Vl1jtHQqJaog", "review_count": 35, "categories": [{"alias": "pizza", "title": "Pizza"}], "rating": 3.5, "coordinates": {"latitude": 41.8183073309754, "longitude": -71.7952264733526}, "transactions": [], "price": "$$", "location": {"address1": "430 Ledge Rd", "address2": "", "address3": "", "city": "Dayville", "zip_code": "06241", "country": "US", "state": "CT", "display_address": ["430 Ledge Rd", "Dayville, CT 06241"]}, "phone": "+18607748221", "display_phone": "(860) 774-8221", "distance": 15158.931308940557}, {"id": "v6v4QHrH2DDYC-0S4Y7clg", "alias": "china-star-coventry", "name": "China Star", "image_url": "https://s3-media3.fl.yelpcdn.com/bphoto/buHJuhAKLmU9t79sNfFFHA/o.jpg", "is_closed": false, "url": "https://www.yelp.com/biz/china-star-coventry?adjust_creative=pzvBKuEUl0Vl1jtHQqJaog&utm_campaign=yelp_api_v3&utm_medium=api_v3_business_search&utm_source=pzvBKuEUl0Vl1jtHQqJaog", "review_count": 7, "categories": [{"alias": "chinese", "title": "Chinese"}], "rating": 2.5, "coordinates": {"latitude": 41.6799255514718, "longitude": -71.5751858933867}, "transactions": ["delivery"], "price": "$", "location": {"address1": "1028 Tiogue Ave", "address2": "", "address3": "", "city": "Coventry", "zip_code": "02816", "country": "US", "state": "RI", "display_address": ["1028 Tiogue Ave", "Coventry, RI 02816"]}, "phone": "+14018283127", "display_phone": "(401) 828-3127", "distance": 12527.26947992717}, {"id": "lsSq76p-Q1lLzbyha12eKw", "alias": "riverview-pizza-restaurant-moosup", "name": "Riverview Pizza Restaurant", "image_url": "https://s3-media3.fl.yelpcdn.com/bphoto/Frm9M8sbEpHzFfWW96YQIw/o.jpg", "is_closed": false, "url": "https://www.yelp.com/biz/riverview-pizza-restaurant-moosup?adjust_creative=pzvBKuEUl0Vl1jtHQqJaog&utm_campaign=yelp_api_v3&utm_medium=api_v3_business_search&utm_source=pzvBKuEUl0Vl1jtHQqJaog", "review_count": 3, "categories": [{"alias": "pizza", "title": "Pizza"}], "rating": 2.0, "coordinates": {"latitude": 41.7190244, "longitude": -71.8629816}, "transactions": ["delivery"], "location": {"address1": "632 N Main St", "address2": "", "address3": "", "city": "Moosup", "zip_code": "06354", "country": "US", "state": "CT", "display_address": ["632 N Main St", "Moosup, CT 06354"]}, "phone": "+18605643837", "display_phone": "(860) 564-3837", "distance": 11687.070422838271}, {"id": "NxdCuo4m0HOcee6FfoogHw", "alias": "ferruccis-new-york-system-west-warwick", "name": "Ferrucci's New York System", "image_url": "https://s3-media1.fl.yelpcdn.com/bphoto/DczhztRB95ZOc2ahymvt-g/o.jpg", "is_closed": false, "url": "https://www.yelp.com/biz/ferruccis-new-york-system-west-warwick?adjust_creative=pzvBKuEUl0Vl1jtHQqJaog&utm_campaign=yelp_api_v3&utm_medium=api_v3_business_search&utm_source=pzvBKuEUl0Vl1jtHQqJaog", "review_count": 37, "categories": [{"alias": "tradamerican", "title": "American (Traditional)"}], "rating": 4.5, "coordinates": {"latitude": 41.7044792, "longitude": -71.5238724}, "transactions": ["delivery"], "price": "$", "location": {"address1": "1246 Main St", "address2": "", "address3": "", "city": "West Warwick", "zip_code": "02893", "country": "US", "state": "RI", "display_address": ["1246 Main St", "West Warwick, RI 02893"]}, "phone": "+14018219849", "display_phone": "(401) 821-9849", "distance": 16916.970567452754}, {"id": "kwf_J_u0peu0a6tt6j60LQ", "alias": "enjoy-restaurant-west-warwick", "name": "Enjoy Restaurant", "image_url": "https://s3-media2.fl.yelpcdn.com/bphoto/0U6TDLo5nw4flJ5h4CsNkg/o.jpg", "is_closed": false, "url": "https://www.yelp.com/biz/enjoy-restaurant-west-warwick?adjust_creative=pzvBKuEUl0Vl1jtHQqJaog&utm_campaign=yelp_api_v3&utm_medium=api_v3_business_search&utm_source=pzvBKuEUl0Vl1jtHQqJaog", "review_count": 1, "categories": [{"alias": "breakfast_brunch", "title": "Breakfast & Brunch"}, {"alias": "tradamerican", "title": "American (Traditional)"}], "rating": 2.0, "coordinates": {"latitude": 41.716938, "longitude": -71.523637}, "transactions": [], "location": {"address1": "943 Main St", "address2": "", "address3": null, "city": "West Warwick", "zip_code": "02893", "country": "US", "state": "RI", "display_address": ["943 Main St", "West Warwick, RI 02893"]}, "phone": "+14013208063", "display_phone": "(401) 320-8063", "distance": 17110.773578923567}, {"id": "Vg2zmPYCyuj30YFlpzxYHQ", "alias": "applebees-grill-bar-coventry-2", "name": "Applebee's Grill + Bar", "image_url": "https://s3-media4.fl.yelpcdn.com/bphoto/MRc2jBUKL1DVfRklGmOzEw/o.jpg", "is_closed": false, "url": "https://www.yelp.com/biz/applebees-grill-bar-coventry-2?adjust_creative=pzvBKuEUl0Vl1jtHQqJaog&utm_campaign=yelp_api_v3&utm_medium=api_v3_business_search&utm_source=pzvBKuEUl0Vl1jtHQqJaog", "review_count": 60, "categories": [{"alias": "sportsbars", "title": "Sports Bars"}, {"alias": "burgers", "title": "Burgers"}, {"alias": "tradamerican", "title": "American (Traditional)"}], "rating": 3.0, "coordinates": {"latitude": 41.662083, "longitude": -71.546476}, "transactions": ["delivery"], "price": "$$", "location": {"address1": "830 Centre Of New England Blvd", "address2": "", "address3": "", "city": "Coventry", "zip_code": "02816", "country": "US", "state": "RI", "display_address": ["830 Centre Of New England Blvd", "Coventry, RI 02816"]}, "phone": "+14018260057", "display_phone": "(401) 826-0057", "distance": 15352.825602152809}, {"id": "Oy779ydTRRhReTcSkq0M5A", "alias": "gels-kitchen-west-warwick", "name": "Gel's Kitchen", "image_url": "https://s3-media3.fl.yelpcdn.com/bphoto/R2grCSbF49tlVaACiiwKog/o.jpg", "is_closed": false, "url": "https://www.yelp.com/biz/gels-kitchen-west-warwick?adjust_creative=pzvBKuEUl0Vl1jtHQqJaog&utm_campaign=yelp_api_v3&utm_medium=api_v3_business_search&utm_source=pzvBKuEUl0Vl1jtHQqJaog", "review_count": 100, "categories": [{"alias": "breakfast_brunch", "title": "Breakfast & Brunch"}], "rating": 4.0, "coordinates": {"latitude": 41.68293, "longitude": -71.52539}, "transactions": ["delivery"], "price": "$", "location": {"address1": "1745 Main St", "address2": "", "address3": "", "city": "West Warwick", "zip_code": "02893", "country": "US", "state": "RI", "display_address": ["1745 Main St", "West Warwick, RI 02893"]}, "phone": "+14018217285", "display_phone": "(401) 821-7285", "distance": 16698.395208785547}, {"id": "DNiQayVGTSbmGxlUuVzgPw", "alias": "dels-lemonade-coventry", "name": "Del's Lemonade", "image_url": "https://s3-media1.fl.yelpcdn.com/bphoto/vD7A_1VDDFJuqOyCsePWUA/o.jpg", "is_closed": false, "url": "https://www.yelp.com/biz/dels-lemonade-coventry?adjust_creative=pzvBKuEUl0Vl1jtHQqJaog&utm_campaign=yelp_api_v3&utm_medium=api_v3_business_search&utm_source=pzvBKuEUl0Vl1jtHQqJaog", "review_count": 11, "categories": [{"alias": "newamerican", "title": "American (New)"}], "rating": 4.5, "coordinates": {"latitude": 41.68535, "longitude": -71.54829}, "transactions": [], "price": "$", "location": {"address1": "465 Tiogue Ave", "address2": "", "address3": "", "city": "Coventry", "zip_code": "02816", "country": "US", "state": "RI", "display_address": ["465 Tiogue Ave", "Coventry, RI 02816"]}, "phone": "+14018220334", "display_phone": "(401) 822-0334", "distance": 14845.325797811081}, {"id": "ZWBP1rGxYoY1IGFf-RYeOw", "alias": "gentleman-farmer-restaurant-and-pizza-north-scituate", "name": "Gentleman Farmer Restaurant & Pizza", "image_url": "https://s3-media3.fl.yelpcdn.com/bphoto/DKW5_0KV073XFcVkCGL8oA/o.jpg", "is_closed": false, "url": "https://www.yelp.com/biz/gentleman-farmer-restaurant-and-pizza-north-scituate?adjust_creative=pzvBKuEUl0Vl1jtHQqJaog&utm_campaign=yelp_api_v3&utm_medium=api_v3_business_search&utm_source=pzvBKuEUl0Vl1jtHQqJaog", "review_count": 4, "categories": [{"alias": "pizza", "title": "Pizza"}], "rating": 3.0, "coordinates": {"latitude": 41.833351, "longitude": -71.579368}, "transactions": [], "location": {"address1": "50 Danielson Pike", "address2": "", "address3": "", "city": "North Scituate", "zip_code": "02857", "country": "US", "state": "RI", "display_address": ["50 Danielson Pike", "North Scituate, RI 02857"]}, "phone": "+14016477774", "display_phone": "(401) 647-7774", "distance": 19937.496888999958}, {"id": "RORcDoQLZ1l2r2cA9KovHA", "alias": "exeter-town-pizza-exeter", "name": "Exeter Town Pizza", "image_url": "https://s3-media3.fl.yelpcdn.com/bphoto/a6p5egetrd8hEAeegZzbQA/o.jpg", "is_closed": false, "url": "https://www.yelp.com/biz/exeter-town-pizza-exeter?adjust_creative=pzvBKuEUl0Vl1jtHQqJaog&utm_campaign=yelp_api_v3&utm_medium=api_v3_business_search&utm_source=pzvBKuEUl0Vl1jtHQqJaog", "review_count": 17, "categories": [{"alias": "pizza", "title": "Pizza"}], "rating": 3.5, "coordinates": {"latitude": 41.545894, "longitude": -71.533206}, "transactions": [], "price": "$$", "location": {"address1": "393 S County Trl", "address2": "", "address3": "", "city": "Exeter", "zip_code": "02822", "country": "US", "state": "RI", "display_address": ["393 S County Trl", "Exeter, RI 02822"]}, "phone": "+14012942393", "display_phone": "(401) 294-2393", "distance": 22865.92102336523}, {"id": "5eMxaIRXjDJwIFpItdUEkg", "alias": "filippous-twisted-pizza-coventry-2", "name": "Filippou's Twisted Pizza", "image_url": "https://s3-media2.fl.yelpcdn.com/bphoto/noeMBbfqrTWGue3MDRLDuQ/o.jpg", "is_closed": false, "url": "https://www.yelp.com/biz/filippous-twisted-pizza-coventry-2?adjust_creative=pzvBKuEUl0Vl1jtHQqJaog&utm_campaign=yelp_api_v3&utm_medium=api_v3_business_search&utm_source=pzvBKuEUl0Vl1jtHQqJaog", "review_count": 64, "categories": [{"alias": "pizza", "title": "Pizza"}, {"alias": "italian", "title": "Italian"}, {"alias": "greek", "title": "Greek"}], "rating": 2.5, "coordinates": {"latitude": 41.6804008, "longitude": -71.5721207}, "transactions": ["delivery"], "price": "$$", "location": {"address1": "915 Tiogue Ave", "address2": "", "address3": "", "city": "Coventry", "zip_code": "02816", "country": "US", "state": "RI", "display_address": ["915 Tiogue Ave", "Coventry, RI 02816"]}, "phone": "+14016153684", "display_phone": "(401) 615-3684", "distance": 13000.21341244181}, {"id": "lhCX4f2XMEEyzXgawM7x1w", "alias": "no-1-chinese-restaurant-brooklyn-7", "name": "No 1 Chinese Restaurant", "image_url": "https://s3-media3.fl.yelpcdn.com/bphoto/nmgHnhqq7mhDcx0XPSv0aQ/o.jpg", "is_closed": false, "url": "https://www.yelp.com/biz/no-1-chinese-restaurant-brooklyn-7?adjust_creative=pzvBKuEUl0Vl1jtHQqJaog&utm_campaign=yelp_api_v3&utm_medium=api_v3_business_search&utm_source=pzvBKuEUl0Vl1jtHQqJaog", "review_count": 10, "categories": [{"alias": "chinese", "title": "Chinese"}], "rating": 3.5, "coordinates": {"latitude": 41.7997, "longitude": -71.89907}, "transactions": ["delivery"], "price": "$", "location": {"address1": "593 Providence Rd", "address2": "", "address3": "", "city": "Brooklyn", "zip_code": "06234", "country": "US", "state": "CT", "display_address": ["593 Providence Rd", "Brooklyn, CT 06234"]}, "phone": "+18607748388", "display_phone": "(860) 774-8388", "distance": 18628.2588934132}, {"id": "PXt81JfBBnflshIUUFt2sw", "alias": "jade-garden-chinese-restaurant-danielson", "name": "Jade Garden Chinese Restaurant", "image_url": "https://s3-media4.fl.yelpcdn.com/bphoto/N6h_1iaQc44_ZX36ezY8MA/o.jpg", "is_closed": false, "url": "https://www.yelp.com/biz/jade-garden-chinese-restaurant-danielson?adjust_creative=pzvBKuEUl0Vl1jtHQqJaog&utm_campaign=yelp_api_v3&utm_medium=api_v3_business_search&utm_source=pzvBKuEUl0Vl1jtHQqJaog", "review_count": 25, "categories": [{"alias": "chinese", "title": "Chinese"}], "rating": 3.0, "coordinates": {"latitude": 41.8207244873047, "longitude": -71.8783493041992}, "transactions": ["delivery"], "price": "$$", "location": {"address1": "749 N Main St", "address2": "", "address3": "", "city": "Danielson", "zip_code": "06239", "country": "US", "state": "CT", "display_address": ["749 N Main St", "Danielson, CT 06239"]}, "phone": "+18607747100", "display_phone": "(860) 774-7100", "distance": 19055.05045375159}, {"id": "EbArtnTfe-gV2O47ZJZoWQ", "alias": "aloha-pizza-west-warwick", "name": "Aloha Pizza", "image_url": "https://s3-media3.fl.yelpcdn.com/bphoto/2FW0DHTiv95hb6spGUM_Yg/o.jpg", "is_closed": false, "url": "https://www.yelp.com/biz/aloha-pizza-west-warwick?adjust_creative=pzvBKuEUl0Vl1jtHQqJaog&utm_campaign=yelp_api_v3&utm_medium=api_v3_business_search&utm_source=pzvBKuEUl0Vl1jtHQqJaog", "review_count": 25, "categories": [{"alias": "pizza", "title": "Pizza"}], "rating": 4.0, "coordinates": {"latitude": 41.70076, "longitude": -71.52734}, "transactions": ["delivery"], "price": "$$", "location": {"address1": "126 Roberts St", "address2": "", "address3": "", "city": "West Warwick", "zip_code": "02893", "country": "US", "state": "RI", "display_address": ["126 Roberts St", "West Warwick, RI 02893"]}, "phone": "+14018214010", "display_phone": "(401) 821-4010", "distance": 16561.409996530274}, {"id": "_DAFln0Oz6DVxSnYeK2LEg", "alias": "depetrillos-pizza-and-bakery-coventry", "name": "Depetrillo's Pizza & Bakery", "image_url": "https://s3-media2.fl.yelpcdn.com/bphoto/qW76wpQ6naCrGEob3dP8tA/o.jpg", "is_closed": false, "url": "https://www.yelp.com/biz/depetrillos-pizza-and-bakery-coventry?adjust_creative=pzvBKuEUl0Vl1jtHQqJaog&utm_campaign=yelp_api_v3&utm_medium=api_v3_business_search&utm_source=pzvBKuEUl0Vl1jtHQqJaog", "review_count": 22, "categories": [{"alias": "pizza", "title": "Pizza"}], "rating": 4.0, "coordinates": {"latitude": 41.6818447, "longitude": -71.5643141}, "transactions": ["delivery"], "price": "$", "location": {"address1": "797 Tiogue Ave", "address2": "", "address3": "", "city": "Coventry", "zip_code": "02816", "country": "US", "state": "RI", "display_address": ["797 Tiogue Ave", "Coventry, RI 02816"]}, "phone": "+14018284300", "display_phone": "(401) 828-4300", "distance": 13541.500407617865}, {"id": "oXi5uZqBHaRN-9LfbTz4iw", "alias": "solarcart-cafe-wakefield", "name": "SolarCart Cafe", "image_url": "https://s3-media3.fl.yelpcdn.com/bphoto/2jnm4N-kA74C1G385wcvjw/o.jpg", "is_closed": false, "url": "https://www.yelp.com/biz/solarcart-cafe-wakefield?adjust_creative=pzvBKuEUl0Vl1jtHQqJaog&utm_campaign=yelp_api_v3&utm_medium=api_v3_business_search&utm_source=pzvBKuEUl0Vl1jtHQqJaog", "review_count": 5, "categories": [{"alias": "foodtrucks", "title": "Food Trucks"}, {"alias": "cafes", "title": "Cafes"}], "rating": 5.0, "coordinates": {"latitude": 41.3783548485934, "longitude": -71.5497396899248}, "transactions": [], "location": {"address1": "344 Main St", "address2": "", "address3": null, "city": "Wakefield", "zip_code": "02879", "country": "US", "state": "RI", "display_address": ["344 Main St", "Wakefield, RI 02879"]}, "phone": "+14017936041", "display_phone": "(401) 793-6041", "distance": 37851.487819065296}, {"id": "6TV0UD9j0etjrw3wx22uDQ", "alias": "pjs-diner-coventry", "name": "Pj's Diner", "image_url": "https://s3-media2.fl.yelpcdn.com/bphoto/3LU86BrEI8csc1FUcg8FVA/o.jpg", "is_closed": false, "url": "https://www.yelp.com/biz/pjs-diner-coventry?adjust_creative=pzvBKuEUl0Vl1jtHQqJaog&utm_campaign=yelp_api_v3&utm_medium=api_v3_business_search&utm_source=pzvBKuEUl0Vl1jtHQqJaog", "review_count": 17, "categories": [{"alias": "restaurants", "title": "Restaurants"}], "rating": 3.0, "coordinates": {"latitude": 41.68383, "longitude": -71.55507}, "transactions": [], "price": "$", "location": {"address1": "608 Tiogue Ave", "address2": "", "address3": "", "city": "Coventry", "zip_code": "02816", "country": "US", "state": "RI", "display_address": ["608 Tiogue Ave", "Coventry, RI 02816"]}, "phone": "+14018237850", "display_phone": "(401) 823-7850", "distance": 14313.1040319895}, {"id": "ugz_kTNR87vuXvSwTjBECg", "alias": "paradise-restaurant-plainfield", "name": "Paradise Restaurant", "image_url": "", "is_closed": false, "url": "https://www.yelp.com/biz/paradise-restaurant-plainfield?adjust_creative=pzvBKuEUl0Vl1jtHQqJaog&utm_campaign=yelp_api_v3&utm_medium=api_v3_business_search&utm_source=pzvBKuEUl0Vl1jtHQqJaog", "review_count": 1, "categories": [{"alias": "newamerican", "title": "American (New)"}], "rating": 1.0, "coordinates": {"latitude": 41.6712, "longitude": -71.91429}, "transactions": [], "location": {"address1": "724 Norwich Rd", "address2": "", "address3": "", "city": "Plainfield", "zip_code": "06374", "country": "US", "state": "CT", "display_address": ["724 Norwich Rd", "Plainfield, CT 06374"]}, "phone": "+18605647785", "display_phone": "(860) 564-7785", "distance": 15715.768459420955}, {"id": "Rt1GaN8fCmq0lnshOMjL2Q", "alias": "bean-barn-ri-coventry", "name": "Bean Barn RI", "image_url": "https://s3-media1.fl.yelpcdn.com/bphoto/DiYgds-g-rV-djDqf4usBQ/o.jpg", "is_closed": false, "url": "https://www.yelp.com/biz/bean-barn-ri-coventry?adjust_creative=pzvBKuEUl0Vl1jtHQqJaog&utm_campaign=yelp_api_v3&utm_medium=api_v3_business_search&utm_source=pzvBKuEUl0Vl1jtHQqJaog", "review_count": 31, "categories": [{"alias": "coffee", "title": "Coffee & Tea"}, {"alias": "breakfast_brunch", "title": "Breakfast & Brunch"}], "rating": 4.5, "coordinates": {"latitude": 41.68431, "longitude": -71.55421}, "transactions": ["delivery"], "location": {"address1": "599 Tiogue Ave", "address2": null, "address3": "", "city": "Coventry", "zip_code": "02816", "country": "US", "state": "RI", "display_address": ["599 Tiogue Ave", "Coventry, RI 02816"]}, "phone": "+14016152662", "display_phone": "(401) 615-2662", "distance": 14350.633671405232}, {"id": "sWQze3FJV9fT_z60LOkaYA", "alias": "johnnys-pizza-brooklyn", "name": "Johnny's Pizza", "image_url": "https://s3-media1.fl.yelpcdn.com/bphoto/l5k1MRakEIUk4Oh8dvmXtA/o.jpg", "is_closed": false, "url": "https://www.yelp.com/biz/johnnys-pizza-brooklyn?adjust_creative=pzvBKuEUl0Vl1jtHQqJaog&utm_campaign=yelp_api_v3&utm_medium=api_v3_business_search&utm_source=pzvBKuEUl0Vl1jtHQqJaog", "review_count": 32, "categories": [{"alias": "pizza", "title": "Pizza"}, {"alias": "sandwiches", "title": "Sandwiches"}], "rating": 4.5, "coordinates": {"latitude": 41.800492, "longitude": -71.8987}, "transactions": ["delivery"], "price": "$", "location": {"address1": "8 Day St", "address2": "", "address3": "", "city": "Brooklyn", "zip_code": "06234", "country": "US", "state": "CT", "display_address": ["8 Day St", "Brooklyn, CT 06234"]}, "phone": "+18607747289", "display_phone": "(860) 774-7289", "distance": 18693.395602248384}, {"id": "JIhRVJ4BAWPH9NZ0u-7Wzw", "alias": "flip-n-roll-fall-river", "name": "Flip N Roll", "image_url": "https://s3-media1.fl.yelpcdn.com/bphoto/A3l1k85peGnmCC17j-Bmhg/o.jpg", "is_closed": false, "url": "https://www.yelp.com/biz/flip-n-roll-fall-river?adjust_creative=pzvBKuEUl0Vl1jtHQqJaog&utm_campaign=yelp_api_v3&utm_medium=api_v3_business_search&utm_source=pzvBKuEUl0Vl1jtHQqJaog", "review_count": 1, "categories": [{"alias": "foodtrucks", "title": "Food Trucks"}, {"alias": "tradamerican", "title": "American (Traditional)"}, {"alias": "portuguese", "title": "Portuguese"}], "rating": 1.0, "coordinates": {"latitude": 41.68687, "longitude": -71.17062}, "transactions": [], "price": "$$", "location": {"address1": "", "address2": "", "address3": "", "city": "Fall River", "zip_code": "02724", "country": "US", "state": "MA", "display_address": ["Fall River, MA 02724"]}, "phone": "", "display_phone": "", "distance": 45872.833476623804}, {"id": "lyQtSwpdCp7ibPmtDBh0Aw", "alias": "ronzio-pizza-and-subs-west-warwick", "name": "Ronzio Pizza & Subs", "image_url": "https://s3-media4.fl.yelpcdn.com/bphoto/tL1YmSctZIKrRxksq0hsfw/o.jpg", "is_closed": false, "url": "https://www.yelp.com/biz/ronzio-pizza-and-subs-west-warwick?adjust_creative=pzvBKuEUl0Vl1jtHQqJaog&utm_campaign=yelp_api_v3&utm_medium=api_v3_business_search&utm_source=pzvBKuEUl0Vl1jtHQqJaog", "review_count": 15, "categories": [{"alias": "pizza", "title": "Pizza"}], "rating": 3.5, "coordinates": {"latitude": 41.7144495248795, "longitude": -71.5238982439041}, "transactions": ["delivery", "pickup"], "location": {"address1": "1013 Main St", "address2": null, "address3": null, "city": "West Warwick", "zip_code": "02893", "country": "US", "state": "RI", "display_address": ["1013 Main St", "West Warwick, RI 02893"]}, "phone": "+14015866020", "display_phone": "(401) 586-6020", "distance": 17038.045394557834}, {"id": "tqlA_83iMMRHuM6Myas54g", "alias": "cracker-barrel-old-country-store-coventry", "name": "Cracker Barrel Old Country Store", "image_url": "https://s3-media2.fl.yelpcdn.com/bphoto/DX_zg6vPSdndmCWtmO_XxQ/o.jpg", "is_closed": false, "url": "https://www.yelp.com/biz/cracker-barrel-old-country-store-coventry?adjust_creative=pzvBKuEUl0Vl1jtHQqJaog&utm_campaign=yelp_api_v3&utm_medium=api_v3_business_search&utm_source=pzvBKuEUl0Vl1jtHQqJaog", "review_count": 109, "categories": [{"alias": "breakfast_brunch", "title": "Breakfast & Brunch"}, {"alias": "southern", "title": "Southern"}, {"alias": "tradamerican", "title": "American (Traditional)"}], "rating": 3.5, "coordinates": {"latitude": 41.6610866832823, "longitude": -71.5464437755205}, "transactions": ["delivery"], "price": "$$", "location": {"address1": "825 Centre Of New England Blvd", "address2": "", "address3": "", "city": "Coventry", "zip_code": "02816", "country": "US", "state": "RI", "display_address": ["825 Centre Of New England Blvd", "Coventry, RI 02816"]}, "phone": "+14018278015", "display_phone": "(401) 827-8015", "distance": 15379.804908919332}, {"id": "yglYC8nevV5bHJ-z1mUGPA", "alias": "pizza-pizzazz-danielson", "name": "Pizza Pizzazz", "image_url": "https://s3-media3.fl.yelpcdn.com/bphoto/AhHu17MqimW-mRIa4dZZ_g/o.jpg", "is_closed": false, "url": "https://www.yelp.com/biz/pizza-pizzazz-danielson?adjust_creative=pzvBKuEUl0Vl1jtHQqJaog&utm_campaign=yelp_api_v3&utm_medium=api_v3_business_search&utm_source=pzvBKuEUl0Vl1jtHQqJaog", "review_count": 17, "categories": [{"alias": "pizza", "title": "Pizza"}], "rating": 4.0, "coordinates": {"latitude": 41.805036, "longitude": -71.883569}, "transactions": ["delivery"], "price": "$", "location": {"address1": "136 Main St", "address2": null, "address3": null, "city": "Danielson", "zip_code": "06239", "country": "US", "state": "CT", "display_address": ["136 Main St", "Danielson, CT 06239"]}, "phone": "+18607748500", "display_phone": "(860) 774-8500", "distance": 18087.60737580835}, {"id": "QhLUmLlyYSZ8RNuw3YgWvg", "alias": "georges-galley-danielson", "name": "George's Galley", "image_url": "https://s3-media4.fl.yelpcdn.com/bphoto/96nZzhEvgRCvoqXNicgDYQ/o.jpg", "is_closed": false, "url": "https://www.yelp.com/biz/georges-galley-danielson?adjust_creative=pzvBKuEUl0Vl1jtHQqJaog&utm_campaign=yelp_api_v3&utm_medium=api_v3_business_search&utm_source=pzvBKuEUl0Vl1jtHQqJaog", "review_count": 8, "categories": [{"alias": "tradamerican", "title": "American (Traditional)"}, {"alias": "breakfast_brunch", "title": "Breakfast & Brunch"}], "rating": 3.0, "coordinates": {"latitude": 41.80369, "longitude": -71.88563}, "transactions": ["delivery"], "price": "$", "location": {"address1": "55 Main St", "address2": "", "address3": "", "city": "Danielson", "zip_code": "06239", "country": "US", "state": "CT", "display_address": ["55 Main St", "Danielson, CT 06239"]}, "phone": "+18607747111", "display_phone": "(860) 774-7111", "distance": 18110.837732393065}, {"id": "Tb4xI6F3xzpw9e7NeuZHOQ", "alias": "subway-coventry-10", "name": "Subway", "image_url": "https://s3-media3.fl.yelpcdn.com/bphoto/OHti8bc8yRdHd9-sZdSn9Q/o.jpg", "is_closed": false, "url": "https://www.yelp.com/biz/subway-coventry-10?adjust_creative=pzvBKuEUl0Vl1jtHQqJaog&utm_campaign=yelp_api_v3&utm_medium=api_v3_business_search&utm_source=pzvBKuEUl0Vl1jtHQqJaog", "review_count": 3, "categories": [{"alias": "sandwiches", "title": "Sandwiches"}], "rating": 2.0, "coordinates": {"latitude": 41.6630882654392, "longitude": -71.602607919397}, "transactions": [], "price": "$", "location": {"address1": "2405 Nooseneck Hill Rd", "address2": "", "address3": "", "city": "Coventry", "zip_code": "02816", "country": "US", "state": "RI", "display_address": ["2405 Nooseneck Hill Rd", "Coventry, RI 02816"]}, "phone": "+14013978800", "display_phone": "(401) 397-8800", "distance": 10813.494819464984}, {"id": "J-PqwHN5_NiAibd6OPijrA", "alias": "zoes-restaurant-danielson", "name": "Zoe's Restaurant", "image_url": "https://s3-media2.fl.yelpcdn.com/bphoto/XOibuvk6wS4LIgDuML9O8A/o.jpg", "is_closed": false, "url": "https://www.yelp.com/biz/zoes-restaurant-danielson?adjust_creative=pzvBKuEUl0Vl1jtHQqJaog&utm_campaign=yelp_api_v3&utm_medium=api_v3_business_search&utm_source=pzvBKuEUl0Vl1jtHQqJaog", "review_count": 26, "categories": [{"alias": "pizza", "title": "Pizza"}, {"alias": "newamerican", "title": "American (New)"}], "rating": 3.0, "coordinates": {"latitude": 41.761235, "longitude": -71.900389}, "transactions": ["delivery", "pickup"], "price": "$$", "location": {"address1": "597 Putnam Rd", "address2": null, "address3": null, "city": "Danielson", "zip_code": "06239", "country": "US", "state": "CT", "display_address": ["597 Putnam Rd", "Danielson, CT 06239"]}, "phone": "+18607740191", "display_phone": "(860) 774-0191", "distance": 16328.376534604888}, {"id": "zp_E_CF7W50c3qPlCAjKXw", "alias": "debs-place-danielson", "name": "Deb's Place", "image_url": "https://s3-media2.fl.yelpcdn.com/bphoto/YTjkB0hwWsWMem2DcMfCEg/o.jpg", "is_closed": false, "url": "https://www.yelp.com/biz/debs-place-danielson?adjust_creative=pzvBKuEUl0Vl1jtHQqJaog&utm_campaign=yelp_api_v3&utm_medium=api_v3_business_search&utm_source=pzvBKuEUl0Vl1jtHQqJaog", "review_count": 16, "categories": [{"alias": "breakfast_brunch", "title": "Breakfast & Brunch"}, {"alias": "tradamerican", "title": "American (Traditional)"}], "rating": 4.5, "coordinates": {"latitude": 41.805405, "longitude": -71.883163}, "transactions": ["delivery"], "price": "$", "location": {"address1": "150 Main St", "address2": "", "address3": "", "city": "Danielson", "zip_code": "06239", "country": "US", "state": "CT", "display_address": ["150 Main St", "Danielson, CT 06239"]}, "phone": "+18607799797", "display_phone": "(860) 779-9797", "distance": 18091.580198950887}, {"id": "nVKQURDEiZbXn8PdT0bO6Q", "alias": "ye-express-west-warwick", "name": "Ye Express", "image_url": "https://s3-media3.fl.yelpcdn.com/bphoto/5TnZAeH7HtWOiCSyNu4yvQ/o.jpg", "is_closed": false, "url": "https://www.yelp.com/biz/ye-express-west-warwick?adjust_creative=pzvBKuEUl0Vl1jtHQqJaog&utm_campaign=yelp_api_v3&utm_medium=api_v3_business_search&utm_source=pzvBKuEUl0Vl1jtHQqJaog", "review_count": 113, "categories": [{"alias": "japanese", "title": "Japanese"}, {"alias": "chinese", "title": "Chinese"}, {"alias": "asianfusion", "title": "Asian Fusion"}], "rating": 4.0, "coordinates": {"latitude": 41.7084750824928, "longitude": -71.5226218476892}, "transactions": ["delivery"], "price": "$", "location": {"address1": "1117 Main St", "address2": "", "address3": "", "city": "West Warwick", "zip_code": "02893", "country": "US", "state": "RI", "display_address": ["1117 Main St", "West Warwick, RI 02893"]}, "phone": "+14016151920", "display_phone": "(401) 615-1920", "distance": 17067.574451949513}, {"id": "REY0iMn6kVUxwlGDDsvgBg", "alias": "wauregan-pizza-wauregan", "name": "Wauregan Pizza", "image_url": "", "is_closed": false, "url": "https://www.yelp.com/biz/wauregan-pizza-wauregan?adjust_creative=pzvBKuEUl0Vl1jtHQqJaog&utm_campaign=yelp_api_v3&utm_medium=api_v3_business_search&utm_source=pzvBKuEUl0Vl1jtHQqJaog", "review_count": 3, "categories": [{"alias": "pizza", "title": "Pizza"}, {"alias": "sandwiches", "title": "Sandwiches"}, {"alias": "salad", "title": "Salad"}], "rating": 4.5, "coordinates": {"latitude": 41.7457594, "longitude": -71.9119546}, "transactions": ["delivery", "pickup"], "location": {"address1": "66 Wauregan Rd", "address2": null, "address3": "", "city": "Wauregan", "zip_code": "06387", "country": "US", "state": "CT", "display_address": ["66 Wauregan Rd", "Wauregan, CT 06387"]}, "phone": "+18604129081", "display_phone": "(860) 412-9081", "distance": 16480.948392618786}, {"id": "scQfnnrAsJYnWxzfnBfOOQ", "alias": "granite-farm-restaurant-scituate", "name": "Granite Farm Restaurant", "image_url": "https://s3-media2.fl.yelpcdn.com/bphoto/aJTZtjyvKDif_K7NrDJaHA/o.jpg", "is_closed": false, "url": "https://www.yelp.com/biz/granite-farm-restaurant-scituate?adjust_creative=pzvBKuEUl0Vl1jtHQqJaog&utm_campaign=yelp_api_v3&utm_medium=api_v3_business_search&utm_source=pzvBKuEUl0Vl1jtHQqJaog", "review_count": 42, "categories": [{"alias": "breakfast_brunch", "title": "Breakfast & Brunch"}, {"alias": "sandwiches", "title": "Sandwiches"}, {"alias": "italian", "title": "Italian"}], "rating": 3.5, "coordinates": {"latitude": 41.8336226401221, "longitude": -71.579479649663}, "transactions": [], "price": "$$", "location": {"address1": "50 Danielson Pike", "address2": "", "address3": "", "city": "Scituate", "zip_code": "02857", "country": "US", "state": "RI", "display_address": ["50 Danielson Pike", "Scituate, RI 02857"]}, "phone": "+14016477774", "display_phone": "(401) 647-7774", "distance": 19955.889765895055}, {"id": "_EJtxuWrjWkZ-m_lxUtI3A", "alias": "la-cafe-west-warwick", "name": "LA Cafe", "image_url": "https://s3-media2.fl.yelpcdn.com/bphoto/Iu-iJdbEUKA7sZ6wFJTjjg/o.jpg", "is_closed": false, "url": "https://www.yelp.com/biz/la-cafe-west-warwick?adjust_creative=pzvBKuEUl0Vl1jtHQqJaog&utm_campaign=yelp_api_v3&utm_medium=api_v3_business_search&utm_source=pzvBKuEUl0Vl1jtHQqJaog", "review_count": 8, "categories": [{"alias": "cafes", "title": "Cafes"}, {"alias": "bars", "title": "Bars"}], "rating": 1.5, "coordinates": {"latitude": 41.70066, "longitude": -71.52865}, "transactions": ["delivery"], "location": {"address1": "245 Washington St", "address2": "", "address3": "", "city": "West Warwick", "zip_code": "02893", "country": "US", "state": "RI", "display_address": ["245 Washington St", "West Warwick, RI 02893"]}, "phone": "+14018276338", "display_phone": "(401) 827-6338", "distance": 16487.470791488453}, {"id": "1tn80OcwIrlzBDfupwa3_g", "alias": "classic-pizza-and-family-restaurant-brooklyn", "name": "Classic Pizza & Family Restaurant", "image_url": "https://s3-media2.fl.yelpcdn.com/bphoto/tCmar_GH1iQSBSW5LzYwbg/o.jpg", "is_closed": false, "url": "https://www.yelp.com/biz/classic-pizza-and-family-restaurant-brooklyn?adjust_creative=pzvBKuEUl0Vl1jtHQqJaog&utm_campaign=yelp_api_v3&utm_medium=api_v3_business_search&utm_source=pzvBKuEUl0Vl1jtHQqJaog", "review_count": 19, "categories": [{"alias": "pizza", "title": "Pizza"}, {"alias": "bbq", "title": "Barbeque"}, {"alias": "sandwiches", "title": "Sandwiches"}], "rating": 3.5, "coordinates": {"latitude": 41.799586, "longitude": -71.89863}, "transactions": ["delivery"], "price": "$$", "location": {"address1": "597 Providence Rd", "address2": null, "address3": null, "city": "Brooklyn", "zip_code": "06234", "country": "US", "state": "CT", "display_address": ["597 Providence Rd", "Brooklyn, CT 06234"]}, "phone": "+18607746333", "display_phone": "(860) 774-6333", "distance": 18596.242705554625}, {"id": "EE7njFFpg61PUC3dE4G4pQ", "alias": "taste-of-china-west-warwick", "name": "Taste of China", "image_url": "https://s3-media2.fl.yelpcdn.com/bphoto/9Q2qTB5txRKUafD3VNXI4g/o.jpg", "is_closed": false, "url": "https://www.yelp.com/biz/taste-of-china-west-warwick?adjust_creative=pzvBKuEUl0Vl1jtHQqJaog&utm_campaign=yelp_api_v3&utm_medium=api_v3_business_search&utm_source=pzvBKuEUl0Vl1jtHQqJaog", "review_count": 21, "categories": [{"alias": "chinese", "title": "Chinese"}], "rating": 3.0, "coordinates": {"latitude": 41.6835244874729, "longitude": -71.526377406221}, "transactions": ["delivery", "pickup"], "price": "$$", "location": {"address1": "1745 Main St", "address2": "", "address3": "", "city": "West Warwick", "zip_code": "02893", "country": "US", "state": "RI", "display_address": ["1745 Main St", "West Warwick, RI 02893"]}, "phone": "+14018239220", "display_phone": "(401) 823-9220", "distance": 16684.123007945913}, {"id": "xord9KsqI9veeA9lm7YFyw", "alias": "subway-plainfield-18", "name": "Subway", "image_url": "https://s3-media2.fl.yelpcdn.com/bphoto/0nNfScrbrVR68JljiDUx0Q/o.jpg", "is_closed": false, "url": "https://www.yelp.com/biz/subway-plainfield-18?adjust_creative=pzvBKuEUl0Vl1jtHQqJaog&utm_campaign=yelp_api_v3&utm_medium=api_v3_business_search&utm_source=pzvBKuEUl0Vl1jtHQqJaog", "review_count": 4, "categories": [{"alias": "sandwiches", "title": "Sandwiches"}], "rating": 3.0, "coordinates": {"latitude": 41.7539835860735, "longitude": -71.8770775013725}, "transactions": [], "price": "$", "location": {"address1": "I-395 Northbound", "address2": "Exits 89-90", "address3": "", "city": "Plainfield", "zip_code": "06374", "country": "US", "state": "CT", "display_address": ["I-395 Northbound", "Exits 89-90", "Plainfield, CT 06374"]}, "phone": "+18602300807", "display_phone": "(860) 230-0807", "distance": 14244.478992416918}, {"id": "eoQezWAAoMOGHXFWwFOYKw", "alias": "green-acres-cafe-johnston", "name": "Green Acres Cafe", "image_url": "https://s3-media1.fl.yelpcdn.com/bphoto/KFDVfjXZ7FeDxPf9mLhyYA/o.jpg", "is_closed": false, "url": "https://www.yelp.com/biz/green-acres-cafe-johnston?adjust_creative=pzvBKuEUl0Vl1jtHQqJaog&utm_campaign=yelp_api_v3&utm_medium=api_v3_business_search&utm_source=pzvBKuEUl0Vl1jtHQqJaog", "review_count": 26, "categories": [{"alias": "newamerican", "title": "American (New)"}, {"alias": "breakfast_brunch", "title": "Breakfast & Brunch"}, {"alias": "diners", "title": "Diners"}], "rating": 4.0, "coordinates": {"latitude": 41.793783, "longitude": -71.533695}, "transactions": ["delivery"], "price": "$", "location": {"address1": "2131 Plainfield Pike", "address2": "", "address3": "", "city": "Johnston", "zip_code": "02919", "country": "US", "state": "RI", "display_address": ["2131 Plainfield Pike", "Johnston, RI 02919"]}, "phone": "+14016545405", "display_phone": "(401) 654-5405", "distance": 19638.785875560166}, {"id": "iaMsPxpHooLTB1fn5sQhNQ", "alias": "dennys-coventry-2", "name": "Denny's", "image_url": "https://s3-media2.fl.yelpcdn.com/bphoto/KgfukAZdeAq1IdJQf-lLyA/o.jpg", "is_closed": false, "url": "https://www.yelp.com/biz/dennys-coventry-2?adjust_creative=pzvBKuEUl0Vl1jtHQqJaog&utm_campaign=yelp_api_v3&utm_medium=api_v3_business_search&utm_source=pzvBKuEUl0Vl1jtHQqJaog", "review_count": 56, "categories": [{"alias": "tradamerican", "title": "American (Traditional)"}, {"alias": "breakfast_brunch", "title": "Breakfast & Brunch"}, {"alias": "diners", "title": "Diners"}], "rating": 3.5, "coordinates": {"latitude": 41.6608978145257, "longitude": -71.5475553274155}, "transactions": ["delivery", "pickup"], "price": "$", "location": {"address1": "785 Centre Of New England Blvd", "address2": "", "address3": "", "city": "Coventry", "zip_code": "02816", "country": "US", "state": "RI", "display_address": ["785 Centre Of New England Blvd", "Coventry, RI 02816"]}, "phone": "+14018270321", "display_phone": "(401) 827-0321", "distance": 15294.544244813898}, {"id": "P1VDZuZkFxf04k3hUnlQdQ", "alias": "wendys-coventry", "name": "Wendy's", "image_url": "https://s3-media3.fl.yelpcdn.com/bphoto/pqQ5z0ysQoi4Woy2QF49Dg/o.jpg", "is_closed": false, "url": "https://www.yelp.com/biz/wendys-coventry?adjust_creative=pzvBKuEUl0Vl1jtHQqJaog&utm_campaign=yelp_api_v3&utm_medium=api_v3_business_search&utm_source=pzvBKuEUl0Vl1jtHQqJaog", "review_count": 28, "categories": [{"alias": "burgers", "title": "Burgers"}, {"alias": "hotdogs", "title": "Fast Food"}], "rating": 2.0, "coordinates": {"latitude": 41.6619336, "longitude": -71.5445603}, "transactions": ["delivery"], "price": "$", "location": {"address1": "2311 New London Tpke", "address2": "", "address3": "", "city": "Coventry", "zip_code": "02816", "country": "US", "state": "RI", "display_address": ["2311 New London Tpke", "Coventry, RI 02816"]}, "phone": "+14018270165", "display_phone": "(401) 827-0165", "distance": 15466.50070737638}, {"id": "1votnNvD_K8_kOilKBIrDw", "alias": "china-garden-dayville", "name": "China Garden", "image_url": "https://s3-media2.fl.yelpcdn.com/bphoto/VPF9UAYHS7cXBwOspoSHJw/o.jpg", "is_closed": false, "url": "https://www.yelp.com/biz/china-garden-dayville?adjust_creative=pzvBKuEUl0Vl1jtHQqJaog&utm_campaign=yelp_api_v3&utm_medium=api_v3_business_search&utm_source=pzvBKuEUl0Vl1jtHQqJaog", "review_count": 8, "categories": [{"alias": "chinese", "title": "Chinese"}], "rating": 3.0, "coordinates": {"latitude": 41.816097, "longitude": -71.876884}, "transactions": ["delivery"], "price": "$$", "location": {"address1": "1074 N Main St", "address2": "", "address3": "", "city": "Dayville", "zip_code": "06241", "country": "US", "state": "CT", "display_address": ["1074 N Main St", "Dayville, CT 06241"]}, "phone": "+18607791178", "display_phone": "(860) 779-1178", "distance": 18587.871055985695}, {"id": "ymCV1t5jCCyrdqPCMzkERA", "alias": "subway-danielson-2", "name": "Subway", "image_url": "https://s3-media2.fl.yelpcdn.com/bphoto/9-5skhTp35H-ke1NSV5Kzg/o.jpg", "is_closed": false, "url": "https://www.yelp.com/biz/subway-danielson-2?adjust_creative=pzvBKuEUl0Vl1jtHQqJaog&utm_campaign=yelp_api_v3&utm_medium=api_v3_business_search&utm_source=pzvBKuEUl0Vl1jtHQqJaog", "review_count": 1, "categories": [{"alias": "sandwiches", "title": "Sandwiches"}], "rating": 3.0, "coordinates": {"latitude": 41.8006451135995, "longitude": -71.9006541162063}, "transactions": [], "location": {"address1": "576 Providence Rd", "address2": null, "address3": null, "city": "Danielson", "zip_code": "06239", "country": "US", "state": "CT", "display_address": ["576 Providence Rd", "Danielson, CT 06239"]}, "phone": "+18607747046", "display_phone": "(860) 774-7046", "distance": 18813.69083286891}, {"id": "Jvnr0gSJ0T84mZKxdpugYg", "alias": "joyful-house-plainfield", "name": "Joyful House", "image_url": "https://s3-media2.fl.yelpcdn.com/bphoto/4ohzpndWNirOxDhsB64OBA/o.jpg", "is_closed": false, "url": "https://www.yelp.com/biz/joyful-house-plainfield?adjust_creative=pzvBKuEUl0Vl1jtHQqJaog&utm_campaign=yelp_api_v3&utm_medium=api_v3_business_search&utm_source=pzvBKuEUl0Vl1jtHQqJaog", "review_count": 22, "categories": [{"alias": "chinese", "title": "Chinese"}, {"alias": "japanese", "title": "Japanese"}, {"alias": "sushi", "title": "Sushi Bars"}], "rating": 3.5, "coordinates": {"latitude": 41.680116, "longitude": -71.9190699}, "transactions": ["delivery"], "price": "$$", "location": {"address1": "28-30 Railroad Ave", "address2": "", "address3": "", "city": "Plainfield", "zip_code": "06374", "country": "US", "state": "CT", "display_address": ["28-30 Railroad Ave", "Plainfield, CT 06374"]}, "phone": "+18605648886", "display_phone": "(860) 564-8886", "distance": 16030.789687343406}, {"id": "pa1nfv3aH519o5HZJGcttA", "alias": "subway-coventry-11", "name": "Subway", "image_url": "https://s3-media1.fl.yelpcdn.com/bphoto/HvLSM9S0ONG01B6M2yyUkQ/o.jpg", "is_closed": false, "url": "https://www.yelp.com/biz/subway-coventry-11?adjust_creative=pzvBKuEUl0Vl1jtHQqJaog&utm_campaign=yelp_api_v3&utm_medium=api_v3_business_search&utm_source=pzvBKuEUl0Vl1jtHQqJaog", "review_count": 9, "categories": [{"alias": "sandwiches", "title": "Sandwiches"}], "rating": 2.5, "coordinates": {"latitude": 41.6883596, "longitude": -71.5618970073112}, "transactions": [], "price": "$", "location": {"address1": "47 Sandy Bottom Rd", "address2": null, "address3": null, "city": "Coventry", "zip_code": "02816", "country": "US", "state": "RI", "display_address": ["47 Sandy Bottom Rd", "Coventry, RI 02816"]}, "phone": "+14018234300", "display_phone": "(401) 823-4300", "distance": 13713.946072889265}, {"id": "71FertrAXhU6puMwBnjMPQ", "alias": "santoros-pizza-coventry", "name": "Santoros Pizza", "image_url": "https://s3-media1.fl.yelpcdn.com/bphoto/o_aiVb0WhakbbTVKbjDfrg/o.jpg", "is_closed": false, "url": "https://www.yelp.com/biz/santoros-pizza-coventry?adjust_creative=pzvBKuEUl0Vl1jtHQqJaog&utm_campaign=yelp_api_v3&utm_medium=api_v3_business_search&utm_source=pzvBKuEUl0Vl1jtHQqJaog", "review_count": 30, "categories": [{"alias": "pizza", "title": "Pizza"}], "rating": 3.0, "coordinates": {"latitude": 41.68359, "longitude": -71.55836}, "transactions": ["delivery"], "price": "$", "location": {"address1": "687 Tiogue Ave", "address2": "", "address3": "", "city": "Coventry", "zip_code": "02816", "country": "US", "state": "RI", "display_address": ["687 Tiogue Ave", "Coventry, RI 02816"]}, "phone": "+14018216342", "display_phone": "(401) 821-6342", "distance": 14030.18576781816}, {"id": "CrHHS4l6aNanWIxaH3Xa7A", "alias": "mcdonalds-east-greenwich-4", "name": "McDonald's", "image_url": "https://s3-media1.fl.yelpcdn.com/bphoto/QVuoPbEeJoDjap57mtu8RA/o.jpg", "is_closed": false, "url": "https://www.yelp.com/biz/mcdonalds-east-greenwich-4?adjust_creative=pzvBKuEUl0Vl1jtHQqJaog&utm_campaign=yelp_api_v3&utm_medium=api_v3_business_search&utm_source=pzvBKuEUl0Vl1jtHQqJaog", "review_count": 8, "categories": [{"alias": "coffee", "title": "Coffee & Tea"}, {"alias": "burgers", "title": "Burgers"}, {"alias": "hotdogs", "title": "Fast Food"}], "rating": 1.5, "coordinates": {"latitude": 41.6606861, "longitude": -71.5457498}, "transactions": ["delivery"], "price": "$", "location": {"address1": "2500 New London Tpke", "address2": null, "address3": null, "city": "East Greenwich", "zip_code": "02818", "country": "US", "state": "RI", "display_address": ["2500 New London Tpke", "East Greenwich, RI 02818"]}, "phone": "+14018214900", "display_phone": "(401) 821-4900", "distance": 15505.898919010402}, {"id": "DOEsdOVLcsaeWv40cc6uwg", "alias": "silver-lake-pizza-coventry", "name": "Silver Lake Pizza", "image_url": "https://s3-media1.fl.yelpcdn.com/bphoto/cme0jtAnlSP1k3KLDqOdXQ/o.jpg", "is_closed": false, "url": "https://www.yelp.com/biz/silver-lake-pizza-coventry?adjust_creative=pzvBKuEUl0Vl1jtHQqJaog&utm_campaign=yelp_api_v3&utm_medium=api_v3_business_search&utm_source=pzvBKuEUl0Vl1jtHQqJaog", "review_count": 29, "categories": [{"alias": "pizza", "title": "Pizza"}], "rating": 3.0, "coordinates": {"latitude": 41.690165, "longitude": -71.5656077}, "transactions": ["delivery"], "price": "$", "location": {"address1": "1146 Main St", "address2": "", "address3": "", "city": "Coventry", "zip_code": "02816", "country": "US", "state": "RI", "display_address": ["1146 Main St", "Coventry, RI 02816"]}, "phone": "+14018287810", "display_phone": "(401) 828-7810", "distance": 13401.473197439265}, {"id": "1I6QwzIco9yhPDGRie6vUg", "alias": "hong-kong-restaurant-west-warwick", "name": "Hong Kong Restaurant", "image_url": "https://s3-media4.fl.yelpcdn.com/bphoto/fTucSX43Oeo_DE0TiaeeeA/o.jpg", "is_closed": false, "url": "https://www.yelp.com/biz/hong-kong-restaurant-west-warwick?adjust_creative=pzvBKuEUl0Vl1jtHQqJaog&utm_campaign=yelp_api_v3&utm_medium=api_v3_business_search&utm_source=pzvBKuEUl0Vl1jtHQqJaog", "review_count": 27, "categories": [{"alias": "chinese", "title": "Chinese"}], "rating": 4.0, "coordinates": {"latitude": 41.7029743641615, "longitude": -71.5258750319481}, "transactions": ["delivery", "pickup"], "price": "$", "location": {"address1": "77 Washington St", "address2": "", "address3": "", "city": "West Warwick", "zip_code": "02893", "country": "US", "state": "RI", "display_address": ["77 Washington St", "West Warwick, RI 02893"]}, "phone": "+14018213553", "display_phone": "(401) 821-3553", "distance": 16743.509521618136}, {"id": "sQCksNybCzGcu1C--eRxEg", "alias": "messys-cafe-west-warwick", "name": "Messy's Cafe", "image_url": "https://s3-media2.fl.yelpcdn.com/bphoto/DLz2CCA7IBZs9pkeoScv-A/o.jpg", "is_closed": false, "url": "https://www.yelp.com/biz/messys-cafe-west-warwick?adjust_creative=pzvBKuEUl0Vl1jtHQqJaog&utm_campaign=yelp_api_v3&utm_medium=api_v3_business_search&utm_source=pzvBKuEUl0Vl1jtHQqJaog", "review_count": 38, "categories": [{"alias": "coffee", "title": "Coffee & Tea"}, {"alias": "breakfast_brunch", "title": "Breakfast & Brunch"}, {"alias": "sandwiches", "title": "Sandwiches"}], "rating": 4.5, "coordinates": {"latitude": 41.71800814569, "longitude": -71.5239880979061}, "transactions": ["delivery"], "price": "$", "location": {"address1": "919 Main St", "address2": null, "address3": "", "city": "West Warwick", "zip_code": "02893", "country": "US", "state": "RI", "display_address": ["919 Main St", "West Warwick, RI 02893"]}, "phone": "+14018233331", "display_phone": "(401) 823-3331", "distance": 17077.637438453305}, {"id": "o_k2VKTXk6u_eHEN0H1Dyw", "alias": "china-house-moosup", "name": "China House", "image_url": "https://s3-media1.fl.yelpcdn.com/bphoto/9OzpEUBZVrjP_z1ZH-V99w/o.jpg", "is_closed": false, "url": "https://www.yelp.com/biz/china-house-moosup?adjust_creative=pzvBKuEUl0Vl1jtHQqJaog&utm_campaign=yelp_api_v3&utm_medium=api_v3_business_search&utm_source=pzvBKuEUl0Vl1jtHQqJaog", "review_count": 7, "categories": [{"alias": "chinese", "title": "Chinese"}], "rating": 3.5, "coordinates": {"latitude": 41.7133665829897, "longitude": -71.8809606134892}, "transactions": ["delivery"], "price": "$", "location": {"address1": "20 Main St", "address2": null, "address3": null, "city": "Moosup", "zip_code": "06354", "country": "US", "state": "CT", "display_address": ["20 Main St", "Moosup, CT 06354"]}, "phone": "+18605648878", "display_phone": "(860) 564-8878", "distance": 12990.620335506665}, {"id": "syMEjHwysLiiVyZtMp1l0A", "alias": "fens-express-west-warwick", "name": "Fen's Express", "image_url": "https://s3-media1.fl.yelpcdn.com/bphoto/w8JldkVnYUpFsErgAydjkA/o.jpg", "is_closed": false, "url": "https://www.yelp.com/biz/fens-express-west-warwick?adjust_creative=pzvBKuEUl0Vl1jtHQqJaog&utm_campaign=yelp_api_v3&utm_medium=api_v3_business_search&utm_source=pzvBKuEUl0Vl1jtHQqJaog", "review_count": 9, "categories": [{"alias": "chinese", "title": "Chinese"}, {"alias": "thai", "title": "Thai"}, {"alias": "noodles", "title": "Noodles"}], "rating": 3.5, "coordinates": {"latitude": 41.7156972, "longitude": -71.5238497}, "transactions": ["delivery"], "price": "$$", "location": {"address1": "975 Main St", "address2": null, "address3": null, "city": "West Warwick", "zip_code": "02893", "country": "US", "state": "RI", "display_address": ["975 Main St", "West Warwick, RI 02893"]}, "phone": "+14018218336", "display_phone": "(401) 821-8336", "distance": 17046.815658221745}, {"id": "dwEvWlid6kAzzsnkc6_w9w", "alias": "giant-pizza-danielson", "name": "Giant Pizza", "image_url": "https://s3-media4.fl.yelpcdn.com/bphoto/TOO4Qz4OCUiLK6XwZx7iYQ/o.jpg", "is_closed": false, "url": "https://www.yelp.com/biz/giant-pizza-danielson?adjust_creative=pzvBKuEUl0Vl1jtHQqJaog&utm_campaign=yelp_api_v3&utm_medium=api_v3_business_search&utm_source=pzvBKuEUl0Vl1jtHQqJaog", "review_count": 31, "categories": [{"alias": "pizza", "title": "Pizza"}, {"alias": "italian", "title": "Italian"}, {"alias": "sandwiches", "title": "Sandwiches"}], "rating": 3.0, "coordinates": {"latitude": 41.8092251, "longitude": -71.8773127}, "transactions": ["delivery"], "price": "$", "location": {"address1": "43 Westcott Rd", "address2": "", "address3": "", "city": "Danielson", "zip_code": "06239", "country": "US", "state": "CT", "display_address": ["43 Westcott Rd", "Danielson, CT 06239"]}, "phone": "+18607740058", "display_phone": "(860) 774-0058", "distance": 18043.07072060056}, {"id": "CjBR4ujZXk83D8Oy87KewQ", "alias": "kfc-danielson", "name": "KFC", "image_url": "https://s3-media2.fl.yelpcdn.com/bphoto/gP0wdLpgEwsstvdxNODkRA/o.jpg", "is_closed": false, "url": "https://www.yelp.com/biz/kfc-danielson?adjust_creative=pzvBKuEUl0Vl1jtHQqJaog&utm_campaign=yelp_api_v3&utm_medium=api_v3_business_search&utm_source=pzvBKuEUl0Vl1jtHQqJaog", "review_count": 16, "categories": [{"alias": "chicken_wings", "title": "Chicken Wings"}, {"alias": "hotdogs", "title": "Fast Food"}, {"alias": "chickenshop", "title": "Chicken Shop"}], "rating": 1.5, "coordinates": {"latitude": 41.8000024, "longitude": -71.8992152}, "transactions": ["delivery", "pickup"], "price": "$", "location": {"address1": "578 Providence Rd", "address2": null, "address3": null, "city": "Danielson", "zip_code": "06239", "country": "US", "state": "CT", "display_address": ["578 Providence Rd", "Danielson, CT 06239"]}, "phone": "+18607747830", "display_phone": "(860) 774-7830", "distance": 18676.38170748392}, {"id": "4GvELSO4OipezCjrM3f6HQ", "alias": "a-js-restaurant-west-warwick", "name": "A J's Restaurant", "image_url": "https://s3-media1.fl.yelpcdn.com/bphoto/rJJFXMBvqr2w0z7R6q4xWA/o.jpg", "is_closed": false, "url": "https://www.yelp.com/biz/a-js-restaurant-west-warwick?adjust_creative=pzvBKuEUl0Vl1jtHQqJaog&utm_campaign=yelp_api_v3&utm_medium=api_v3_business_search&utm_source=pzvBKuEUl0Vl1jtHQqJaog", "review_count": 50, "categories": [{"alias": "breakfast_brunch", "title": "Breakfast & Brunch"}], "rating": 4.0, "coordinates": {"latitude": 41.70074, "longitude": -71.52307}, "transactions": [], "price": "$", "location": {"address1": "1365 Main St", "address2": "", "address3": "", "city": "West Warwick", "zip_code": "02893", "country": "US", "state": "RI", "display_address": ["1365 Main St", "West Warwick, RI 02893"]}, "phone": "+14018284160", "display_phone": "(401) 828-4160", "distance": 16956.838324458124}, {"id": "rn-GTQh8wePnBVhKRMbdFg", "alias": "subway-west-warwick-5", "name": "Subway", "image_url": "https://s3-media2.fl.yelpcdn.com/bphoto/xn4sMtXoSQP2PdblhHKRRQ/o.jpg", "is_closed": false, "url": "https://www.yelp.com/biz/subway-west-warwick-5?adjust_creative=pzvBKuEUl0Vl1jtHQqJaog&utm_campaign=yelp_api_v3&utm_medium=api_v3_business_search&utm_source=pzvBKuEUl0Vl1jtHQqJaog", "review_count": 6, "categories": [{"alias": "sandwiches", "title": "Sandwiches"}], "rating": 3.5, "coordinates": {"latitude": 41.7175723019657, "longitude": -71.5244957110451}, "transactions": ["delivery", "pickup"], "price": "$", "location": {"address1": "927 Main St", "address2": null, "address3": null, "city": "West Warwick", "zip_code": "02893", "country": "US", "state": "RI", "display_address": ["927 Main St", "West Warwick, RI 02893"]}, "phone": "+14016158118", "display_phone": "(401) 615-8118", "distance": 17052.056144329894}, {"id": "UZFJutpL3QQ1S75o6JWw7g", "alias": "cumberland-farms-coventry-4", "name": "Cumberland Farms", "image_url": "https://s3-media2.fl.yelpcdn.com/bphoto/F1eXTWmspHzjrYxuSywNtA/o.jpg", "is_closed": false, "url": "https://www.yelp.com/biz/cumberland-farms-coventry-4?adjust_creative=pzvBKuEUl0Vl1jtHQqJaog&utm_campaign=yelp_api_v3&utm_medium=api_v3_business_search&utm_source=pzvBKuEUl0Vl1jtHQqJaog", "review_count": 5, "categories": [{"alias": "servicestations", "title": "Gas Stations"}, {"alias": "coffee", "title": "Coffee & Tea"}, {"alias": "sandwiches", "title": "Sandwiches"}], "rating": 4.0, "coordinates": {"latitude": 41.6628297418356, "longitude": -71.5432919561863}, "transactions": [], "price": "$$", "location": {"address1": "2293 New London Tpke", "address2": "", "address3": null, "city": "Coventry", "zip_code": "02816", "country": "US", "state": "RI", "display_address": ["2293 New London Tpke", "Coventry, RI 02816"]}, "phone": "+14018211760", "display_phone": "(401) 821-1760", "distance": 15572.037914971437}, {"id": "VFKIDdYjVxekK9qPGoH7LQ", "alias": "dominos-pizza-west-warwick", "name": "Domino's Pizza", "image_url": "https://s3-media1.fl.yelpcdn.com/bphoto/93xwHeKcuaMolnwH3AEeJQ/o.jpg", "is_closed": false, "url": "https://www.yelp.com/biz/dominos-pizza-west-warwick?adjust_creative=pzvBKuEUl0Vl1jtHQqJaog&utm_campaign=yelp_api_v3&utm_medium=api_v3_business_search&utm_source=pzvBKuEUl0Vl1jtHQqJaog", "review_count": 8, "categories": [{"alias": "pizza", "title": "Pizza"}, {"alias": "chicken_wings", "title": "Chicken Wings"}, {"alias": "sandwiches", "title": "Sandwiches"}], "rating": 3.0, "coordinates": {"latitude": 41.682731, "longitude": -71.525847}, "transactions": [], "price": "$", "location": {"address1": "1745 Main St", "address2": "", "address3": "", "city": "West Warwick", "zip_code": "02893", "country": "US", "state": "RI", "display_address": ["1745 Main St", "West Warwick, RI 02893"]}, "phone": "+14018224040", "display_phone": "(401) 822-4040", "distance": 16733.311150136742}, {"id": "PcDniXVSocYaB1OTFGtL6Q", "alias": "burger-king-coventry-3", "name": "Burger King", "image_url": "https://s3-media2.fl.yelpcdn.com/bphoto/-2P7HubbQsqra9llzi9TJA/o.jpg", "is_closed": false, "url": "https://www.yelp.com/biz/burger-king-coventry-3?adjust_creative=pzvBKuEUl0Vl1jtHQqJaog&utm_campaign=yelp_api_v3&utm_medium=api_v3_business_search&utm_source=pzvBKuEUl0Vl1jtHQqJaog", "review_count": 6, "categories": [{"alias": "burgers", "title": "Burgers"}, {"alias": "hotdogs", "title": "Fast Food"}], "rating": 2.0, "coordinates": {"latitude": 41.6795725, "longitude": -71.58165517}, "transactions": [], "price": "$", "location": {"address1": "1145 Tioque Ave", "address2": "", "address3": "", "city": "Coventry", "zip_code": "02816", "country": "US", "state": "RI", "display_address": ["1145 Tioque Ave", "Coventry, RI 02816"]}, "phone": "", "display_phone": "", "distance": 12125.822358099687}, {"id": "VLal98Wu_T_MeiRG3hn96w", "alias": "mcdonalds-plainfield-12", "name": "McDonald's", "image_url": "https://s3-media1.fl.yelpcdn.com/bphoto/zAX14jyskZrfvTaEVbvJYg/o.jpg", "is_closed": false, "url": "https://www.yelp.com/biz/mcdonalds-plainfield-12?adjust_creative=pzvBKuEUl0Vl1jtHQqJaog&utm_campaign=yelp_api_v3&utm_medium=api_v3_business_search&utm_source=pzvBKuEUl0Vl1jtHQqJaog", "review_count": 4, "categories": [{"alias": "burgers", "title": "Burgers"}, {"alias": "hotdogs", "title": "Fast Food"}, {"alias": "coffee", "title": "Coffee & Tea"}], "rating": 2.5, "coordinates": {"latitude": 41.666938, "longitude": -71.915711}, "transactions": ["delivery"], "price": "$", "location": {"address1": "796 Norwich Rd", "address2": "", "address3": "", "city": "Plainfield", "zip_code": "06374", "country": "US", "state": "CT", "display_address": ["796 Norwich Rd", "Plainfield, CT 06374"]}, "phone": "+18605647567", "display_phone": "(860) 564-7567", "distance": 15916.390789798752}, {"id": "kYLD2pfDtfKMUCvc8xKvOA", "alias": "taco-bell-dayville", "name": "Taco Bell", "image_url": "https://s3-media2.fl.yelpcdn.com/bphoto/YkWvugIDuNMnQYj470BBhQ/o.jpg", "is_closed": false, "url": "https://www.yelp.com/biz/taco-bell-dayville?adjust_creative=pzvBKuEUl0Vl1jtHQqJaog&utm_campaign=yelp_api_v3&utm_medium=api_v3_business_search&utm_source=pzvBKuEUl0Vl1jtHQqJaog", "review_count": 11, "categories": [{"alias": "hotdogs", "title": "Fast Food"}, {"alias": "tacos", "title": "Tacos"}], "rating": 2.0, "coordinates": {"latitude": 41.842984, "longitude": -71.881061}, "transactions": ["delivery"], "price": "$", "location": {"address1": "601 Hartford Pike", "address2": "", "address3": "", "city": "Dayville", "zip_code": "06241", "country": "US", "state": "CT", "display_address": ["601 Hartford Pike", "Dayville, CT 06241"]}, "phone": "+18607740179", "display_phone": "(860) 774-0179", "distance": 21112.342416539028}, {"id": "kC2gFX50NfQ2Hk4O0hCBIg", "alias": "taco-bell-coventry", "name": "Taco Bell", "image_url": "https://s3-media1.fl.yelpcdn.com/bphoto/9TbNPYn6RV4AljcUsaLwHQ/o.jpg", "is_closed": false, "url": "https://www.yelp.com/biz/taco-bell-coventry?adjust_creative=pzvBKuEUl0Vl1jtHQqJaog&utm_campaign=yelp_api_v3&utm_medium=api_v3_business_search&utm_source=pzvBKuEUl0Vl1jtHQqJaog", "review_count": 12, "categories": [{"alias": "hotdogs", "title": "Fast Food"}, {"alias": "tacos", "title": "Tacos"}], "rating": 2.0, "coordinates": {"latitude": 41.682092, "longitude": -71.563344}, "transactions": ["delivery"], "price": "$", "location": {"address1": "784 Tiogue Ave", "address2": "", "address3": "", "city": "Coventry", "zip_code": "02816", "country": "US", "state": "RI", "display_address": ["784 Tiogue Ave", "Coventry, RI 02816"]}, "phone": "+14018219980", "display_phone": "(401) 821-9980", "distance": 13632.15665327143}, {"id": "LmoSzQQ6w2OEH8BhQKPtRg", "alias": "dominos-pizza-plainfield", "name": "Domino's Pizza", "image_url": "https://s3-media4.fl.yelpcdn.com/bphoto/oNkOTAISV8bCaXU1nFZaog/o.jpg", "is_closed": false, "url": "https://www.yelp.com/biz/dominos-pizza-plainfield?adjust_creative=pzvBKuEUl0Vl1jtHQqJaog&utm_campaign=yelp_api_v3&utm_medium=api_v3_business_search&utm_source=pzvBKuEUl0Vl1jtHQqJaog", "review_count": 8, "categories": [{"alias": "pizza", "title": "Pizza"}, {"alias": "chicken_wings", "title": "Chicken Wings"}, {"alias": "sandwiches", "title": "Sandwiches"}], "rating": 1.5, "coordinates": {"latitude": 41.66478, "longitude": -71.912952}, "transactions": ["delivery", "pickup"], "price": "$", "location": {"address1": "56 Lathrop Rd", "address2": "", "address3": "", "city": "Plainfield", "zip_code": "06374", "country": "US", "state": "CT", "display_address": ["56 Lathrop Rd", "Plainfield, CT 06374"]}, "phone": "+18605649933", "display_phone": "(860) 564-9933", "distance": 15740.300597172854}, {"id": "pflP5G4i7zyuCUX3cTzpyQ", "alias": "dominos-pizza-dayville-2", "name": "Domino's Pizza", "image_url": "https://s3-media2.fl.yelpcdn.com/bphoto/r97H02oBm9UIgrnzS-Klkw/o.jpg", "is_closed": false, "url": "https://www.yelp.com/biz/dominos-pizza-dayville-2?adjust_creative=pzvBKuEUl0Vl1jtHQqJaog&utm_campaign=yelp_api_v3&utm_medium=api_v3_business_search&utm_source=pzvBKuEUl0Vl1jtHQqJaog", "review_count": 10, "categories": [{"alias": "pizza", "title": "Pizza"}, {"alias": "chicken_wings", "title": "Chicken Wings"}, {"alias": "sandwiches", "title": "Sandwiches"}], "rating": 1.5, "coordinates": {"latitude": 41.8396016687955, "longitude": -71.875215014019}, "transactions": [], "price": "$", "location": {"address1": "1070 N Main St", "address2": "", "address3": "", "city": "Dayville", "zip_code": "06241", "country": "US", "state": "CT", "display_address": ["1070 N Main St", "Dayville, CT 06241"]}, "phone": "+18607744442", "display_phone": "(860) 774-4442", "distance": 20520.31591217686}, {"id": "PA8jmW13s8RMMADIWwyMnQ", "alias": "d-angelo-sandwich-shops-coventry", "name": "D'angelo Sandwich Shops", "image_url": "https://s3-media4.fl.yelpcdn.com/bphoto/kjHUd-R2pAOKXu-YIdf7zA/o.jpg", "is_closed": false, "url": "https://www.yelp.com/biz/d-angelo-sandwich-shops-coventry?adjust_creative=pzvBKuEUl0Vl1jtHQqJaog&utm_campaign=yelp_api_v3&utm_medium=api_v3_business_search&utm_source=pzvBKuEUl0Vl1jtHQqJaog", "review_count": 24, "categories": [{"alias": "sandwiches", "title": "Sandwiches"}], "rating": 2.5, "coordinates": {"latitude": 41.6818669, "longitude": -71.56422}, "transactions": ["delivery"], "price": "$", "location": {"address1": "795 Tiogue Ave", "address2": "", "address3": "", "city": "Coventry", "zip_code": "02816", "country": "US", "state": "RI", "display_address": ["795 Tiogue Ave", "Coventry, RI 02816"]}, "phone": "+14018219760", "display_phone": "(401) 821-9760", "distance": 13549.312532892196}, {"id": "wUkz4lDbQyGgbRgBUlhJLA", "alias": "wendys-plainfield-2", "name": "Wendy's", "image_url": "https://s3-media1.fl.yelpcdn.com/bphoto/D6wdjP6kaiDKlTaZs-yizA/o.jpg", "is_closed": false, "url": "https://www.yelp.com/biz/wendys-plainfield-2?adjust_creative=pzvBKuEUl0Vl1jtHQqJaog&utm_campaign=yelp_api_v3&utm_medium=api_v3_business_search&utm_source=pzvBKuEUl0Vl1jtHQqJaog", "review_count": 9, "categories": [{"alias": "burgers", "title": "Burgers"}, {"alias": "hotdogs", "title": "Fast Food"}], "rating": 2.5, "coordinates": {"latitude": 41.664839, "longitude": -71.912422}, "transactions": ["delivery"], "price": "$", "location": {"address1": "2 Pratt Road", "address2": "", "address3": "", "city": "Plainfield", "zip_code": "06374", "country": "US", "state": "CT", "display_address": ["2 Pratt Road", "Plainfield, CT 06374"]}, "phone": "+18605647919", "display_phone": "(860) 564-7919", "distance": 15688.996679113772}, {"id": "TWAD-_YM2xQEz-Mm30iJBg", "alias": "diggys-ice-cream-west-warwick", "name": "Diggy's Ice Cream", "image_url": "https://s3-media2.fl.yelpcdn.com/bphoto/aC-eiPyDNLFlRg_Go3oUhg/o.jpg", "is_closed": false, "url": "https://www.yelp.com/biz/diggys-ice-cream-west-warwick?adjust_creative=pzvBKuEUl0Vl1jtHQqJaog&utm_campaign=yelp_api_v3&utm_medium=api_v3_business_search&utm_source=pzvBKuEUl0Vl1jtHQqJaog", "review_count": 14, "categories": [{"alias": "icecream", "title": "Ice Cream & Frozen Yogurt"}, {"alias": "hotdogs", "title": "Fast Food"}], "rating": 4.0, "coordinates": {"latitude": 41.71797, "longitude": -71.52405}, "transactions": [], "price": "$", "location": {"address1": "925 Main St", "address2": "", "address3": "", "city": "West Warwick", "zip_code": "02893", "country": "US", "state": "RI", "display_address": ["925 Main St", "West Warwick, RI 02893"]}, "phone": "+14018231991", "display_phone": "(401) 823-1991", "distance": 17097.649205097263}, {"id": "AU5AMYRhIbfPVMjzKXgm1A", "alias": "mcdonalds-coventry", "name": "McDonald's", "image_url": "https://s3-media2.fl.yelpcdn.com/bphoto/hZ-DGvx5ph-y3ZfUvt5roA/o.jpg", "is_closed": false, "url": "https://www.yelp.com/biz/mcdonalds-coventry?adjust_creative=pzvBKuEUl0Vl1jtHQqJaog&utm_campaign=yelp_api_v3&utm_medium=api_v3_business_search&utm_source=pzvBKuEUl0Vl1jtHQqJaog", "review_count": 16, "categories": [{"alias": "hotdogs", "title": "Fast Food"}, {"alias": "burgers", "title": "Burgers"}, {"alias": "coffee", "title": "Coffee & Tea"}], "rating": 2.5, "coordinates": {"latitude": 41.6789552, "longitude": -71.5803139}, "transactions": ["delivery"], "price": "$", "location": {"address1": "1100 Tiogue Ave", "address2": "", "address3": "", "city": "Coventry", "zip_code": "02816", "country": "US", "state": "RI", "display_address": ["1100 Tiogue Ave", "Coventry, RI 02816"]}, "phone": "+14018280492", "display_phone": "(401) 828-0492", "distance": 12297.396315369646}, {"id": "NH3XUDFa65gpp1-vXRRJVQ", "alias": "dominos-pizza-west-warwick-2", "name": "Domino's Pizza", "image_url": "https://s3-media2.fl.yelpcdn.com/bphoto/542SUCySDUSrWUHdd2FCpQ/o.jpg", "is_closed": false, "url": "https://www.yelp.com/biz/dominos-pizza-west-warwick-2?adjust_creative=pzvBKuEUl0Vl1jtHQqJaog&utm_campaign=yelp_api_v3&utm_medium=api_v3_business_search&utm_source=pzvBKuEUl0Vl1jtHQqJaog", "review_count": 13, "categories": [{"alias": "pizza", "title": "Pizza"}, {"alias": "sandwiches", "title": "Sandwiches"}, {"alias": "chicken_wings", "title": "Chicken Wings"}], "rating": 3.5, "coordinates": {"latitude": 41.71641, "longitude": -71.52363}, "transactions": [], "price": "$", "location": {"address1": "957 Main St", "address2": null, "address3": null, "city": "West Warwick", "zip_code": "02893", "country": "US", "state": "RI", "display_address": ["957 Main St", "West Warwick, RI 02893"]}, "phone": "+14018263636", "display_phone": "(401) 826-3636", "distance": 17081.896581577843}, {"id": "f5koifOXzmsq6GjDUbv0GQ", "alias": "mcdonalds-danielson", "name": "McDonald's", "image_url": "https://s3-media3.fl.yelpcdn.com/bphoto/ke64gzwoGKObobQUJDGgXg/o.jpg", "is_closed": false, "url": "https://www.yelp.com/biz/mcdonalds-danielson?adjust_creative=pzvBKuEUl0Vl1jtHQqJaog&utm_campaign=yelp_api_v3&utm_medium=api_v3_business_search&utm_source=pzvBKuEUl0Vl1jtHQqJaog", "review_count": 14, "categories": [{"alias": "burgers", "title": "Burgers"}, {"alias": "hotdogs", "title": "Fast Food"}, {"alias": "coffee", "title": "Coffee & Tea"}], "rating": 2.5, "coordinates": {"latitude": 41.79949, "longitude": -71.90306}, "transactions": ["delivery"], "price": "$", "location": {"address1": "554 Providence Rd Rte 6", "address2": "", "address3": "", "city": "Danielson", "zip_code": "06239", "country": "US", "state": "CT", "display_address": ["554 Providence Rd Rte 6", "Danielson, CT 06239"]}, "phone": "+18607749799", "display_phone": "(860) 774-9799", "distance": 18869.360406629505}, {"id": "m3Hx9E05KPQxvNOUC6hirw", "alias": "subway-dayville-3", "name": "Subway", "image_url": "https://s3-media1.fl.yelpcdn.com/bphoto/OS_jFVqWO7-L1dHt1b7N5A/o.jpg", "is_closed": false, "url": "https://www.yelp.com/biz/subway-dayville-3?adjust_creative=pzvBKuEUl0Vl1jtHQqJaog&utm_campaign=yelp_api_v3&utm_medium=api_v3_business_search&utm_source=pzvBKuEUl0Vl1jtHQqJaog", "review_count": 9, "categories": [{"alias": "sandwiches", "title": "Sandwiches"}], "rating": 2.5, "coordinates": {"latitude": 41.84022, "longitude": -71.876787}, "transactions": [], "price": "$", "location": {"address1": "1085 N Main St", "address2": "", "address3": "", "city": "Dayville", "zip_code": "06241", "country": "US", "state": "CT", "display_address": ["1085 N Main St", "Dayville, CT 06241"]}, "phone": "+18607791001", "display_phone": "(860) 779-1001", "distance": 20654.587395390907}, {"id": "BB-U-MZv1kKwffij8TzFsg", "alias": "mcdonalds-killingly", "name": "McDonald's", "image_url": "https://s3-media1.fl.yelpcdn.com/bphoto/6R6Y3-P2U-qOCp0CiG99ng/o.jpg", "is_closed": false, "url": "https://www.yelp.com/biz/mcdonalds-killingly?adjust_creative=pzvBKuEUl0Vl1jtHQqJaog&utm_campaign=yelp_api_v3&utm_medium=api_v3_business_search&utm_source=pzvBKuEUl0Vl1jtHQqJaog", "review_count": 10, "categories": [{"alias": "burgers", "title": "Burgers"}, {"alias": "hotdogs", "title": "Fast Food"}, {"alias": "coffee", "title": "Coffee & Tea"}], "rating": 3.0, "coordinates": {"latitude": 41.8402821549203, "longitude": -71.8826202303171}, "transactions": ["delivery"], "price": "$", "location": {"address1": "1141 Killingly Cmns", "address2": "", "address3": "", "city": "Killingly", "zip_code": "06241", "country": "US", "state": "CT", "display_address": ["1141 Killingly Cmns", "Killingly, CT 06241"]}, "phone": "+18607749755", "display_phone": "(860) 774-9755", "distance": 20953.55375918728}, {"id": "IGeGqtqFjTqff3MwyOQ4tQ", "alias": "kfc-coventry", "name": "KFC", "image_url": "https://s3-media4.fl.yelpcdn.com/bphoto/K8qLBNh1tT-mcfpFftQeCQ/o.jpg", "is_closed": false, "url": "https://www.yelp.com/biz/kfc-coventry?adjust_creative=pzvBKuEUl0Vl1jtHQqJaog&utm_campaign=yelp_api_v3&utm_medium=api_v3_business_search&utm_source=pzvBKuEUl0Vl1jtHQqJaog", "review_count": 13, "categories": [{"alias": "hotdogs", "title": "Fast Food"}, {"alias": "chicken_wings", "title": "Chicken Wings"}, {"alias": "chickenshop", "title": "Chicken Shop"}], "rating": 2.5, "coordinates": {"latitude": 41.6809766079934, "longitude": -71.565847}, "transactions": ["delivery", "pickup"], "price": "$", "location": {"address1": "824 Tiogue Ave", "address2": "", "address3": "", "city": "Coventry", "zip_code": "02816", "country": "US", "state": "RI", "display_address": ["824 Tiogue Ave", "Coventry, RI 02816"]}, "phone": "+14018214460", "display_phone": "(401) 821-4460", "distance": 13435.676163684524}, {"id": "crPj0Z8_pFf5LWFi3PTAyw", "alias": "hanks-dairy-bar-plainfield", "name": "Hank's Dairy Bar", "image_url": "https://s3-media3.fl.yelpcdn.com/bphoto/nqN4b1Prc4UwUViUBdkAxg/o.jpg", "is_closed": false, "url": "https://www.yelp.com/biz/hanks-dairy-bar-plainfield?adjust_creative=pzvBKuEUl0Vl1jtHQqJaog&utm_campaign=yelp_api_v3&utm_medium=api_v3_business_search&utm_source=pzvBKuEUl0Vl1jtHQqJaog", "review_count": 39, "categories": [{"alias": "seafood", "title": "Seafood"}, {"alias": "burgers", "title": "Burgers"}, {"alias": "icecream", "title": "Ice Cream & Frozen Yogurt"}], "rating": 4.0, "coordinates": {"latitude": 41.6556663524821, "longitude": -71.9293587601803}, "transactions": [], "price": "$", "location": {"address1": "1006 Norwich Rd", "address2": "", "address3": "", "city": "Plainfield", "zip_code": "06374", "country": "US", "state": "CT", "display_address": ["1006 Norwich Rd", "Plainfield, CT 06374"]}, "phone": "+18605642298", "display_phone": "(860) 564-2298", "distance": 17235.321105299852}, {"id": "CoYSENnROM5nzKku-Shirw", "alias": "newport-creamery-coventry", "name": "Newport Creamery", "image_url": "https://s3-media3.fl.yelpcdn.com/bphoto/i_vg_gIQiguq_RA9L5gXug/o.jpg", "is_closed": false, "url": "https://www.yelp.com/biz/newport-creamery-coventry?adjust_creative=pzvBKuEUl0Vl1jtHQqJaog&utm_campaign=yelp_api_v3&utm_medium=api_v3_business_search&utm_source=pzvBKuEUl0Vl1jtHQqJaog", "review_count": 18, "categories": [{"alias": "icecream", "title": "Ice Cream & Frozen Yogurt"}, {"alias": "breakfast_brunch", "title": "Breakfast & Brunch"}, {"alias": "burgers", "title": "Burgers"}], "rating": 2.5, "coordinates": {"latitude": 41.6821022, "longitude": -71.5632158}, "transactions": [], "price": "$", "location": {"address1": "781 Tiogue Ave", "address2": "", "address3": "", "city": "Coventry", "zip_code": "02816", "country": "US", "state": "RI", "display_address": ["781 Tiogue Ave", "Coventry, RI 02816"]}, "phone": "+14018212265", "display_phone": "(401) 821-2265", "distance": 13632.877189002405}, {"id": "45B-EaYJQb0290tPKoxpZQ", "alias": "taco-bell-danielson-3", "name": "Taco Bell", "image_url": "https://s3-media1.fl.yelpcdn.com/bphoto/vKXXQJRV9WF1Ue4il-UKZg/o.jpg", "is_closed": false, "url": "https://www.yelp.com/biz/taco-bell-danielson-3?adjust_creative=pzvBKuEUl0Vl1jtHQqJaog&utm_campaign=yelp_api_v3&utm_medium=api_v3_business_search&utm_source=pzvBKuEUl0Vl1jtHQqJaog", "review_count": 2, "categories": [{"alias": "hotdogs", "title": "Fast Food"}, {"alias": "tacos", "title": "Tacos"}], "rating": 1.0, "coordinates": {"latitude": 41.8000035334453, "longitude": -71.9000141847086}, "transactions": [], "price": "$", "location": {"address1": "578 Providence Rd.", "address2": null, "address3": null, "city": "Danielson", "zip_code": "06239", "country": "US", "state": "CT", "display_address": ["578 Providence Rd.", "Danielson, CT 06239"]}, "phone": "+18607747830", "display_phone": "(860) 774-7830", "distance": 18727.223227814888}, {"id": "gZA9sXnQQ-osowiuMJkxzA", "alias": "d-angelo-west-warwick", "name": "D'Angelo", "image_url": "https://s3-media2.fl.yelpcdn.com/bphoto/MhNpnAHa1BHPDgyXUtABcg/o.jpg", "is_closed": false, "url": "https://www.yelp.com/biz/d-angelo-west-warwick?adjust_creative=pzvBKuEUl0Vl1jtHQqJaog&utm_campaign=yelp_api_v3&utm_medium=api_v3_business_search&utm_source=pzvBKuEUl0Vl1jtHQqJaog", "review_count": 17, "categories": [{"alias": "salad", "title": "Salad"}, {"alias": "sandwiches", "title": "Sandwiches"}], "rating": 2.0, "coordinates": {"latitude": 41.7058674, "longitude": -71.5236564}, "transactions": ["delivery"], "price": "$$", "location": {"address1": "1199 Main St", "address2": "", "address3": "", "city": "West Warwick", "zip_code": "02893", "country": "US", "state": "RI", "display_address": ["1199 Main St", "West Warwick, RI 02893"]}, "phone": "+14018230013", "display_phone": "(401) 823-0013", "distance": 16943.168445023177}, {"id": "w2unW6fi0SwIMxYF_DbkxA", "alias": "subway-brooklyn-171", "name": "Subway", "image_url": "https://s3-media2.fl.yelpcdn.com/bphoto/_d3co6x7HRt_0FKg5zvfEQ/o.jpg", "is_closed": false, "url": "https://www.yelp.com/biz/subway-brooklyn-171?adjust_creative=pzvBKuEUl0Vl1jtHQqJaog&utm_campaign=yelp_api_v3&utm_medium=api_v3_business_search&utm_source=pzvBKuEUl0Vl1jtHQqJaog", "review_count": 1, "categories": [{"alias": "sandwiches", "title": "Sandwiches"}], "rating": 2.0, "coordinates": {"latitude": 41.7988831088665, "longitude": -71.9129462867123}, "transactions": [], "price": "$", "location": {"address1": "450 Providence Rd", "address2": "", "address3": "", "city": "Brooklyn", "zip_code": "06239", "country": "US", "state": "CT", "display_address": ["450 Providence Rd", "Brooklyn, CT 06239"]}, "phone": "+18607740266", "display_phone": "(860) 774-0266", "distance": 19485.49464211938}, {"id": "bosRwFqcZTvTHrxtVlgQdw", "alias": "burger-king-dayville", "name": "Burger King", "image_url": "https://s3-media1.fl.yelpcdn.com/bphoto/f6oenJdyyIiSIdmjNdB9aw/o.jpg", "is_closed": false, "url": "https://www.yelp.com/biz/burger-king-dayville?adjust_creative=pzvBKuEUl0Vl1jtHQqJaog&utm_campaign=yelp_api_v3&utm_medium=api_v3_business_search&utm_source=pzvBKuEUl0Vl1jtHQqJaog", "review_count": 10, "categories": [{"alias": "burgers", "title": "Burgers"}, {"alias": "hotdogs", "title": "Fast Food"}], "rating": 2.5, "coordinates": {"latitude": 41.8420599, "longitude": -71.8759199}, "transactions": [], "price": "$", "location": {"address1": "6 Putnam Pike", "address2": "", "address3": "", "city": "Dayville", "zip_code": "06241", "country": "US", "state": "CT", "display_address": ["6 Putnam Pike", "Dayville, CT 06241"]}, "phone": "+18607747596", "display_phone": "(860) 774-7596", "distance": 20776.582488286618}, {"id": "ziB9E3olA30WqxpnSJe4Yw", "alias": "millonzis-west-warwick-2", "name": "Millonzi's", "image_url": "https://s3-media4.fl.yelpcdn.com/bphoto/ZQCTiO3VJVuJJaLG7vCeZA/o.jpg", "is_closed": false, "url": "https://www.yelp.com/biz/millonzis-west-warwick-2?adjust_creative=pzvBKuEUl0Vl1jtHQqJaog&utm_campaign=yelp_api_v3&utm_medium=api_v3_business_search&utm_source=pzvBKuEUl0Vl1jtHQqJaog", "review_count": 25, "categories": [{"alias": "burgers", "title": "Burgers"}, {"alias": "pizza", "title": "Pizza"}, {"alias": "tradamerican", "title": "American (Traditional)"}], "rating": 3.5, "coordinates": {"latitude": 41.705435, "longitude": -71.524264}, "transactions": ["delivery"], "price": "$$", "location": {"address1": "11 Curson St", "address2": "", "address3": "", "city": "West Warwick", "zip_code": "02893", "country": "US", "state": "RI", "display_address": ["11 Curson St", "West Warwick, RI 02893"]}, "phone": "+14016157891", "display_phone": "(401) 615-7891", "distance": 16898.8574159568}, {"id": "324pp6avrBFbzw059DoHsA", "alias": "roadies-raleigh", "name": "Roadies", "image_url": "https://s3-media2.fl.yelpcdn.com/bphoto/3zJZmmgIOYrfKoAOp9Du1w/o.jpg", "is_closed": false, "url": "https://www.yelp.com/biz/roadies-raleigh?adjust_creative=pzvBKuEUl0Vl1jtHQqJaog&utm_campaign=yelp_api_v3&utm_medium=api_v3_business_search&utm_source=pzvBKuEUl0Vl1jtHQqJaog", "review_count": 10, "categories": [{"alias": "foodtrucks", "title": "Food Trucks"}, {"alias": "seafood", "title": "Seafood"}], "rating": 4.5, "coordinates": {"latitude": 35.67575, "longitude": -78.66424}, "transactions": [], "price": "$", "location": {"address1": "", "address2": null, "address3": "", "city": "Raleigh", "zip_code": "27603", "country": "US", "state": "NC", "display_address": ["Raleigh, NC 27603"]}, "phone": "+13476136489", "display_phone": "(347) 613-6489", "distance": 901378.6075495126}]