[{"id": "nL1kSZL3_B_Yy18eJkTl0w", "alias": "harmony-lodge-restaurant-and-bar-harmony", "name": "Harmony Lodge Restaurant & Bar", "image_url": "https://s3-media2.fl.yelpcdn.com/bphoto/rWLVQGb5dM42rr81IpD6dg/o.jpg", "is_closed": false, "url": "https://www.yelp.com/biz/harmony-lodge-restaurant-and-bar-harmony?adjust_creative=pzvBKuEUl0Vl1jtHQqJaog&utm_campaign=yelp_api_v3&utm_medium=api_v3_business_search&utm_source=pzvBKuEUl0Vl1jtHQqJaog", "review_count": 14, "categories": [{"alias": "newamerican", "title": "American (New)"}, {"alias": "bars", "title": "Bars"}], "rating": 3.5, "coordinates": {"latitude": 41.8855121740055, "longitude": -71.5877287834883}, "transactions": [], "location": {"address1": "102 Putnam Pike", "address2": "", "address3": null, "city": "Harmony", "zip_code": "02814", "country": "US", "state": "RI", "display_address": ["102 Putnam Pike", "Harmony, RI 02814"]}, "phone": "+14019491846", "display_phone": "(401) 949-1846", "distance": 849.2451908112051}, {"id": "Xe_ATHCXSVzQ8gCpI6B2OQ", "alias": "emma-s-greenville", "name": "Emma\u2019s", "image_url": "https://s3-media2.fl.yelpcdn.com/bphoto/F8HzwJ8N6Me2-ruVKNtF0g/o.jpg", "is_closed": false, "url": "https://www.yelp.com/biz/emma-s-greenville?adjust_creative=pzvBKuEUl0Vl1jtHQqJaog&utm_campaign=yelp_api_v3&utm_medium=api_v3_business_search&utm_source=pzvBKuEUl0Vl1jtHQqJaog", "review_count": 19, "categories": [{"alias": "pizza", "title": "Pizza"}, {"alias": "pastashops", "title": "Pasta Shops"}, {"alias": "italian", "title": "Italian"}], "rating": 3.5, "coordinates": {"latitude": 41.87954, "longitude": -71.57588}, "transactions": ["delivery"], "location": {"address1": "743 Putnam Pike", "address2": "", "address3": null, "city": "Greenville", "zip_code": "02828", "country": "US", "state": "RI", "display_address": ["743 Putnam Pike", "Greenville, RI 02828"]}, "phone": "+14019490854", "display_phone": "(401) 949-0854", "distance": 2018.938960854548}, {"id": "FJl1gI6FfjXnADd0ZMK7EQ", "alias": "cook-and-dagger-greenville", "name": "Cook & Dagger", "image_url": "https://s3-media3.fl.yelpcdn.com/bphoto/Xazc8MuTaKO99z1Tp3hTKw/o.jpg", "is_closed": false, "url": "https://www.yelp.com/biz/cook-and-dagger-greenville?adjust_creative=pzvBKuEUl0Vl1jtHQqJaog&utm_campaign=yelp_api_v3&utm_medium=api_v3_business_search&utm_source=pzvBKuEUl0Vl1jtHQqJaog", "review_count": 197, "categories": [{"alias": "breakfast_brunch", "title": "Breakfast & Brunch"}, {"alias": "cocktailbars", "title": "Cocktail Bars"}, {"alias": "salad", "title": "Salad"}], "rating": 4.5, "coordinates": {"latitude": 41.870866, "longitude": -71.55067}, "transactions": ["delivery"], "price": "$$", "location": {"address1": "566 Putnam Pike", "address2": "", "address3": "", "city": "Greenville", "zip_code": "02828", "country": "US", "state": "RI", "display_address": ["566 Putnam Pike", "Greenville, RI 02828"]}, "phone": "+14013493927", "display_phone": "(401) 349-3927", "distance": 4348.261505982703}, {"id": "HU4nIkqnS410Hi-gU1Z5Pg", "alias": "hills-tavern-and-grill-glocester", "name": "Hill's Tavern and Grill", "image_url": "https://s3-media3.fl.yelpcdn.com/bphoto/Q7gm3n6Kb2JBhcFbM7VvZA/o.jpg", "is_closed": false, "url": "https://www.yelp.com/biz/hills-tavern-and-grill-glocester?adjust_creative=pzvBKuEUl0Vl1jtHQqJaog&utm_campaign=yelp_api_v3&utm_medium=api_v3_business_search&utm_source=pzvBKuEUl0Vl1jtHQqJaog", "review_count": 6, "categories": [{"alias": "bars", "title": "Bars"}, {"alias": "tradamerican", "title": "American (Traditional)"}], "rating": 4.0, "coordinates": {"latitude": 41.895896627618, "longitude": -71.6131743337187}, "transactions": [], "location": {"address1": "417 Putnam Pike", "address2": "", "address3": null, "city": "Glocester", "zip_code": "02814", "country": "US", "state": "RI", "display_address": ["417 Putnam Pike", "Glocester, RI 02814"]}, "phone": "+14013495512", "display_phone": "(401) 349-5512", "distance": 1568.8881726938248}, {"id": "1aZb5EjneQWCXixI7iurrQ", "alias": "giuseppes-pizzeria-bistro-greenville-4", "name": "Giuseppe's Pizzeria Bistro", "image_url": "https://s3-media3.fl.yelpcdn.com/bphoto/4vwsHba8wjatEQANJ1we7Q/o.jpg", "is_closed": false, "url": "https://www.yelp.com/biz/giuseppes-pizzeria-bistro-greenville-4?adjust_creative=pzvBKuEUl0Vl1jtHQqJaog&utm_campaign=yelp_api_v3&utm_medium=api_v3_business_search&utm_source=pzvBKuEUl0Vl1jtHQqJaog", "review_count": 96, "categories": [{"alias": "pizza", "title": "Pizza"}, {"alias": "italian", "title": "Italian"}], "rating": 4.5, "coordinates": {"latitude": 41.8698502, "longitude": -71.5547867}, "transactions": ["delivery"], "price": "$$", "location": {"address1": "19 Smith Ave", "address2": "", "address3": "", "city": "Greenville", "zip_code": "02828", "country": "US", "state": "RI", "display_address": ["19 Smith Ave", "Greenville, RI 02828"]}, "phone": "+14013493377", "display_phone": "(401) 349-3377", "distance": 4083.1594416490407}, {"id": "JEHAIJ0dhJZTVo90BxA6iA", "alias": "pinewood-pub-chepachet", "name": "Pinewood Pub", "image_url": "https://s3-media2.fl.yelpcdn.com/bphoto/a8gZ1sxtSzao0ai3KuvqyQ/o.jpg", "is_closed": false, "url": "https://www.yelp.com/biz/pinewood-pub-chepachet?adjust_creative=pzvBKuEUl0Vl1jtHQqJaog&utm_campaign=yelp_api_v3&utm_medium=api_v3_business_search&utm_source=pzvBKuEUl0Vl1jtHQqJaog", "review_count": 24, "categories": [{"alias": "pizza", "title": "Pizza"}, {"alias": "italian", "title": "Italian"}], "rating": 4.0, "coordinates": {"latitude": 41.904456, "longitude": -71.646544}, "transactions": [], "price": "$$", "location": {"address1": "16 Terry Ln", "address2": "", "address3": "", "city": "Chepachet", "zip_code": "02814", "country": "US", "state": "RI", "display_address": ["16 Terry Ln", "Chepachet, RI 02814"]}, "phone": "+14015685660", "display_phone": "(401) 568-5660", "distance": 4388.4032198601835}, {"id": "GlMXW9PVtB3vOWHlSTeS0Q", "alias": "gentleman-farmer-diner-chepachet-2", "name": "Gentleman Farmer Diner", "image_url": "https://s3-media1.fl.yelpcdn.com/bphoto/eanz8-KUChYlW97T-b0cFA/o.jpg", "is_closed": false, "url": "https://www.yelp.com/biz/gentleman-farmer-diner-chepachet-2?adjust_creative=pzvBKuEUl0Vl1jtHQqJaog&utm_campaign=yelp_api_v3&utm_medium=api_v3_business_search&utm_source=pzvBKuEUl0Vl1jtHQqJaog", "review_count": 23, "categories": [{"alias": "diners", "title": "Diners"}, {"alias": "seafood", "title": "Seafood"}, {"alias": "breakfast_brunch", "title": "Breakfast & Brunch"}], "rating": 4.0, "coordinates": {"latitude": 41.8976172162418, "longitude": -71.6296276836065}, "transactions": [], "price": "$$", "location": {"address1": "617 Putnam Pike", "address2": "", "address3": "", "city": "Chepachet", "zip_code": "02814", "country": "US", "state": "RI", "display_address": ["617 Putnam Pike", "Chepachet, RI 02814"]}, "phone": "+14013712683", "display_phone": "(401) 371-2683", "distance": 2837.6130237174298}, {"id": "CH23Wo_pHsTka69whoK25w", "alias": "greenville-inn-greenville", "name": "Greenville Inn", "image_url": "https://s3-media3.fl.yelpcdn.com/bphoto/D8ZY8VZwNx8q_CtBm0mdKg/o.jpg", "is_closed": false, "url": "https://www.yelp.com/biz/greenville-inn-greenville?adjust_creative=pzvBKuEUl0Vl1jtHQqJaog&utm_campaign=yelp_api_v3&utm_medium=api_v3_business_search&utm_source=pzvBKuEUl0Vl1jtHQqJaog", "review_count": 37, "categories": [{"alias": "italian", "title": "Italian"}], "rating": 3.5, "coordinates": {"latitude": 41.8681, "longitude": -71.55591}, "transactions": ["delivery"], "price": "$$", "location": {"address1": "36 Smith Ave", "address2": "", "address3": "", "city": "Greenville", "zip_code": "02828", "country": "US", "state": "RI", "display_address": ["36 Smith Ave", "Greenville, RI 02828"]}, "phone": "+14019494020", "display_phone": "(401) 949-4020", "distance": 4084.7990254127235}, {"id": "rDi2sq2vkGba72zwXs68dg", "alias": "harmony-kitchen-glocester", "name": "Harmony Kitchen", "image_url": "https://s3-media3.fl.yelpcdn.com/bphoto/BRcYN7sE1odj7cAorGTchQ/o.jpg", "is_closed": false, "url": "https://www.yelp.com/biz/harmony-kitchen-glocester?adjust_creative=pzvBKuEUl0Vl1jtHQqJaog&utm_campaign=yelp_api_v3&utm_medium=api_v3_business_search&utm_source=pzvBKuEUl0Vl1jtHQqJaog", "review_count": 2, "categories": [{"alias": "breakfast_brunch", "title": "Breakfast & Brunch"}, {"alias": "sandwiches", "title": "Sandwiches"}, {"alias": "tradamerican", "title": "American (Traditional)"}], "rating": 4.5, "coordinates": {"latitude": 41.8954238891602, "longitude": -71.6123733520508}, "transactions": [], "price": "$", "location": {"address1": "401 Putnam Pike", "address2": "", "address3": null, "city": "Glocester", "zip_code": "02814", "country": "US", "state": "RI", "display_address": ["401 Putnam Pike", "Glocester, RI 02814"]}, "phone": "+14013495661", "display_phone": "(401) 349-5661", "distance": 1487.8470341900827}, {"id": "JhunCX-OMD1BJSCBMr9IDw", "alias": "chepachet-deli-chepachet", "name": "Chepachet Deli", "image_url": "https://s3-media2.fl.yelpcdn.com/bphoto/b3VA04BkmI1Q6CMhJvW78g/o.jpg", "is_closed": false, "url": "https://www.yelp.com/biz/chepachet-deli-chepachet?adjust_creative=pzvBKuEUl0Vl1jtHQqJaog&utm_campaign=yelp_api_v3&utm_medium=api_v3_business_search&utm_source=pzvBKuEUl0Vl1jtHQqJaog", "review_count": 7, "categories": [{"alias": "delis", "title": "Delis"}, {"alias": "pizza", "title": "Pizza"}, {"alias": "wraps", "title": "Wraps"}], "rating": 4.0, "coordinates": {"latitude": 41.9048152, "longitude": -71.6466435}, "transactions": [], "location": {"address1": "842 Putnam Pike", "address2": "", "address3": "", "city": "Chepachet", "zip_code": "02814", "country": "US", "state": "RI", "display_address": ["842 Putnam Pike", "Chepachet, RI 02814"]}, "phone": "+14015678979", "display_phone": "(401) 567-8979", "distance": 4426.522727651618}, {"id": "OHmN7ILS9-_ICX8ZDthBXA", "alias": "tommys-variety-and-deli-north-scituate", "name": "Tommy's Variety & Deli", "image_url": "https://s3-media4.fl.yelpcdn.com/bphoto/-UUtZOzWq3F7yTndlxJFyw/o.jpg", "is_closed": false, "url": "https://www.yelp.com/biz/tommys-variety-and-deli-north-scituate?adjust_creative=pzvBKuEUl0Vl1jtHQqJaog&utm_campaign=yelp_api_v3&utm_medium=api_v3_business_search&utm_source=pzvBKuEUl0Vl1jtHQqJaog", "review_count": 2, "categories": [{"alias": "delis", "title": "Delis"}], "rating": 4.0, "coordinates": {"latitude": 41.8740730285645, "longitude": -71.6027374267578}, "transactions": [], "price": "$", "location": {"address1": "365 Snake Hill Rd", "address2": "", "address3": "", "city": "North Scituate", "zip_code": "02857", "country": "US", "state": "RI", "display_address": ["365 Snake Hill Rd", "North Scituate, RI 02857"]}, "phone": "+14019341170", "display_phone": "(401) 934-1170", "distance": 1620.5662195423631}, {"id": "ZfwT3oCpZT90mLB1uwwbEg", "alias": "kountry-kitchen-greenville", "name": "Kountry Kitchen", "image_url": "https://s3-media4.fl.yelpcdn.com/bphoto/kI6HfAyx57urtte_4fqAgQ/o.jpg", "is_closed": false, "url": "https://www.yelp.com/biz/kountry-kitchen-greenville?adjust_creative=pzvBKuEUl0Vl1jtHQqJaog&utm_campaign=yelp_api_v3&utm_medium=api_v3_business_search&utm_source=pzvBKuEUl0Vl1jtHQqJaog", "review_count": 80, "categories": [{"alias": "breakfast_brunch", "title": "Breakfast & Brunch"}], "rating": 4.0, "coordinates": {"latitude": 41.87044, "longitude": -71.55305}, "transactions": ["delivery"], "price": "$", "location": {"address1": "10 Smith Ave", "address2": "", "address3": "", "city": "Greenville", "zip_code": "02828", "country": "US", "state": "RI", "display_address": ["10 Smith Ave", "Greenville, RI 02828"]}, "phone": "+14019490840", "display_phone": "(401) 949-0840", "distance": 4186.620107828845}, {"id": "C2Ehb0km8s9IVRUH9bY6Pg", "alias": "knight-farm-north-scituate", "name": "Knight Farm", "image_url": "https://s3-media2.fl.yelpcdn.com/bphoto/ms2-Tnr8bhMZHzg2Kb3UHw/o.jpg", "is_closed": false, "url": "https://www.yelp.com/biz/knight-farm-north-scituate?adjust_creative=pzvBKuEUl0Vl1jtHQqJaog&utm_campaign=yelp_api_v3&utm_medium=api_v3_business_search&utm_source=pzvBKuEUl0Vl1jtHQqJaog", "review_count": 46, "categories": [{"alias": "breakfast_brunch", "title": "Breakfast & Brunch"}, {"alias": "icecream", "title": "Ice Cream & Frozen Yogurt"}, {"alias": "tradamerican", "title": "American (Traditional)"}], "rating": 3.0, "coordinates": {"latitude": 41.863826751709, "longitude": -71.5761871337891}, "transactions": ["delivery"], "price": "$", "location": {"address1": "1 Snake Hill Rd", "address2": "", "address3": "", "city": "North Scituate", "zip_code": "02857", "country": "US", "state": "RI", "display_address": ["1 Snake Hill Rd", "North Scituate, RI 02857"]}, "phone": "+14013494408", "display_phone": "(401) 349-4408", "distance": 3210.8662907326766}, {"id": "2NfbuvKsBq0-rjDRpBdurQ", "alias": "newport-creamery-ice-cream-and-sandwich-shoppes-greenville", "name": "Newport Creamery Ice Cream & Sandwich Shoppes", "image_url": "https://s3-media3.fl.yelpcdn.com/bphoto/FcjGapj9MnzWSbU8iL0ckA/o.jpg", "is_closed": false, "url": "https://www.yelp.com/biz/newport-creamery-ice-cream-and-sandwich-shoppes-greenville?adjust_creative=pzvBKuEUl0Vl1jtHQqJaog&utm_campaign=yelp_api_v3&utm_medium=api_v3_business_search&utm_source=pzvBKuEUl0Vl1jtHQqJaog", "review_count": 54, "categories": [{"alias": "sandwiches", "title": "Sandwiches"}, {"alias": "icecream", "title": "Ice Cream & Frozen Yogurt"}], "rating": 3.0, "coordinates": {"latitude": 41.87067, "longitude": -71.55095}, "transactions": [], "price": "$", "location": {"address1": "568 Putnam Pike", "address2": "", "address3": "", "city": "Greenville", "zip_code": "02828", "country": "US", "state": "RI", "display_address": ["568 Putnam Pike", "Greenville, RI 02828"]}, "phone": "+14019492122", "display_phone": "(401) 949-2122", "distance": 4299.3634555101835}, {"id": "EdYq2t5pVOW1XB-jZhl4mw", "alias": "little-bs-bbq-north-scituate", "name": "Little B's BBQ", "image_url": "https://s3-media1.fl.yelpcdn.com/bphoto/OyHpURukL4fLG5qmKAwbBA/o.jpg", "is_closed": false, "url": "https://www.yelp.com/biz/little-bs-bbq-north-scituate?adjust_creative=pzvBKuEUl0Vl1jtHQqJaog&utm_campaign=yelp_api_v3&utm_medium=api_v3_business_search&utm_source=pzvBKuEUl0Vl1jtHQqJaog", "review_count": 5, "categories": [{"alias": "foodtrucks", "title": "Food Trucks"}, {"alias": "bbq", "title": "Barbeque"}], "rating": 2.5, "coordinates": {"latitude": 41.8548, "longitude": -71.57947}, "transactions": [], "location": {"address1": "224 W Greenville rd", "address2": "", "address3": null, "city": "North Scituate", "zip_code": "02857", "country": "US", "state": "RI", "display_address": ["224 W Greenville rd", "North Scituate, RI 02857"]}, "phone": "+14015287557", "display_phone": "(401) 528-7557", "distance": 3972.6670099406515}, {"id": "xCsq8-GPNr75YPLq5hZ1Fg", "alias": "athens-pizza-house-greenville", "name": "Athens Pizza House", "image_url": "https://s3-media3.fl.yelpcdn.com/bphoto/wM86qRNzysVIMkmCkj577A/o.jpg", "is_closed": false, "url": "https://www.yelp.com/biz/athens-pizza-house-greenville?adjust_creative=pzvBKuEUl0Vl1jtHQqJaog&utm_campaign=yelp_api_v3&utm_medium=api_v3_business_search&utm_source=pzvBKuEUl0Vl1jtHQqJaog", "review_count": 31, "categories": [{"alias": "pizza", "title": "Pizza"}], "rating": 4.0, "coordinates": {"latitude": 41.872647, "longitude": -71.553411}, "transactions": [], "price": "$$", "location": {"address1": "1 Austin Ave", "address2": "Frnt 3", "address3": "", "city": "Greenville", "zip_code": "02828", "country": "US", "state": "RI", "display_address": ["1 Austin Ave", "Frnt 3", "Greenville, RI 02828"]}, "phone": "+14019490294", "display_phone": "(401) 949-0294", "distance": 4025.285295038681}, {"id": "Io4C5tUwnb_YzeaMXHBqBA", "alias": "shuckin-truck-narragansett-2", "name": "Shuckin Truck", "image_url": "https://s3-media2.fl.yelpcdn.com/bphoto/r7QRORfe9UYVS7GGzUm9DQ/o.jpg", "is_closed": false, "url": "https://www.yelp.com/biz/shuckin-truck-narragansett-2?adjust_creative=pzvBKuEUl0Vl1jtHQqJaog&utm_campaign=yelp_api_v3&utm_medium=api_v3_business_search&utm_source=pzvBKuEUl0Vl1jtHQqJaog", "review_count": 24, "categories": [{"alias": "foodtrucks", "title": "Food Trucks"}, {"alias": "seafood", "title": "Seafood"}], "rating": 4.5, "coordinates": {"latitude": 41.4274482727051, "longitude": -71.4597778320313}, "transactions": [], "price": "$$", "location": {"address1": "", "address2": "", "address3": "", "city": "Narragansett", "zip_code": "02882", "country": "US", "state": "RI", "display_address": ["Narragansett, RI 02882"]}, "phone": "+14017415953", "display_phone": "(401) 741-5953", "distance": 55193.323688255754}, {"id": "JIhRVJ4BAWPH9NZ0u-7Wzw", "alias": "flip-n-roll-fall-river", "name": "Flip N Roll", "image_url": "https://s3-media1.fl.yelpcdn.com/bphoto/A3l1k85peGnmCC17j-Bmhg/o.jpg", "is_closed": false, "url": "https://www.yelp.com/biz/flip-n-roll-fall-river?adjust_creative=pzvBKuEUl0Vl1jtHQqJaog&utm_campaign=yelp_api_v3&utm_medium=api_v3_business_search&utm_source=pzvBKuEUl0Vl1jtHQqJaog", "review_count": 1, "categories": [{"alias": "foodtrucks", "title": "Food Trucks"}, {"alias": "tradamerican", "title": "American (Traditional)"}, {"alias": "portuguese", "title": "Portuguese"}], "rating": 1.0, "coordinates": {"latitude": 41.68687, "longitude": -71.17062}, "transactions": [], "price": "$$", "location": {"address1": "", "address2": "", "address3": "", "city": "Fall River", "zip_code": "02724", "country": "US", "state": "MA", "display_address": ["Fall River, MA 02724"]}, "phone": "", "display_phone": "", "distance": 41501.79404155904}, {"id": "usP9czUkDGcyC7CSseiMdw", "alias": "shuck-food-truck-boston-2", "name": "Shuck Food Truck", "image_url": "https://s3-media2.fl.yelpcdn.com/bphoto/vh62vEgAkPe1IC7D00fF2A/o.jpg", "is_closed": false, "url": "https://www.yelp.com/biz/shuck-food-truck-boston-2?adjust_creative=pzvBKuEUl0Vl1jtHQqJaog&utm_campaign=yelp_api_v3&utm_medium=api_v3_business_search&utm_source=pzvBKuEUl0Vl1jtHQqJaog", "review_count": 27, "categories": [{"alias": "foodtrucks", "title": "Food Trucks"}, {"alias": "seafood", "title": "Seafood"}, {"alias": "tradamerican", "title": "American (Traditional)"}], "rating": 4.5, "coordinates": {"latitude": 42.64758, "longitude": -71.32212}, "transactions": [], "location": {"address1": "", "address2": "", "address3": null, "city": "Boston", "zip_code": "01854", "country": "US", "state": "MA", "display_address": ["Boston, MA 01854"]}, "phone": "+19789446618", "display_phone": "(978) 944-6618", "distance": 86427.59140090033}, {"id": "324pp6avrBFbzw059DoHsA", "alias": "roadies-raleigh", "name": "Roadies", "image_url": "https://s3-media2.fl.yelpcdn.com/bphoto/3zJZmmgIOYrfKoAOp9Du1w/o.jpg", "is_closed": false, "url": "https://www.yelp.com/biz/roadies-raleigh?adjust_creative=pzvBKuEUl0Vl1jtHQqJaog&utm_campaign=yelp_api_v3&utm_medium=api_v3_business_search&utm_source=pzvBKuEUl0Vl1jtHQqJaog", "review_count": 10, "categories": [{"alias": "foodtrucks", "title": "Food Trucks"}, {"alias": "seafood", "title": "Seafood"}], "rating": 4.5, "coordinates": {"latitude": 35.67575, "longitude": -78.66424}, "transactions": [], "price": "$", "location": {"address1": "", "address2": null, "address3": "", "city": "Raleigh", "zip_code": "27603", "country": "US", "state": "NC", "display_address": ["Raleigh, NC 27603"]}, "phone": "+13476136489", "display_phone": "(347) 613-6489", "distance": 924536.0103591772}]