[{"id": "PhrJqQuEUNMHmYEVUQ8zrw", "alias": "babys-bonetown-bbq-clayville-3", "name": "Baby's Bonetown  BBQ", "image_url": "https://s3-media3.fl.yelpcdn.com/bphoto/3GL2sq98twYjfjH_J_mhvQ/o.jpg", "is_closed": false, "url": "https://www.yelp.com/biz/babys-bonetown-bbq-clayville-3?adjust_creative=pzvBKuEUl0Vl1jtHQqJaog&utm_campaign=yelp_api_v3&utm_medium=api_v3_business_search&utm_source=pzvBKuEUl0Vl1jtHQqJaog", "review_count": 18, "categories": [{"alias": "foodtrucks", "title": "Food Trucks"}, {"alias": "bbq", "title": "Barbeque"}], "rating": 3.5, "coordinates": {"latitude": 41.77466, "longitude": -71.67334}, "transactions": [], "price": "$$", "location": {"address1": "", "address2": null, "address3": "", "city": "Clayville", "zip_code": "02815", "country": "US", "state": "RI", "display_address": ["Clayville, RI 02815"]}, "phone": "+15089443219", "display_phone": "(508) 944-3219", "distance": 735.9754198699599}, {"id": "WptKdYYVydpMOcnxhLsIsQ", "alias": "village-tavern-scituate", "name": "Village Tavern", "image_url": "https://s3-media1.fl.yelpcdn.com/bphoto/nEM4j6RegvIWXnKClO5zJQ/o.jpg", "is_closed": false, "url": "https://www.yelp.com/biz/village-tavern-scituate?adjust_creative=pzvBKuEUl0Vl1jtHQqJaog&utm_campaign=yelp_api_v3&utm_medium=api_v3_business_search&utm_source=pzvBKuEUl0Vl1jtHQqJaog", "review_count": 65, "categories": [{"alias": "tradamerican", "title": "American (Traditional)"}], "rating": 4.0, "coordinates": {"latitude": 41.8370009695461, "longitude": -71.5837440267205}, "transactions": ["delivery"], "price": "$$", "location": {"address1": "90 Hartford Pike", "address2": "", "address3": "", "city": "Scituate", "zip_code": "02857", "country": "US", "state": "RI", "display_address": ["90 Hartford Pike", "Scituate, RI 02857"]}, "phone": "+14017640893", "display_phone": "(401) 764-0893", "distance": 9143.802356217991}, {"id": "1qBt0IYWCkFuvLhQKda1IQ", "alias": "the-pond-pub-and-pizza-coventry", "name": "The Pond Pub & Pizza", "image_url": "https://s3-media2.fl.yelpcdn.com/bphoto/AkPs7Oe6QryZHlQgS2FQXw/o.jpg", "is_closed": false, "url": "https://www.yelp.com/biz/the-pond-pub-and-pizza-coventry?adjust_creative=pzvBKuEUl0Vl1jtHQqJaog&utm_campaign=yelp_api_v3&utm_medium=api_v3_business_search&utm_source=pzvBKuEUl0Vl1jtHQqJaog", "review_count": 12, "categories": [{"alias": "pizza", "title": "Pizza"}, {"alias": "bars", "title": "Bars"}], "rating": 4.5, "coordinates": {"latitude": 41.7047131061554, "longitude": -71.6166108101606}, "transactions": ["delivery", "pickup"], "location": {"address1": "2260 Flat RIver Rd", "address2": null, "address3": "", "city": "Coventry", "zip_code": "02816", "country": "US", "state": "RI", "display_address": ["2260 Flat RIver Rd", "Coventry, RI 02816"]}, "phone": "+14013970001", "display_phone": "(401) 397-0001", "distance": 8419.29660406268}, {"id": "xDjnxfMKmzwB-qAPP4usHg", "alias": "corner-bistro-north-scituate-2", "name": "Corner Bistro", "image_url": "https://s3-media4.fl.yelpcdn.com/bphoto/QKG-1L2fGy825SctGHvPtA/o.jpg", "is_closed": false, "url": "https://www.yelp.com/biz/corner-bistro-north-scituate-2?adjust_creative=pzvBKuEUl0Vl1jtHQqJaog&utm_campaign=yelp_api_v3&utm_medium=api_v3_business_search&utm_source=pzvBKuEUl0Vl1jtHQqJaog", "review_count": 80, "categories": [{"alias": "italian", "title": "Italian"}, {"alias": "wine_bars", "title": "Wine Bars"}], "rating": 4.0, "coordinates": {"latitude": 41.8424072265625, "longitude": -71.6761932373047}, "transactions": [], "price": "$$", "location": {"address1": "1115 Hartford Pike", "address2": null, "address3": null, "city": "North Scituate", "zip_code": "02857", "country": "US", "state": "RI", "display_address": ["1115 Hartford Pike", "North Scituate, RI 02857"]}, "phone": "+14017640860", "display_phone": "(401) 764-0860", "distance": 7764.192869019186}, {"id": "RRrqYn7TKcZEV3spOAWwNQ", "alias": "farm-stand-cafe-scituate", "name": "Farm Stand Cafe", "image_url": "https://s3-media2.fl.yelpcdn.com/bphoto/AL_UZdlbzN9lOS_yDDRBCg/o.jpg", "is_closed": false, "url": "https://www.yelp.com/biz/farm-stand-cafe-scituate?adjust_creative=pzvBKuEUl0Vl1jtHQqJaog&utm_campaign=yelp_api_v3&utm_medium=api_v3_business_search&utm_source=pzvBKuEUl0Vl1jtHQqJaog", "review_count": 14, "categories": [{"alias": "cafes", "title": "Cafes"}, {"alias": "markets", "title": "Fruits & Veggies"}], "rating": 4.0, "coordinates": {"latitude": 41.8417477113255, "longitude": -71.67721547681}, "transactions": [], "price": "$", "location": {"address1": "1116 Chopmist Hill Rd", "address2": "", "address3": "", "city": "Scituate", "zip_code": "02857", "country": "US", "state": "RI", "display_address": ["1116 Chopmist Hill Rd", "Scituate, RI 02857"]}, "phone": "", "display_phone": "", "distance": 7710.066101064374}, {"id": "mdgpnKPit_lH0WE21gnLtw", "alias": "skips-countryside-cafe-coventry", "name": "Skip's Countryside Cafe", "image_url": "https://s3-media4.fl.yelpcdn.com/bphoto/vXCHSipqlnV5haVoyGoHow/o.jpg", "is_closed": false, "url": "https://www.yelp.com/biz/skips-countryside-cafe-coventry?adjust_creative=pzvBKuEUl0Vl1jtHQqJaog&utm_campaign=yelp_api_v3&utm_medium=api_v3_business_search&utm_source=pzvBKuEUl0Vl1jtHQqJaog", "review_count": 8, "categories": [{"alias": "breakfast_brunch", "title": "Breakfast & Brunch"}], "rating": 3.5, "coordinates": {"latitude": 41.7046810051239, "longitude": -71.6160058425064}, "transactions": ["delivery"], "location": {"address1": "2246 Flat River Rd", "address2": "", "address3": null, "city": "Coventry", "zip_code": "02816", "country": "US", "state": "RI", "display_address": ["2246 Flat River Rd", "Coventry, RI 02816"]}, "phone": "", "display_phone": "", "distance": 8435.368695730045}, {"id": "nalHCyHXXs-Aui2i_FU83Q", "alias": "scituate-famous-pizza-north-scituate", "name": "Scituate Famous Pizza", "image_url": "https://s3-media1.fl.yelpcdn.com/bphoto/s4p_ISITNxaj5cijx_T1oA/o.jpg", "is_closed": false, "url": "https://www.yelp.com/biz/scituate-famous-pizza-north-scituate?adjust_creative=pzvBKuEUl0Vl1jtHQqJaog&utm_campaign=yelp_api_v3&utm_medium=api_v3_business_search&utm_source=pzvBKuEUl0Vl1jtHQqJaog", "review_count": 44, "categories": [{"alias": "pizza", "title": "Pizza"}], "rating": 3.0, "coordinates": {"latitude": 41.8370628356934, "longitude": -71.5841598510742}, "transactions": [], "price": "$$", "location": {"address1": "92 Hartford Pike", "address2": "", "address3": "", "city": "North Scituate", "zip_code": "02857", "country": "US", "state": "RI", "display_address": ["92 Hartford Pike", "North Scituate, RI 02857"]}, "phone": "+14019340278", "display_phone": "(401) 934-0278", "distance": 9125.00534850098}, {"id": "scQfnnrAsJYnWxzfnBfOOQ", "alias": "granite-farm-restaurant-scituate", "name": "Granite Farm Restaurant", "image_url": "https://s3-media2.fl.yelpcdn.com/bphoto/aJTZtjyvKDif_K7NrDJaHA/o.jpg", "is_closed": false, "url": "https://www.yelp.com/biz/granite-farm-restaurant-scituate?adjust_creative=pzvBKuEUl0Vl1jtHQqJaog&utm_campaign=yelp_api_v3&utm_medium=api_v3_business_search&utm_source=pzvBKuEUl0Vl1jtHQqJaog", "review_count": 42, "categories": [{"alias": "breakfast_brunch", "title": "Breakfast & Brunch"}, {"alias": "sandwiches", "title": "Sandwiches"}, {"alias": "italian", "title": "Italian"}], "rating": 3.5, "coordinates": {"latitude": 41.8336226401221, "longitude": -71.579479649663}, "transactions": [], "price": "$$", "location": {"address1": "50 Danielson Pike", "address2": "", "address3": "", "city": "Scituate", "zip_code": "02857", "country": "US", "state": "RI", "display_address": ["50 Danielson Pike", "Scituate, RI 02857"]}, "phone": "+14016477774", "display_phone": "(401) 647-7774", "distance": 9101.32324113792}, {"id": "M80i1IlhAqzG26m2TL_w_g", "alias": "cold-brook-cafe-scituate", "name": "Cold Brook Cafe", "image_url": "https://s3-media1.fl.yelpcdn.com/bphoto/nzKzik3WeScwbZQOSiksEg/o.jpg", "is_closed": false, "url": "https://www.yelp.com/biz/cold-brook-cafe-scituate?adjust_creative=pzvBKuEUl0Vl1jtHQqJaog&utm_campaign=yelp_api_v3&utm_medium=api_v3_business_search&utm_source=pzvBKuEUl0Vl1jtHQqJaog", "review_count": 16, "categories": [{"alias": "breakfast_brunch", "title": "Breakfast & Brunch"}, {"alias": "newamerican", "title": "American (New)"}, {"alias": "sandwiches", "title": "Sandwiches"}], "rating": 4.5, "coordinates": {"latitude": 41.8317333428683, "longitude": -71.5872223021108}, "transactions": [], "price": "$", "location": {"address1": "138 Danielson Pike", "address2": "", "address3": null, "city": "Scituate", "zip_code": "02857", "country": "US", "state": "RI", "display_address": ["138 Danielson Pike", "Scituate, RI 02857"]}, "phone": "+14017645334", "display_phone": "(401) 764-5334", "distance": 8512.53404600935}, {"id": "xRX6BY2Dpt_CwsdeusMLaQ", "alias": "bishop-hill-tavern-johnston", "name": "Bishop Hill Tavern", "image_url": "https://s3-media2.fl.yelpcdn.com/bphoto/qcQrq161B_nYcQHTPBk1jw/o.jpg", "is_closed": false, "url": "https://www.yelp.com/biz/bishop-hill-tavern-johnston?adjust_creative=pzvBKuEUl0Vl1jtHQqJaog&utm_campaign=yelp_api_v3&utm_medium=api_v3_business_search&utm_source=pzvBKuEUl0Vl1jtHQqJaog", "review_count": 42, "categories": [{"alias": "bars", "title": "Bars"}, {"alias": "tradamerican", "title": "American (Traditional)"}], "rating": 3.5, "coordinates": {"latitude": 41.8341827392578, "longitude": -71.5630416870117}, "transactions": ["delivery"], "price": "$$", "location": {"address1": "2868 Hartford Ave", "address2": "", "address3": "", "city": "Johnston", "zip_code": "02919", "country": "US", "state": "RI", "display_address": ["2868 Hartford Ave", "Johnston, RI 02919"]}, "phone": "+14019340097", "display_phone": "(401) 934-0097", "distance": 10131.556604331266}, {"id": "iQERhkvJV4uYBXfi6Yw0uQ", "alias": "cuozzos-pizza-and-restaurant-north-scituate", "name": "Cuozzo's Pizza & Restaurant", "image_url": "https://s3-media1.fl.yelpcdn.com/bphoto/ACnmvmOFUnHUOQR3vM8sfw/o.jpg", "is_closed": false, "url": "https://www.yelp.com/biz/cuozzos-pizza-and-restaurant-north-scituate?adjust_creative=pzvBKuEUl0Vl1jtHQqJaog&utm_campaign=yelp_api_v3&utm_medium=api_v3_business_search&utm_source=pzvBKuEUl0Vl1jtHQqJaog", "review_count": 27, "categories": [{"alias": "pizza", "title": "Pizza"}], "rating": 4.0, "coordinates": {"latitude": 41.836267, "longitude": -71.574671}, "transactions": [], "price": "$$", "location": {"address1": "27 Village Plaza Way", "address2": "", "address3": "", "city": "North Scituate", "zip_code": "02857", "country": "US", "state": "RI", "display_address": ["27 Village Plaza Way", "North Scituate, RI 02857"]}, "phone": "+14019343040", "display_phone": "(401) 934-3040", "distance": 9589.44838446478}, {"id": "-ywXNp1-Pw_cH4KRb9W_Bg", "alias": "rufinos-pizzeria-scituate", "name": "Rufinos Pizzeria", "image_url": "https://s3-media1.fl.yelpcdn.com/bphoto/a1LrkZE-JOUjFnMEF1LCFg/o.jpg", "is_closed": false, "url": "https://www.yelp.com/biz/rufinos-pizzeria-scituate?adjust_creative=pzvBKuEUl0Vl1jtHQqJaog&utm_campaign=yelp_api_v3&utm_medium=api_v3_business_search&utm_source=pzvBKuEUl0Vl1jtHQqJaog", "review_count": 15, "categories": [{"alias": "pizza", "title": "Pizza"}], "rating": 3.5, "coordinates": {"latitude": 41.7304469480088, "longitude": -71.5635037782368}, "transactions": ["delivery", "pickup"], "location": {"address1": "4 Hope Furnace Rd", "address2": "", "address3": null, "city": "Scituate", "zip_code": "02831", "country": "US", "state": "RI", "display_address": ["4 Hope Furnace Rd", "Scituate, RI 02831"]}, "phone": "+14018261444", "display_phone": "(401) 826-1444", "distance": 9042.224479937451}, {"id": "4d2v3YTGmHstrHOGLQr1cg", "alias": "luckys-bar-and-pizza-foster", "name": "Lucky's Bar & Pizza", "image_url": "https://s3-media4.fl.yelpcdn.com/bphoto/6T5JF0ZZQ4_BKieUnSBQwA/o.jpg", "is_closed": false, "url": "https://www.yelp.com/biz/luckys-bar-and-pizza-foster?adjust_creative=pzvBKuEUl0Vl1jtHQqJaog&utm_campaign=yelp_api_v3&utm_medium=api_v3_business_search&utm_source=pzvBKuEUl0Vl1jtHQqJaog", "review_count": 9, "categories": [{"alias": "pizza", "title": "Pizza"}, {"alias": "bars", "title": "Bars"}], "rating": 4.0, "coordinates": {"latitude": 41.81252, "longitude": -71.7526}, "transactions": [], "price": "$$", "location": {"address1": "143 Danielson Pike", "address2": "", "address3": "", "city": "Foster", "zip_code": "02825", "country": "US", "state": "RI", "display_address": ["143 Danielson Pike", "Foster, RI 02825"]}, "phone": "+14016472537", "display_phone": "(401) 647-2537", "distance": 9005.081293702908}, {"id": "yIdM359GPsqjvL__3kYCBA", "alias": "cindys-diner-and-restaurant-north-scituate", "name": "Cindy's Diner & Restaurant", "image_url": "https://s3-media3.fl.yelpcdn.com/bphoto/U3f3b4L0GhPekaOSNReSjQ/o.jpg", "is_closed": false, "url": "https://www.yelp.com/biz/cindys-diner-and-restaurant-north-scituate?adjust_creative=pzvBKuEUl0Vl1jtHQqJaog&utm_campaign=yelp_api_v3&utm_medium=api_v3_business_search&utm_source=pzvBKuEUl0Vl1jtHQqJaog", "review_count": 63, "categories": [{"alias": "diners", "title": "Diners"}], "rating": 4.0, "coordinates": {"latitude": 41.8350677490234, "longitude": -71.5728378295898}, "transactions": [], "price": "$", "location": {"address1": "46 Hartford Ave", "address2": "", "address3": "", "city": "North Scituate", "zip_code": "02857", "country": "US", "state": "RI", "display_address": ["46 Hartford Ave", "North Scituate, RI 02857"]}, "phone": "+14019342449", "display_phone": "(401) 934-2449", "distance": 9602.114870336904}, {"id": "UasRQvWFBusL3JhUFimtcg", "alias": "farmstand-cafe-and-bakery-scituate", "name": "Farmstand cafe and bakery", "image_url": "https://s3-media1.fl.yelpcdn.com/bphoto/65wAHNdl2dxKAAa9NQZjQA/o.jpg", "is_closed": false, "url": "https://www.yelp.com/biz/farmstand-cafe-and-bakery-scituate?adjust_creative=pzvBKuEUl0Vl1jtHQqJaog&utm_campaign=yelp_api_v3&utm_medium=api_v3_business_search&utm_source=pzvBKuEUl0Vl1jtHQqJaog", "review_count": 1, "categories": [{"alias": "breakfast_brunch", "title": "Breakfast & Brunch"}, {"alias": "sandwiches", "title": "Sandwiches"}, {"alias": "bakeries", "title": "Bakeries"}], "rating": 1.0, "coordinates": {"latitude": 41.842216, "longitude": -71.676623}, "transactions": [], "location": {"address1": "985 Chopmist Hill Rd", "address2": null, "address3": "", "city": "Scituate", "zip_code": "02857", "country": "US", "state": "RI", "display_address": ["985 Chopmist Hill Rd", "Scituate, RI 02857"]}, "phone": "+14016475423", "display_phone": "(401) 647-5423", "distance": 7749.252658989043}, {"id": "6DLCTSRkVrRqpz_aW5798w", "alias": "china-garden-scituate", "name": "China Garden", "image_url": "https://s3-media2.fl.yelpcdn.com/bphoto/WJV9dzNnqpB1VYTsNbxtTQ/o.jpg", "is_closed": false, "url": "https://www.yelp.com/biz/china-garden-scituate?adjust_creative=pzvBKuEUl0Vl1jtHQqJaog&utm_campaign=yelp_api_v3&utm_medium=api_v3_business_search&utm_source=pzvBKuEUl0Vl1jtHQqJaog", "review_count": 24, "categories": [{"alias": "chinese", "title": "Chinese"}], "rating": 4.0, "coordinates": {"latitude": 41.8363533, "longitude": -71.5737762}, "transactions": ["delivery"], "price": "$", "location": {"address1": "37 Village Plz Way", "address2": "", "address3": "", "city": "Scituate", "zip_code": "02857", "country": "US", "state": "RI", "display_address": ["37 Village Plz Way", "Scituate, RI 02857"]}, "phone": "+14019499888", "display_phone": "(401) 949-9888", "distance": 9685.647666225112}, {"id": "ZWBP1rGxYoY1IGFf-RYeOw", "alias": "gentleman-farmer-restaurant-and-pizza-north-scituate", "name": "Gentleman Farmer Restaurant & Pizza", "image_url": "https://s3-media3.fl.yelpcdn.com/bphoto/DKW5_0KV073XFcVkCGL8oA/o.jpg", "is_closed": false, "url": "https://www.yelp.com/biz/gentleman-farmer-restaurant-and-pizza-north-scituate?adjust_creative=pzvBKuEUl0Vl1jtHQqJaog&utm_campaign=yelp_api_v3&utm_medium=api_v3_business_search&utm_source=pzvBKuEUl0Vl1jtHQqJaog", "review_count": 4, "categories": [{"alias": "pizza", "title": "Pizza"}], "rating": 3.0, "coordinates": {"latitude": 41.833351, "longitude": -71.579368}, "transactions": [], "location": {"address1": "50 Danielson Pike", "address2": "", "address3": "", "city": "North Scituate", "zip_code": "02857", "country": "US", "state": "RI", "display_address": ["50 Danielson Pike", "North Scituate, RI 02857"]}, "phone": "+14016477774", "display_phone": "(401) 647-7774", "distance": 9085.641893074406}, {"id": "2EtFxzmiD2al24fRXeOS6g", "alias": "expressos-pizza-restaurant-johnston", "name": "Expressos Pizza Restaurant", "image_url": "https://s3-media3.fl.yelpcdn.com/bphoto/iin33BYQ6RQyy06L1DQ43w/o.jpg", "is_closed": false, "url": "https://www.yelp.com/biz/expressos-pizza-restaurant-johnston?adjust_creative=pzvBKuEUl0Vl1jtHQqJaog&utm_campaign=yelp_api_v3&utm_medium=api_v3_business_search&utm_source=pzvBKuEUl0Vl1jtHQqJaog", "review_count": 15, "categories": [{"alias": "italian", "title": "Italian"}, {"alias": "pizza", "title": "Pizza"}], "rating": 4.0, "coordinates": {"latitude": 41.8352012634277, "longitude": -71.5660705566406}, "transactions": ["delivery"], "price": "$", "location": {"address1": "2949 Hartford Ave", "address2": null, "address3": null, "city": "Johnston", "zip_code": "02919", "country": "US", "state": "RI", "display_address": ["2949 Hartford Ave", "Johnston, RI 02919"]}, "phone": "+14019342515", "display_phone": "(401) 934-2515", "distance": 10005.137779698458}, {"id": "kAba61pAXVA8TgN5lFDxFA", "alias": "big-daddys-pizza-coventry", "name": "Big Daddy's Pizza", "image_url": "", "is_closed": false, "url": "https://www.yelp.com/biz/big-daddys-pizza-coventry?adjust_creative=pzvBKuEUl0Vl1jtHQqJaog&utm_campaign=yelp_api_v3&utm_medium=api_v3_business_search&utm_source=pzvBKuEUl0Vl1jtHQqJaog", "review_count": 1, "categories": [{"alias": "restaurants", "title": "Restaurants"}], "rating": 5.0, "coordinates": {"latitude": 41.7046809196472, "longitude": -71.6160059720278}, "transactions": [], "location": {"address1": "2246 Flat River Rd", "address2": null, "address3": null, "city": "Coventry", "zip_code": "02816", "country": "US", "state": "RI", "display_address": ["2246 Flat River Rd", "Coventry, RI 02816"]}, "phone": "+14013853660", "display_phone": "(401) 385-3660", "distance": 8435.368695730045}, {"id": "JIhRVJ4BAWPH9NZ0u-7Wzw", "alias": "flip-n-roll-fall-river", "name": "Flip N Roll", "image_url": "https://s3-media1.fl.yelpcdn.com/bphoto/A3l1k85peGnmCC17j-Bmhg/o.jpg", "is_closed": false, "url": "https://www.yelp.com/biz/flip-n-roll-fall-river?adjust_creative=pzvBKuEUl0Vl1jtHQqJaog&utm_campaign=yelp_api_v3&utm_medium=api_v3_business_search&utm_source=pzvBKuEUl0Vl1jtHQqJaog", "review_count": 1, "categories": [{"alias": "foodtrucks", "title": "Food Trucks"}, {"alias": "tradamerican", "title": "American (Traditional)"}, {"alias": "portuguese", "title": "Portuguese"}], "rating": 1.0, "coordinates": {"latitude": 41.68687, "longitude": -71.17062}, "transactions": [], "price": "$$", "location": {"address1": "", "address2": "", "address3": "", "city": "Fall River", "zip_code": "02724", "country": "US", "state": "MA", "display_address": ["Fall River, MA 02724"]}, "phone": "", "display_phone": "", "distance": 41019.33827611461}, {"id": "Io4C5tUwnb_YzeaMXHBqBA", "alias": "shuckin-truck-narragansett-2", "name": "Shuckin Truck", "image_url": "https://s3-media2.fl.yelpcdn.com/bphoto/r7QRORfe9UYVS7GGzUm9DQ/o.jpg", "is_closed": false, "url": "https://www.yelp.com/biz/shuckin-truck-narragansett-2?adjust_creative=pzvBKuEUl0Vl1jtHQqJaog&utm_campaign=yelp_api_v3&utm_medium=api_v3_business_search&utm_source=pzvBKuEUl0Vl1jtHQqJaog", "review_count": 24, "categories": [{"alias": "foodtrucks", "title": "Food Trucks"}, {"alias": "seafood", "title": "Seafood"}], "rating": 4.5, "coordinates": {"latitude": 41.4274482727051, "longitude": -71.4597778320313}, "transactions": [], "price": "$$", "location": {"address1": "", "address2": "", "address3": "", "city": "Narragansett", "zip_code": "02882", "country": "US", "state": "RI", "display_address": ["Narragansett, RI 02882"]}, "phone": "+14017415953", "display_phone": "(401) 741-5953", "distance": 44031.434743592195}, {"id": "324pp6avrBFbzw059DoHsA", "alias": "roadies-raleigh", "name": "Roadies", "image_url": "https://s3-media2.fl.yelpcdn.com/bphoto/3zJZmmgIOYrfKoAOp9Du1w/o.jpg", "is_closed": false, "url": "https://www.yelp.com/biz/roadies-raleigh?adjust_creative=pzvBKuEUl0Vl1jtHQqJaog&utm_campaign=yelp_api_v3&utm_medium=api_v3_business_search&utm_source=pzvBKuEUl0Vl1jtHQqJaog", "review_count": 10, "categories": [{"alias": "foodtrucks", "title": "Food Trucks"}, {"alias": "seafood", "title": "Seafood"}], "rating": 4.5, "coordinates": {"latitude": 35.67575, "longitude": -78.66424}, "transactions": [], "price": "$", "location": {"address1": "", "address2": null, "address3": "", "city": "Raleigh", "zip_code": "27603", "country": "US", "state": "NC", "display_address": ["Raleigh, NC 27603"]}, "phone": "+13476136489", "display_phone": "(347) 613-6489", "distance": 912109.642265633}]