[{"id": "KbBn_5a-ka3_6Hpw9IRbQA", "alias": "dead-eye-dicks-block-island", "name": "Dead Eye Dick's", "image_url": "https://s3-media1.fl.yelpcdn.com/bphoto/nA4CBGDK3cLTjM83zg2-gg/o.jpg", "is_closed": false, "url": "https://www.yelp.com/biz/dead-eye-dicks-block-island?adjust_creative=pzvBKuEUl0Vl1jtHQqJaog&utm_campaign=yelp_api_v3&utm_medium=api_v3_business_search&utm_source=pzvBKuEUl0Vl1jtHQqJaog", "review_count": 164, "categories": [{"alias": "newamerican", "title": "American (New)"}, {"alias": "seafood", "title": "Seafood"}], "rating": 4.0, "coordinates": {"latitude": 41.18077, "longitude": -71.573932}, "transactions": [], "price": "$$", "location": {"address1": "218 Ocean Ave", "address2": "", "address3": "", "city": "Block Island", "zip_code": "02807", "country": "US", "state": "RI", "display_address": ["218 Ocean Ave", "Block Island, RI 02807"]}, "phone": "+14014662654", "display_phone": "(401) 466-2654", "distance": 991.7172013944344}, {"id": "3Co1G20l2kbtkN-cFHm83g", "alias": "the-oar-block-island", "name": "The Oar", "image_url": "https://s3-media1.fl.yelpcdn.com/bphoto/iMMTvbs3_qJbnollOa0rKw/o.jpg", "is_closed": false, "url": "https://www.yelp.com/biz/the-oar-block-island?adjust_creative=pzvBKuEUl0Vl1jtHQqJaog&utm_campaign=yelp_api_v3&utm_medium=api_v3_business_search&utm_source=pzvBKuEUl0Vl1jtHQqJaog", "review_count": 225, "categories": [{"alias": "seafood", "title": "Seafood"}], "rating": 3.5, "coordinates": {"latitude": 41.1818946199, "longitude": -71.577764053}, "transactions": [], "price": "$$", "location": {"address1": "221 Jobs Hill Rd", "address2": "", "address3": "", "city": "Block Island", "zip_code": "02807", "country": "US", "state": "RI", "display_address": ["221 Jobs Hill Rd", "Block Island, RI 02807"]}, "phone": "+14014668820", "display_phone": "(401) 466-8820", "distance": 787.4909405683084}, {"id": "YCpYqrQCduPHcnL3Fl0dYw", "alias": "poor-peoples-pub-new-shoreham", "name": "Poor People's Pub", "image_url": "https://s3-media2.fl.yelpcdn.com/bphoto/27AeMOeDXCR0NKwiluiaHw/o.jpg", "is_closed": false, "url": "https://www.yelp.com/biz/poor-peoples-pub-new-shoreham?adjust_creative=pzvBKuEUl0Vl1jtHQqJaog&utm_campaign=yelp_api_v3&utm_medium=api_v3_business_search&utm_source=pzvBKuEUl0Vl1jtHQqJaog", "review_count": 197, "categories": [{"alias": "pubs", "title": "Pubs"}, {"alias": "tradamerican", "title": "American (Traditional)"}], "rating": 4.0, "coordinates": {"latitude": 41.1736, "longitude": -71.56297}, "transactions": [], "price": "$$", "location": {"address1": "33 Ocean Ave", "address2": "", "address3": "", "city": "New Shoreham", "zip_code": "02807", "country": "US", "state": "RI", "display_address": ["33 Ocean Ave", "New Shoreham, RI 02807"]}, "phone": "+14014668533", "display_phone": "(401) 466-8533", "distance": 2144.042543783229}, {"id": "LSpJIrRSYkiBbHh7Ko8hdQ", "alias": "kimberlys-block-island", "name": "Kimberly's", "image_url": "https://s3-media3.fl.yelpcdn.com/bphoto/e1GiLjd4qnp-0Bjs_1H2vw/o.jpg", "is_closed": false, "url": "https://www.yelp.com/biz/kimberlys-block-island?adjust_creative=pzvBKuEUl0Vl1jtHQqJaog&utm_campaign=yelp_api_v3&utm_medium=api_v3_business_search&utm_source=pzvBKuEUl0Vl1jtHQqJaog", "review_count": 81, "categories": [{"alias": "seafood", "title": "Seafood"}, {"alias": "asianfusion", "title": "Asian Fusion"}, {"alias": "newamerican", "title": "American (New)"}], "rating": 4.5, "coordinates": {"latitude": 41.1740419, "longitude": -71.5623649}, "transactions": [], "price": "$$", "location": {"address1": "238 Ocean Ave", "address2": "", "address3": "", "city": "Block Island", "zip_code": "02807", "country": "US", "state": "RI", "display_address": ["238 Ocean Ave", "Block Island, RI 02807"]}, "phone": "+14014668600", "display_phone": "(401) 466-8600", "distance": 2100.1045278204942}, {"id": "CrI3hlXiD47wIi_PkdIk4w", "alias": "tigerfish-block-island", "name": "TigerFish", "image_url": "https://s3-media3.fl.yelpcdn.com/bphoto/hi9jaT9dTnIc6k-5-rXDpA/o.jpg", "is_closed": false, "url": "https://www.yelp.com/biz/tigerfish-block-island?adjust_creative=pzvBKuEUl0Vl1jtHQqJaog&utm_campaign=yelp_api_v3&utm_medium=api_v3_business_search&utm_source=pzvBKuEUl0Vl1jtHQqJaog", "review_count": 51, "categories": [{"alias": "asianfusion", "title": "Asian Fusion"}], "rating": 4.0, "coordinates": {"latitude": 41.1738, "longitude": -71.56182}, "transactions": [], "price": "$$", "location": {"address1": "126 Corn Neck Rd", "address2": "", "address3": null, "city": "Block Island", "zip_code": "02807", "country": "US", "state": "RI", "display_address": ["126 Corn Neck Rd", "Block Island, RI 02807"]}, "phone": "+14014662300", "display_phone": "(401) 466-2300", "distance": 2130.888886046908}, {"id": "SdPZLVR8WNysRq2fxcXGdA", "alias": "elis-block-island", "name": "Eli's", "image_url": "https://s3-media3.fl.yelpcdn.com/bphoto/uW6zN_gRw_J-qVLQHVf1aA/o.jpg", "is_closed": false, "url": "https://www.yelp.com/biz/elis-block-island?adjust_creative=pzvBKuEUl0Vl1jtHQqJaog&utm_campaign=yelp_api_v3&utm_medium=api_v3_business_search&utm_source=pzvBKuEUl0Vl1jtHQqJaog", "review_count": 79, "categories": [{"alias": "newamerican", "title": "American (New)"}], "rating": 4.0, "coordinates": {"latitude": 41.1731399, "longitude": -71.55919}, "transactions": [], "price": "$$$", "location": {"address1": "456 Chapel St", "address2": "", "address3": "", "city": "Block Island", "zip_code": "02807", "country": "US", "state": "RI", "display_address": ["456 Chapel St", "Block Island, RI 02807"]}, "phone": "+14014665230", "display_phone": "(401) 466-5230", "distance": 2405.2041963519714}, {"id": "S_kHH0uhXgwfJlkCbVmjyw", "alias": "block-island-oyster-bar-and-grill-new-shoreham-2", "name": "Block Island Oyster Bar and Grill", "image_url": "https://s3-media3.fl.yelpcdn.com/bphoto/89Btk-cWMFArmxHStzSK1Q/o.jpg", "is_closed": false, "url": "https://www.yelp.com/biz/block-island-oyster-bar-and-grill-new-shoreham-2?adjust_creative=pzvBKuEUl0Vl1jtHQqJaog&utm_campaign=yelp_api_v3&utm_medium=api_v3_business_search&utm_source=pzvBKuEUl0Vl1jtHQqJaog", "review_count": 2, "categories": [{"alias": "bars", "title": "Bars"}, {"alias": "tradamerican", "title": "American (Traditional)"}, {"alias": "tapasmallplates", "title": "Tapas/Small Plates"}], "rating": 3.5, "coordinates": {"latitude": 41.183668, "longitude": -71.583515}, "transactions": [], "location": {"address1": "79 West Side Rd", "address2": "Champlin's Marina", "address3": null, "city": "New Shoreham", "zip_code": "02807", "country": "US", "state": "RI", "display_address": ["79 West Side Rd", "Champlin's Marina", "New Shoreham, RI 02807"]}, "phone": "+14014662110", "display_phone": "(401) 466-2110", "distance": 712.8794566715865}, {"id": "IFOUT9IO99ZwLT8KNHceKw", "alias": "mohegan-cafe-and-brewery-block-island", "name": "Mohegan Cafe & Brewery", "image_url": "https://s3-media2.fl.yelpcdn.com/bphoto/WWXvr5UNDbk4JdpThH67Lw/o.jpg", "is_closed": false, "url": "https://www.yelp.com/biz/mohegan-cafe-and-brewery-block-island?adjust_creative=pzvBKuEUl0Vl1jtHQqJaog&utm_campaign=yelp_api_v3&utm_medium=api_v3_business_search&utm_source=pzvBKuEUl0Vl1jtHQqJaog", "review_count": 180, "categories": [{"alias": "newamerican", "title": "American (New)"}, {"alias": "burgers", "title": "Burgers"}, {"alias": "bars", "title": "Bars"}], "rating": 4.0, "coordinates": {"latitude": 41.1726296196, "longitude": -71.5579998493195}, "transactions": [], "price": "$$", "location": {"address1": "213 Water St", "address2": "", "address3": "", "city": "Block Island", "zip_code": "02807", "country": "US", "state": "RI", "display_address": ["213 Water St", "Block Island, RI 02807"]}, "phone": "+14014665911", "display_phone": "(401) 466-5911", "distance": 2506.8615262231156}, {"id": "wokOEZ7rRnwcfpHMOT2BSQ", "alias": "atlantic-inn-block-island", "name": "Atlantic Inn", "image_url": "https://s3-media4.fl.yelpcdn.com/bphoto/nDiqZp1sYwfrj2xJ2FF9XA/o.jpg", "is_closed": false, "url": "https://www.yelp.com/biz/atlantic-inn-block-island?adjust_creative=pzvBKuEUl0Vl1jtHQqJaog&utm_campaign=yelp_api_v3&utm_medium=api_v3_business_search&utm_source=pzvBKuEUl0Vl1jtHQqJaog", "review_count": 47, "categories": [{"alias": "hotels", "title": "Hotels"}, {"alias": "newamerican", "title": "American (New)"}], "rating": 4.0, "coordinates": {"latitude": 41.1678969647031, "longitude": -71.5570020675659}, "transactions": [], "price": "$$$", "location": {"address1": "359 High St", "address2": "", "address3": "", "city": "Block Island", "zip_code": "02807", "country": "US", "state": "RI", "display_address": ["359 High St", "Block Island, RI 02807"]}, "phone": "+14014665883", "display_phone": "(401) 466-5883", "distance": 2960.861871464993}, {"id": "zkxs0P71VQR73Jyvgps_Fg", "alias": "ballards-beach-resort-block-island", "name": "Ballard's Beach Resort", "image_url": "https://s3-media2.fl.yelpcdn.com/bphoto/KtbBZu-nyKELmXgC35phCQ/o.jpg", "is_closed": false, "url": "https://www.yelp.com/biz/ballards-beach-resort-block-island?adjust_creative=pzvBKuEUl0Vl1jtHQqJaog&utm_campaign=yelp_api_v3&utm_medium=api_v3_business_search&utm_source=pzvBKuEUl0Vl1jtHQqJaog", "review_count": 155, "categories": [{"alias": "restaurants", "title": "Restaurants"}, {"alias": "beaches", "title": "Beaches"}, {"alias": "eventplanning", "title": "Party & Event Planning"}], "rating": 3.0, "coordinates": {"latitude": 41.172867, "longitude": -71.555089}, "transactions": [], "price": "$$$", "location": {"address1": "42 Water St", "address2": "", "address3": "", "city": "Block Island", "zip_code": "02807", "country": "US", "state": "RI", "display_address": ["42 Water St", "Block Island, RI 02807"]}, "phone": "+14014662231", "display_phone": "(401) 466-2231", "distance": 2663.0073824788633}, {"id": "JZhzTwSsocyogfU9qTOktg", "alias": "winfields-block-island", "name": "Winfield's", "image_url": "https://s3-media1.fl.yelpcdn.com/bphoto/lGRZKxw_von3GfwJMEc8TQ/o.jpg", "is_closed": false, "url": "https://www.yelp.com/biz/winfields-block-island?adjust_creative=pzvBKuEUl0Vl1jtHQqJaog&utm_campaign=yelp_api_v3&utm_medium=api_v3_business_search&utm_source=pzvBKuEUl0Vl1jtHQqJaog", "review_count": 47, "categories": [{"alias": "french", "title": "French"}, {"alias": "newamerican", "title": "American (New)"}, {"alias": "italian", "title": "Italian"}], "rating": 4.5, "coordinates": {"latitude": 41.174463, "longitude": -71.561312}, "transactions": [], "price": "$$$", "location": {"address1": "Corn Neck Rd", "address2": "", "address3": "", "city": "Block Island", "zip_code": "02807", "country": "US", "state": "RI", "display_address": ["Corn Neck Rd", "Block Island, RI 02807"]}, "phone": "+14014665856", "display_phone": "(401) 466-5856", "distance": 2168.8388144100513}, {"id": "DwLv1mfjoMUnpjKclBEAIg", "alias": "the-beachead-block-island", "name": "The Beachead", "image_url": "https://s3-media2.fl.yelpcdn.com/bphoto/WUhkNEM5OO71eiJqmxxCHw/o.jpg", "is_closed": false, "url": "https://www.yelp.com/biz/the-beachead-block-island?adjust_creative=pzvBKuEUl0Vl1jtHQqJaog&utm_campaign=yelp_api_v3&utm_medium=api_v3_business_search&utm_source=pzvBKuEUl0Vl1jtHQqJaog", "review_count": 144, "categories": [{"alias": "seafood", "title": "Seafood"}], "rating": 4.0, "coordinates": {"latitude": 41.175841, "longitude": -71.562362}, "transactions": [], "price": "$$", "location": {"address1": "598 Corn Neck Rd", "address2": "", "address3": "", "city": "Block Island", "zip_code": "02807", "country": "US", "state": "RI", "display_address": ["598 Corn Neck Rd", "Block Island, RI 02807"]}, "phone": "+14014662249", "display_phone": "(401) 466-2249", "distance": 2002.4842110307911}, {"id": "8D095Yn_7H6652EksAUFbA", "alias": "southeast-light-delights-block-island", "name": "Southeast Light Delights", "image_url": "https://s3-media2.fl.yelpcdn.com/bphoto/YCQSFDxW6i-qiGmGetnWFA/o.jpg", "is_closed": false, "url": "https://www.yelp.com/biz/southeast-light-delights-block-island?adjust_creative=pzvBKuEUl0Vl1jtHQqJaog&utm_campaign=yelp_api_v3&utm_medium=api_v3_business_search&utm_source=pzvBKuEUl0Vl1jtHQqJaog", "review_count": 21, "categories": [{"alias": "tradamerican", "title": "American (Traditional)"}, {"alias": "seafood", "title": "Seafood"}, {"alias": "foodtrucks", "title": "Food Trucks"}], "rating": 5.0, "coordinates": {"latitude": 41.15336, "longitude": -71.552522}, "transactions": [], "price": "$$", "location": {"address1": "122 Mohegan Trl", "address2": "", "address3": "Southeast Lighthouse", "city": "Block Island", "zip_code": "02807", "country": "US", "state": "RI", "display_address": ["122 Mohegan Trl", "Southeast Lighthouse", "Block Island, RI 02807"]}, "phone": "+14014870422", "display_phone": "(401) 487-0422", "distance": 4521.8513324200485}, {"id": "pNRuAuunMNz2Uu-1dbanKw", "alias": "manisses-block-island-2", "name": "Manisses", "image_url": "https://s3-media1.fl.yelpcdn.com/bphoto/yrEd8FZxHv26m26v9aaWCQ/o.jpg", "is_closed": false, "url": "https://www.yelp.com/biz/manisses-block-island-2?adjust_creative=pzvBKuEUl0Vl1jtHQqJaog&utm_campaign=yelp_api_v3&utm_medium=api_v3_business_search&utm_source=pzvBKuEUl0Vl1jtHQqJaog", "review_count": 60, "categories": [{"alias": "seafood", "title": "Seafood"}], "rating": 3.5, "coordinates": {"latitude": 41.1706615, "longitude": -71.5572574}, "transactions": [], "price": "$$$", "location": {"address1": "251 Spring St", "address2": "", "address3": "", "city": "Block Island", "zip_code": "02807", "country": "US", "state": "RI", "display_address": ["251 Spring St", "Block Island, RI 02807"]}, "phone": "+14014669898", "display_phone": "(401) 466-9898", "distance": 2710.202363407728}, {"id": "3W6mqhdZctG2aRPgeMtNpg", "alias": "persephones-kitchen-block-island", "name": "Persephone's Kitchen", "image_url": "https://s3-media2.fl.yelpcdn.com/bphoto/fX-T4dWL874L0YchbjH93A/o.jpg", "is_closed": false, "url": "https://www.yelp.com/biz/persephones-kitchen-block-island?adjust_creative=pzvBKuEUl0Vl1jtHQqJaog&utm_campaign=yelp_api_v3&utm_medium=api_v3_business_search&utm_source=pzvBKuEUl0Vl1jtHQqJaog", "review_count": 88, "categories": [{"alias": "breakfast_brunch", "title": "Breakfast & Brunch"}, {"alias": "cafes", "title": "Cafes"}], "rating": 4.5, "coordinates": {"latitude": 41.17391, "longitude": -71.56076}, "transactions": [], "price": "$", "location": {"address1": "235 Dodge St", "address2": null, "address3": "", "city": "Block Island", "zip_code": "02807", "country": "US", "state": "RI", "display_address": ["235 Dodge St", "Block Island, RI 02807"]}, "phone": "+14014665070", "display_phone": "(401) 466-5070", "distance": 2250.742685439281}, {"id": "alm2mhwTfR8RGvEU-VPDww", "alias": "spring-house-restaurant-block-island-2", "name": "Spring House Restaurant", "image_url": "https://s3-media2.fl.yelpcdn.com/bphoto/rKZIaFqItwIAvXWl0lBrNA/o.jpg", "is_closed": false, "url": "https://www.yelp.com/biz/spring-house-restaurant-block-island-2?adjust_creative=pzvBKuEUl0Vl1jtHQqJaog&utm_campaign=yelp_api_v3&utm_medium=api_v3_business_search&utm_source=pzvBKuEUl0Vl1jtHQqJaog", "review_count": 32, "categories": [{"alias": "newamerican", "title": "American (New)"}], "rating": 3.5, "coordinates": {"latitude": 41.167127, "longitude": -71.555248}, "transactions": [], "price": "$$$", "location": {"address1": "52 Spring St", "address2": "", "address3": "", "city": "Block Island", "zip_code": "02807", "country": "US", "state": "RI", "display_address": ["52 Spring St", "Block Island, RI 02807"]}, "phone": "+14014665844", "display_phone": "(401) 466-5844", "distance": 3072.386151757648}, {"id": "xyZdt861u5JjWVfQh40b0Q", "alias": "the-surf-new-shoreham", "name": "The Surf", "image_url": "https://s3-media4.fl.yelpcdn.com/bphoto/Ief0jHLQaQ63tsXW9mr3dA/o.jpg", "is_closed": false, "url": "https://www.yelp.com/biz/the-surf-new-shoreham?adjust_creative=pzvBKuEUl0Vl1jtHQqJaog&utm_campaign=yelp_api_v3&utm_medium=api_v3_business_search&utm_source=pzvBKuEUl0Vl1jtHQqJaog", "review_count": 16, "categories": [{"alias": "tradamerican", "title": "American (Traditional)"}, {"alias": "seafood", "title": "Seafood"}], "rating": 3.0, "coordinates": {"latitude": 41.17436, "longitude": -71.55954}, "transactions": [], "location": {"address1": "32 Dodge St", "address2": "", "address3": null, "city": "New Shoreham", "zip_code": "02807", "country": "US", "state": "RI", "display_address": ["32 Dodge St", "New Shoreham, RI 02807"]}, "phone": "+14014665505", "display_phone": "(401) 466-5505", "distance": 2280.4992663505436}, {"id": "tyKbdkAl53P8nPdjVNMcDQ", "alias": "beach-bar-new-shoreham", "name": "Beach Bar", "image_url": "https://s3-media2.fl.yelpcdn.com/bphoto/6mndL8ucLqF64NozBamD9w/o.jpg", "is_closed": false, "url": "https://www.yelp.com/biz/beach-bar-new-shoreham?adjust_creative=pzvBKuEUl0Vl1jtHQqJaog&utm_campaign=yelp_api_v3&utm_medium=api_v3_business_search&utm_source=pzvBKuEUl0Vl1jtHQqJaog", "review_count": 2, "categories": [{"alias": "seafood", "title": "Seafood"}, {"alias": "cocktailbars", "title": "Cocktail Bars"}], "rating": 5.0, "coordinates": {"latitude": 41.17436, "longitude": -71.55954}, "transactions": [], "location": {"address1": "32 Dodge St", "address2": "", "address3": null, "city": "New Shoreham", "zip_code": "02807", "country": "US", "state": "RI", "display_address": ["32 Dodge St", "New Shoreham, RI 02807"]}, "phone": "+14014665505", "display_phone": "(401) 466-5505", "distance": 2280.4992663505436}, {"id": "ymvkG7W-YS6LEXaiLpbp2w", "alias": "the-national-hotel-tap-and-grille-block-island", "name": "The National Hotel Tap & Grille", "image_url": "https://s3-media1.fl.yelpcdn.com/bphoto/PAa-5jH5WpRTO6Us1PsT8A/o.jpg", "is_closed": false, "url": "https://www.yelp.com/biz/the-national-hotel-tap-and-grille-block-island?adjust_creative=pzvBKuEUl0Vl1jtHQqJaog&utm_campaign=yelp_api_v3&utm_medium=api_v3_business_search&utm_source=pzvBKuEUl0Vl1jtHQqJaog", "review_count": 114, "categories": [{"alias": "cocktailbars", "title": "Cocktail Bars"}, {"alias": "seafood", "title": "Seafood"}, {"alias": "steak", "title": "Steakhouses"}], "rating": 3.5, "coordinates": {"latitude": 41.17318, "longitude": -71.55841}, "transactions": [], "price": "$$$", "location": {"address1": "36 Water St", "address2": "", "address3": "", "city": "Block Island", "zip_code": "02807", "country": "US", "state": "RI", "display_address": ["36 Water St", "Block Island, RI 02807"]}, "phone": "+14014662901", "display_phone": "(401) 466-2901", "distance": 2330.479049203693}, {"id": "bflmL-ap3gqJbz4RJhZs5Q", "alias": "club-soda-block-island", "name": "Club Soda", "image_url": "https://s3-media3.fl.yelpcdn.com/bphoto/d_1araYFwexBXb-8Uam-aQ/o.jpg", "is_closed": false, "url": "https://www.yelp.com/biz/club-soda-block-island?adjust_creative=pzvBKuEUl0Vl1jtHQqJaog&utm_campaign=yelp_api_v3&utm_medium=api_v3_business_search&utm_source=pzvBKuEUl0Vl1jtHQqJaog", "review_count": 28, "categories": [{"alias": "bars", "title": "Bars"}, {"alias": "tradamerican", "title": "American (Traditional)"}, {"alias": "musicvenues", "title": "Music Venues"}], "rating": 4.0, "coordinates": {"latitude": 41.171357156473, "longitude": -71.566853991529}, "transactions": [], "price": "$$", "location": {"address1": "35 Connecticut Ave", "address2": "", "address3": "", "city": "Block Island", "zip_code": "02807", "country": "US", "state": "RI", "display_address": ["35 Connecticut Ave", "Block Island, RI 02807"]}, "phone": "+14014665397", "display_phone": "(401) 466-5397", "distance": 2191.4876891128183}, {"id": "BBmmCiIZtGC5xwJBHeL2tw", "alias": "yellow-kittens-block-island", "name": "Yellow Kittens", "image_url": "https://s3-media4.fl.yelpcdn.com/bphoto/TxGSA5ieVHZyvTERhB3rgA/o.jpg", "is_closed": false, "url": "https://www.yelp.com/biz/yellow-kittens-block-island?adjust_creative=pzvBKuEUl0Vl1jtHQqJaog&utm_campaign=yelp_api_v3&utm_medium=api_v3_business_search&utm_source=pzvBKuEUl0Vl1jtHQqJaog", "review_count": 44, "categories": [{"alias": "pubs", "title": "Pubs"}, {"alias": "mexican", "title": "Mexican"}], "rating": 3.5, "coordinates": {"latitude": 41.1745081530505, "longitude": -71.5613361807883}, "transactions": [], "price": "$$", "location": {"address1": "214 Corn Neck Rd", "address2": "", "address3": "", "city": "Block Island", "zip_code": "02807", "country": "US", "state": "RI", "display_address": ["214 Corn Neck Rd", "Block Island, RI 02807"]}, "phone": "+14014665855", "display_phone": "(401) 466-5855", "distance": 2163.7560837248193}, {"id": "_7z4PLOrE3p409PgC1_2uA", "alias": "three-sisters-block-island", "name": "Three Sisters", "image_url": "https://s3-media2.fl.yelpcdn.com/bphoto/lNVpZb1ly-LpZsg2_6uZFw/o.jpg", "is_closed": false, "url": "https://www.yelp.com/biz/three-sisters-block-island?adjust_creative=pzvBKuEUl0Vl1jtHQqJaog&utm_campaign=yelp_api_v3&utm_medium=api_v3_business_search&utm_source=pzvBKuEUl0Vl1jtHQqJaog", "review_count": 79, "categories": [{"alias": "sandwiches", "title": "Sandwiches"}, {"alias": "seafood", "title": "Seafood"}], "rating": 3.5, "coordinates": {"latitude": 41.17318, "longitude": -71.562008}, "transactions": [], "price": "$", "location": {"address1": "443 Old Town Rd", "address2": "", "address3": "", "city": "Block Island", "zip_code": "02807", "country": "US", "state": "RI", "display_address": ["443 Old Town Rd", "Block Island, RI 02807"]}, "phone": "+14014669661", "display_phone": "(401) 466-9661", "distance": 2240.0439598225266}, {"id": "Swiyh0g9HCyPOoZThdF1nQ", "alias": "aldos-restaurant-block-island", "name": "Aldo's Restaurant", "image_url": "https://s3-media4.fl.yelpcdn.com/bphoto/_LtwAuACn2LZkz4rSbFUDQ/o.jpg", "is_closed": false, "url": "https://www.yelp.com/biz/aldos-restaurant-block-island?adjust_creative=pzvBKuEUl0Vl1jtHQqJaog&utm_campaign=yelp_api_v3&utm_medium=api_v3_business_search&utm_source=pzvBKuEUl0Vl1jtHQqJaog", "review_count": 49, "categories": [{"alias": "italian", "title": "Italian"}, {"alias": "pizza", "title": "Pizza"}], "rating": 3.5, "coordinates": {"latitude": 41.172461, "longitude": -71.558787}, "transactions": [], "price": "$$", "location": {"address1": "130 Chapel St", "address2": "", "address3": "", "city": "Block Island", "zip_code": "02807", "country": "US", "state": "RI", "display_address": ["130 Chapel St", "Block Island, RI 02807"]}, "phone": "+14014665871", "display_phone": "(401) 466-5871", "distance": 2475.705190722473}, {"id": "CKnyu98JdUuM_MvLbfY6ww", "alias": "los-gatitos-block-island", "name": "Los Gatitos", "image_url": "https://s3-media1.fl.yelpcdn.com/bphoto/qrGd66skxJ_L1a7IbaXC2A/o.jpg", "is_closed": false, "url": "https://www.yelp.com/biz/los-gatitos-block-island?adjust_creative=pzvBKuEUl0Vl1jtHQqJaog&utm_campaign=yelp_api_v3&utm_medium=api_v3_business_search&utm_source=pzvBKuEUl0Vl1jtHQqJaog", "review_count": 22, "categories": [{"alias": "mexican", "title": "Mexican"}], "rating": 3.5, "coordinates": {"latitude": 41.1799087524414, "longitude": -71.5660934448242}, "transactions": [], "price": "$$", "location": {"address1": "214 Corn Neck Rd", "address2": null, "address3": "", "city": "Block Island", "zip_code": "02807", "country": "US", "state": "RI", "display_address": ["214 Corn Neck Rd", "Block Island, RI 02807"]}, "phone": "+14014665855", "display_phone": "(401) 466-5855", "distance": 2170.278093697444}, {"id": "exrhmN7te3DWgay2m6fZBw", "alias": "papas-pizzeria-block-island-2", "name": "Papa's Pizzeria", "image_url": "https://s3-media2.fl.yelpcdn.com/bphoto/IKT8HrhTFc3g5veZCwlKGg/o.jpg", "is_closed": false, "url": "https://www.yelp.com/biz/papas-pizzeria-block-island-2?adjust_creative=pzvBKuEUl0Vl1jtHQqJaog&utm_campaign=yelp_api_v3&utm_medium=api_v3_business_search&utm_source=pzvBKuEUl0Vl1jtHQqJaog", "review_count": 22, "categories": [{"alias": "pizza", "title": "Pizza"}, {"alias": "beerbar", "title": "Beer Bar"}], "rating": 3.5, "coordinates": {"latitude": 41.1773755, "longitude": -71.5634696}, "transactions": [], "price": "$", "location": {"address1": "125 Corn Neck Rd", "address2": "", "address3": "", "city": "Block Island", "zip_code": "02807", "country": "US", "state": "RI", "display_address": ["125 Corn Neck Rd", "Block Island, RI 02807"]}, "phone": "+14014669939", "display_phone": "(401) 466-9939", "distance": 1809.3183992967881}, {"id": "4Lm6094q7d5EV50kTy8bvQ", "alias": "rebeccas-seafood-takeout-block-island", "name": "Rebecca's Seafood Takeout", "image_url": "https://s3-media1.fl.yelpcdn.com/bphoto/8TMKMZGhaBl1sDaAxpLEeA/o.jpg", "is_closed": false, "url": "https://www.yelp.com/biz/rebeccas-seafood-takeout-block-island?adjust_creative=pzvBKuEUl0Vl1jtHQqJaog&utm_campaign=yelp_api_v3&utm_medium=api_v3_business_search&utm_source=pzvBKuEUl0Vl1jtHQqJaog", "review_count": 61, "categories": [{"alias": "seafood", "title": "Seafood"}], "rating": 3.5, "coordinates": {"latitude": 41.172407584901, "longitude": -71.557968817308}, "transactions": [], "price": "$$", "location": {"address1": "435 Water", "address2": "", "address3": "", "city": "Block Island", "zip_code": "02807", "country": "US", "state": "RI", "display_address": ["435 Water", "Block Island, RI 02807"]}, "phone": "+14014665411", "display_phone": "(401) 466-5411", "distance": 2526.5670602961527}, {"id": "nKOtxavtmpx_CuOsmA__cg", "alias": "mcaloons-new-shoreham", "name": "McAloon's", "image_url": "https://s3-media2.fl.yelpcdn.com/bphoto/lGivGvr8iNyfzjd-ldK8SQ/o.jpg", "is_closed": false, "url": "https://www.yelp.com/biz/mcaloons-new-shoreham?adjust_creative=pzvBKuEUl0Vl1jtHQqJaog&utm_campaign=yelp_api_v3&utm_medium=api_v3_business_search&utm_source=pzvBKuEUl0Vl1jtHQqJaog", "review_count": 22, "categories": [{"alias": "bars", "title": "Bars"}, {"alias": "irish", "title": "Irish"}, {"alias": "seafood", "title": "Seafood"}], "rating": 3.5, "coordinates": {"latitude": 41.174712, "longitude": -71.5617308}, "transactions": [], "price": "$$", "location": {"address1": "596 Corn Neck Rd", "address2": null, "address3": "", "city": "New Shoreham", "zip_code": "02807", "country": "US", "state": "RI", "display_address": ["596 Corn Neck Rd", "New Shoreham, RI 02807"]}, "phone": "+14014662928", "display_phone": "(401) 466-2928", "distance": 2124.8139847457956}, {"id": "3mYF4r_v1IuEBt4qlYylMA", "alias": "the-harbor-grill-block-island", "name": "The Harbor Grill", "image_url": "https://s3-media2.fl.yelpcdn.com/bphoto/cfboEwq3Ay1wjo4nFieKWA/o.jpg", "is_closed": false, "url": "https://www.yelp.com/biz/the-harbor-grill-block-island?adjust_creative=pzvBKuEUl0Vl1jtHQqJaog&utm_campaign=yelp_api_v3&utm_medium=api_v3_business_search&utm_source=pzvBKuEUl0Vl1jtHQqJaog", "review_count": 42, "categories": [{"alias": "newamerican", "title": "American (New)"}], "rating": 3.5, "coordinates": {"latitude": 41.172746667148, "longitude": -71.557981873819}, "transactions": [], "price": "$$", "location": {"address1": "213 Water St", "address2": "", "address3": "", "city": "Block Island", "zip_code": "02807", "country": "US", "state": "RI", "display_address": ["213 Water St", "Block Island, RI 02807"]}, "phone": "+14014662828", "display_phone": "(401) 466-2828", "distance": 2498.501068648729}, {"id": "cVT35gmuVcxXJKqgQbDpxA", "alias": "smugglers-cove-block-island", "name": "Smuggler's Cove", "image_url": "https://s3-media1.fl.yelpcdn.com/bphoto/wC-gFLvxGloCZ3bdCo3pzQ/o.jpg", "is_closed": false, "url": "https://www.yelp.com/biz/smugglers-cove-block-island?adjust_creative=pzvBKuEUl0Vl1jtHQqJaog&utm_campaign=yelp_api_v3&utm_medium=api_v3_business_search&utm_source=pzvBKuEUl0Vl1jtHQqJaog", "review_count": 1, "categories": [{"alias": "restaurants", "title": "Restaurants"}], "rating": 1.0, "coordinates": {"latitude": 41.17443, "longitude": -71.56636}, "transactions": [], "location": {"address1": "216 Ocean Ave", "address2": "", "address3": "", "city": "Block Island", "zip_code": "02807", "country": "US", "state": "RI", "display_address": ["216 Ocean Ave", "Block Island, RI 02807"]}, "phone": "+14014667961", "display_phone": "(401) 466-7961", "distance": 1052.8103451987631}, {"id": "lHG5xkNnUfO8XQ1mxvvkRA", "alias": "ernies-old-harbor-restaurant-block-island", "name": "Ernie's Old Harbor Restaurant", "image_url": "https://s3-media2.fl.yelpcdn.com/bphoto/K38D9mc8W1tDnNKmO5NtlA/o.jpg", "is_closed": false, "url": "https://www.yelp.com/biz/ernies-old-harbor-restaurant-block-island?adjust_creative=pzvBKuEUl0Vl1jtHQqJaog&utm_campaign=yelp_api_v3&utm_medium=api_v3_business_search&utm_source=pzvBKuEUl0Vl1jtHQqJaog", "review_count": 29, "categories": [{"alias": "newamerican", "title": "American (New)"}], "rating": 3.5, "coordinates": {"latitude": 41.1731796, "longitude": -71.5584106}, "transactions": [], "price": "$$", "location": {"address1": "212 Water St", "address2": "", "address3": "", "city": "Block Island", "zip_code": "02807", "country": "US", "state": "RI", "display_address": ["212 Water St", "Block Island, RI 02807"]}, "phone": "+14014662473", "display_phone": "(401) 466-2473", "distance": 2592.290469963061}, {"id": "Xjurx2z3zttDOCcvj2t-jw", "alias": "bethanys-airport-diner-block-island", "name": "Bethany's Airport Diner", "image_url": "https://s3-media2.fl.yelpcdn.com/bphoto/uZyt8EC2x2c6f5qCAzB20A/o.jpg", "is_closed": false, "url": "https://www.yelp.com/biz/bethanys-airport-diner-block-island?adjust_creative=pzvBKuEUl0Vl1jtHQqJaog&utm_campaign=yelp_api_v3&utm_medium=api_v3_business_search&utm_source=pzvBKuEUl0Vl1jtHQqJaog", "review_count": 47, "categories": [{"alias": "diners", "title": "Diners"}], "rating": 3.0, "coordinates": {"latitude": 41.1679292706735, "longitude": -71.5803909301758}, "transactions": [], "price": "$$", "location": {"address1": "4 Center Rd", "address2": "", "address3": "Block Island State Airport", "city": "Block Island", "zip_code": "02807", "country": "US", "state": "RI", "display_address": ["4 Center Rd", "Block Island State Airport", "Block Island, RI 02807"]}, "phone": "+14014663100", "display_phone": "(401) 466-3100", "distance": 2341.0848301188107}, {"id": "wKJStMQJ16e14Ao3MCIIng", "alias": "finns-seafood-block-island", "name": "Finn's Seafood", "image_url": "https://s3-media1.fl.yelpcdn.com/bphoto/kRL0tykLSYIftwcrhd82jw/o.jpg", "is_closed": false, "url": "https://www.yelp.com/biz/finns-seafood-block-island?adjust_creative=pzvBKuEUl0Vl1jtHQqJaog&utm_campaign=yelp_api_v3&utm_medium=api_v3_business_search&utm_source=pzvBKuEUl0Vl1jtHQqJaog", "review_count": 105, "categories": [{"alias": "seafood", "title": "Seafood"}, {"alias": "tradamerican", "title": "American (Traditional)"}], "rating": 3.0, "coordinates": {"latitude": 41.172541, "longitude": -71.556703}, "transactions": [], "price": "$$", "location": {"address1": "212 Water St", "address2": "", "address3": "", "city": "Block Island", "zip_code": "02807", "country": "US", "state": "RI", "display_address": ["212 Water St", "Block Island, RI 02807"]}, "phone": "+14014662473", "display_phone": "(401) 466-2473", "distance": 2589.8953319683537}, {"id": "uNl5No-js6I-AU2-MJ0SGg", "alias": "old-harbor-view-takeout-block-island", "name": "Old Harbor View Takeout", "image_url": "https://s3-media3.fl.yelpcdn.com/bphoto/wyHqunfjd40i3ppobIvGIw/o.jpg", "is_closed": false, "url": "https://www.yelp.com/biz/old-harbor-view-takeout-block-island?adjust_creative=pzvBKuEUl0Vl1jtHQqJaog&utm_campaign=yelp_api_v3&utm_medium=api_v3_business_search&utm_source=pzvBKuEUl0Vl1jtHQqJaog", "review_count": 22, "categories": [{"alias": "newamerican", "title": "American (New)"}], "rating": 3.0, "coordinates": {"latitude": 41.172485, "longitude": -71.557884}, "transactions": [], "price": "$$", "location": {"address1": "436 Water St", "address2": "", "address3": "", "city": "Block Island", "zip_code": "02807", "country": "US", "state": "RI", "display_address": ["436 Water St", "Block Island, RI 02807"]}, "phone": "+14014662183", "display_phone": "(401) 466-2183", "distance": 2517.512928545923}, {"id": "0nwPETlW6-wE6D2MEWx95Q", "alias": "the-brasserie-at-weekapaug-inn-westerly", "name": "The Brasserie at Weekapaug Inn", "image_url": "https://s3-media1.fl.yelpcdn.com/bphoto/KoCbccWBKdgqZ_F8ad4vLg/o.jpg", "is_closed": false, "url": "https://www.yelp.com/biz/the-brasserie-at-weekapaug-inn-westerly?adjust_creative=pzvBKuEUl0Vl1jtHQqJaog&utm_campaign=yelp_api_v3&utm_medium=api_v3_business_search&utm_source=pzvBKuEUl0Vl1jtHQqJaog", "review_count": 4, "categories": [{"alias": "french", "title": "French"}], "rating": 4.0, "coordinates": {"latitude": 41.328, "longitude": -71.7509}, "transactions": [], "location": {"address1": "25 Spray Rock Rd", "address2": "", "address3": null, "city": "Westerly", "zip_code": "02891", "country": "US", "state": "RI", "display_address": ["25 Spray Rock Rd", "Westerly, RI 02891"]}, "phone": "+14016377600", "display_phone": "(401) 637-7600", "distance": 21303.771254286134}, {"id": "AIoOg35r7ALZKbknRMcQPA", "alias": "the-restaurant-at-weekapaug-inn-westerly-3", "name": "The Restaurant at Weekapaug Inn", "image_url": "https://s3-media2.fl.yelpcdn.com/bphoto/BcwJIHr8Dhg4fYD6pWSU_A/o.jpg", "is_closed": false, "url": "https://www.yelp.com/biz/the-restaurant-at-weekapaug-inn-westerly-3?adjust_creative=pzvBKuEUl0Vl1jtHQqJaog&utm_campaign=yelp_api_v3&utm_medium=api_v3_business_search&utm_source=pzvBKuEUl0Vl1jtHQqJaog", "review_count": 14, "categories": [{"alias": "newamerican", "title": "American (New)"}, {"alias": "seafood", "title": "Seafood"}, {"alias": "breakfast_brunch", "title": "Breakfast & Brunch"}], "rating": 3.5, "coordinates": {"latitude": 41.33052, "longitude": -71.7503909}, "transactions": [], "price": "$$$$", "location": {"address1": "25 Spray Rock Rd", "address2": "", "address3": "", "city": "Westerly", "zip_code": "02891", "country": "US", "state": "RI", "display_address": ["25 Spray Rock Rd", "Westerly, RI 02891"]}, "phone": "+18443827769", "display_phone": "(844) 382-7769", "distance": 21303.771254286134}, {"id": "P8quhYOMgSEFjJblyPeNJQ", "alias": "frankies-pizza-company-westerly", "name": "Frankie's Pizza Company", "image_url": "https://s3-media1.fl.yelpcdn.com/bphoto/zISL5KzNYlUoCMin23SBxg/o.jpg", "is_closed": false, "url": "https://www.yelp.com/biz/frankies-pizza-company-westerly?adjust_creative=pzvBKuEUl0Vl1jtHQqJaog&utm_campaign=yelp_api_v3&utm_medium=api_v3_business_search&utm_source=pzvBKuEUl0Vl1jtHQqJaog", "review_count": 4, "categories": [{"alias": "pizza", "title": "Pizza"}], "rating": 2.0, "coordinates": {"latitude": 41.330637, "longitude": -71.764972}, "transactions": [], "location": {"address1": "662 Atlantic Ave", "address2": null, "address3": "", "city": "Westerly", "zip_code": "02891", "country": "US", "state": "RI", "display_address": ["662 Atlantic Ave", "Westerly, RI 02891"]}, "phone": "+14013152780", "display_phone": "(401) 315-2780", "distance": 22141.490478686064}, {"id": "vqID4TfMKP7v3FjEEmhCrA", "alias": "breachway-pizza-westerly", "name": "Breachway Pizza", "image_url": "https://s3-media2.fl.yelpcdn.com/bphoto/IGlyVr1WQ3mS3f0-0fVGSQ/o.jpg", "is_closed": false, "url": "https://www.yelp.com/biz/breachway-pizza-westerly?adjust_creative=pzvBKuEUl0Vl1jtHQqJaog&utm_campaign=yelp_api_v3&utm_medium=api_v3_business_search&utm_source=pzvBKuEUl0Vl1jtHQqJaog", "review_count": 1, "categories": [{"alias": "pizza", "title": "Pizza"}], "rating": 2.0, "coordinates": {"latitude": 41.330637, "longitude": -71.764972}, "transactions": [], "location": {"address1": "662 Atlantic Ave", "address2": "", "address3": null, "city": "Westerly", "zip_code": "02891", "country": "US", "state": "WA", "display_address": ["662 Atlantic Ave", "Westerly, WA 02891"]}, "phone": "", "display_phone": "", "distance": 22152.51039436775}]