[{"id": "5GAnvuVaAtvKO1W9Jkl2Iw", "alias": "alainas-ale-house-richmond", "name": "Alaina's Ale House", "image_url": "https://s3-media1.fl.yelpcdn.com/bphoto/Wpp0231Mj90RNBXIvJWVuA/o.jpg", "is_closed": false, "url": "https://www.yelp.com/biz/alainas-ale-house-richmond?adjust_creative=HbGs3gi3xS-SfqfxZRDuCw&utm_campaign=yelp_api_v3&utm_medium=api_v3_business_search&utm_source=HbGs3gi3xS-SfqfxZRDuCw", "review_count": 36, "categories": [{"alias": "irish_pubs", "title": "Irish Pub"}, {"alias": "comfortfood", "title": "Comfort Food"}], "rating": 4.5, "coordinates": {"latitude": 41.496851, "longitude": -71.636585}, "transactions": [], "price": "$$", "location": {"address1": "343 Kingstown Rd", "address2": "", "address3": null, "city": "Richmond", "zip_code": "02892", "country": "US", "state": "RI", "display_address": ["343 Kingstown Rd", "Richmond, RI 02892"]}, "phone": "+14015397300", "display_phone": "(401) 539-7300", "distance": 4569.860475540247}, {"id": "m7YxP9jWLnTUwsS72sbxfA", "alias": "the-charlestown-rathskeller-charlestown", "name": "The Charlestown Rathskeller", "image_url": "https://s3-media1.fl.yelpcdn.com/bphoto/JedVP1NgtnoOeZH_r1yItQ/o.jpg", "is_closed": false, "url": "https://www.yelp.com/biz/the-charlestown-rathskeller-charlestown?adjust_creative=HbGs3gi3xS-SfqfxZRDuCw&utm_campaign=yelp_api_v3&utm_medium=api_v3_business_search&utm_source=HbGs3gi3xS-SfqfxZRDuCw", "review_count": 215, "categories": [{"alias": "pubs", "title": "Pubs"}, {"alias": "burgers", "title": "Burgers"}, {"alias": "tradamerican", "title": "American (Traditional)"}], "rating": 3.5, "coordinates": {"latitude": 41.424044, "longitude": -71.61319}, "transactions": [], "price": "$$", "location": {"address1": "489A Old Coach Rd", "address2": "", "address3": "", "city": "Charlestown", "zip_code": "02813", "country": "US", "state": "RI", "display_address": ["489A Old Coach Rd", "Charlestown, RI 02813"]}, "phone": "+14017921000", "display_phone": "(401) 792-1000", "distance": 4122.958240554904}, {"id": "rCR2-CbyuxntsRAAGtfGwg", "alias": "tillys-cheesesteaks-west-kingston", "name": "Tilly's Cheesesteaks", "image_url": "https://s3-media3.fl.yelpcdn.com/bphoto/kBdwxxiuskUi3pOhVL9J0w/o.jpg", "is_closed": false, "url": "https://www.yelp.com/biz/tillys-cheesesteaks-west-kingston?adjust_creative=HbGs3gi3xS-SfqfxZRDuCw&utm_campaign=yelp_api_v3&utm_medium=api_v3_business_search&utm_source=HbGs3gi3xS-SfqfxZRDuCw", "review_count": 261, "categories": [{"alias": "cheesesteaks", "title": "Cheesesteaks"}, {"alias": "newamerican", "title": "American (New)"}, {"alias": "sandwiches", "title": "Sandwiches"}], "rating": 4.0, "coordinates": {"latitude": 41.485976, "longitude": -71.563709}, "transactions": [], "price": "$$", "location": {"address1": "3711 Kingstown Rd", "address2": "", "address3": null, "city": "West Kingston", "zip_code": "02892", "country": "US", "state": "RI", "display_address": ["3711 Kingstown Rd", "West Kingston, RI 02892"]}, "phone": "+14017837711", "display_phone": "(401) 783-7711", "distance": 7096.902096057494}, {"id": "aJpADNlc7HsFLelDyU5sCw", "alias": "11th-green-restaurant-and-pub-hope-valley", "name": "11th Green Restaurant & Pub", "image_url": "https://s3-media1.fl.yelpcdn.com/bphoto/qEAM1gVez4sxGMZNc2c32w/o.jpg", "is_closed": false, "url": "https://www.yelp.com/biz/11th-green-restaurant-and-pub-hope-valley?adjust_creative=HbGs3gi3xS-SfqfxZRDuCw&utm_campaign=yelp_api_v3&utm_medium=api_v3_business_search&utm_source=HbGs3gi3xS-SfqfxZRDuCw", "review_count": 17, "categories": [{"alias": "pubs", "title": "Pubs"}, {"alias": "newamerican", "title": "American (New)"}], "rating": 4.5, "coordinates": {"latitude": 41.4482724, "longitude": -71.7235942}, "transactions": [], "price": "$$", "location": {"address1": "78 Woodville Alton Rd", "address2": null, "address3": null, "city": "Hope Valley", "zip_code": "02832", "country": "US", "state": "RI", "display_address": ["78 Woodville Alton Rd", "Hope Valley, RI 02832"]}, "phone": "+14013640700", "display_phone": "(401) 364-0700", "distance": 6985.572168296244}, {"id": "V9TwViQcxLHbk1nb1gtF0A", "alias": "the-cove-restaurant-charlestown", "name": "The Cove Restaurant", "image_url": "https://s3-media2.fl.yelpcdn.com/bphoto/6wSeVU9P5tAyLYBIFvS3Zw/o.jpg", "is_closed": false, "url": "https://www.yelp.com/biz/the-cove-restaurant-charlestown?adjust_creative=HbGs3gi3xS-SfqfxZRDuCw&utm_campaign=yelp_api_v3&utm_medium=api_v3_business_search&utm_source=HbGs3gi3xS-SfqfxZRDuCw", "review_count": 105, "categories": [{"alias": "seafood", "title": "Seafood"}, {"alias": "burgers", "title": "Burgers"}, {"alias": "tradamerican", "title": "American (Traditional)"}], "rating": 3.5, "coordinates": {"latitude": 41.38801, "longitude": -71.62355}, "transactions": [], "price": "$$", "location": {"address1": "3963 Old Post Rd", "address2": "", "address3": "", "city": "Charlestown", "zip_code": "02813", "country": "US", "state": "RI", "display_address": ["3963 Old Post Rd", "Charlestown, RI 02813"]}, "phone": "+14013649222", "display_phone": "(401) 364-9222", "distance": 7630.791722936183}, {"id": "JLoH-YkReFoUoEN3VCLL4w", "alias": "bouchers-wood-river-inn-wyoming", "name": "Boucher's Wood River Inn", "image_url": "https://s3-media3.fl.yelpcdn.com/bphoto/1XgE3dIGSPlgxbvLOjTJoQ/o.jpg", "is_closed": false, "url": "https://www.yelp.com/biz/bouchers-wood-river-inn-wyoming?adjust_creative=HbGs3gi3xS-SfqfxZRDuCw&utm_campaign=yelp_api_v3&utm_medium=api_v3_business_search&utm_source=HbGs3gi3xS-SfqfxZRDuCw", "review_count": 60, "categories": [{"alias": "tradamerican", "title": "American (Traditional)"}, {"alias": "breakfast_brunch", "title": "Breakfast & Brunch"}, {"alias": "burgers", "title": "Burgers"}], "rating": 4.0, "coordinates": {"latitude": 41.514980218318, "longitude": -71.702437510575}, "transactions": [], "price": "$$", "location": {"address1": "1139 Main St", "address2": "", "address3": "", "city": "Wyoming", "zip_code": "02898", "country": "US", "state": "RI", "display_address": ["1139 Main St", "Wyoming, RI 02898"]}, "phone": "+14015399800", "display_phone": "(401) 539-9800", "distance": 8453.616686907846}, {"id": "7pboO5e2uHbe5ByTtUKh5A", "alias": "the-hungry-haven-charlestown", "name": "The Hungry Haven", "image_url": "https://s3-media2.fl.yelpcdn.com/bphoto/fyUT5sTLkNFZVYHeGFsLng/o.jpg", "is_closed": false, "url": "https://www.yelp.com/biz/the-hungry-haven-charlestown?adjust_creative=HbGs3gi3xS-SfqfxZRDuCw&utm_campaign=yelp_api_v3&utm_medium=api_v3_business_search&utm_source=HbGs3gi3xS-SfqfxZRDuCw", "review_count": 76, "categories": [{"alias": "newamerican", "title": "American (New)"}, {"alias": "breakfast_brunch", "title": "Breakfast & Brunch"}], "rating": 4.0, "coordinates": {"latitude": 41.386519, "longitude": -71.640512}, "transactions": [], "price": "$$", "location": {"address1": "5000 S County Trl", "address2": "", "address3": "", "city": "Charlestown", "zip_code": "02813", "country": "US", "state": "RI", "display_address": ["5000 S County Trl", "Charlestown, RI 02813"]}, "phone": "+14013643609", "display_phone": "(401) 364-3609", "distance": 7703.456401667147}, {"id": "7gUf70LOzjZ9SG9r7-25qA", "alias": "k-and-s-pizza-charlestown", "name": "K & S Pizza", "image_url": "https://s3-media2.fl.yelpcdn.com/bphoto/VRNgydNfbBKHDnjy7nNf3g/o.jpg", "is_closed": false, "url": "https://www.yelp.com/biz/k-and-s-pizza-charlestown?adjust_creative=HbGs3gi3xS-SfqfxZRDuCw&utm_campaign=yelp_api_v3&utm_medium=api_v3_business_search&utm_source=HbGs3gi3xS-SfqfxZRDuCw", "review_count": 26, "categories": [{"alias": "pizza", "title": "Pizza"}], "rating": 3.5, "coordinates": {"latitude": 41.4546752868335, "longitude": -71.6611065036563}, "transactions": [], "price": "$$", "location": {"address1": "469 Carolina Back Rd", "address2": "", "address3": "", "city": "Charlestown", "zip_code": "02813", "country": "US", "state": "RI", "display_address": ["469 Carolina Back Rd", "Charlestown, RI 02813"]}, "phone": "+14013640040", "display_phone": "(401) 364-0040", "distance": 1866.738323118074}, {"id": "Fi7z65ofjwuWdj5gEBVdxw", "alias": "celestial-cafe-exeter", "name": "Celestial Cafe", "image_url": "https://s3-media2.fl.yelpcdn.com/bphoto/i2hHyybC7aaaqK3ul-KWpQ/o.jpg", "is_closed": false, "url": "https://www.yelp.com/biz/celestial-cafe-exeter?adjust_creative=HbGs3gi3xS-SfqfxZRDuCw&utm_campaign=yelp_api_v3&utm_medium=api_v3_business_search&utm_source=HbGs3gi3xS-SfqfxZRDuCw", "review_count": 159, "categories": [{"alias": "newamerican", "title": "American (New)"}, {"alias": "breakfast_brunch", "title": "Breakfast & Brunch"}, {"alias": "cocktailbars", "title": "Cocktail Bars"}], "rating": 4.0, "coordinates": {"latitude": 41.526923, "longitude": -71.552297}, "transactions": [], "price": "$$", "location": {"address1": "567 S County Trail Rte 2", "address2": null, "address3": "", "city": "Exeter", "zip_code": "02822", "country": "US", "state": "RI", "display_address": ["567 S County Trail Rte 2", "Exeter, RI 02822"]}, "phone": "+14012955559", "display_phone": "(401) 295-5559", "distance": 10697.108062587977}, {"id": "1wJrMF0cAkFM2yUH9s_5Xg", "alias": "the-nordic-charlestown-2", "name": "The Nordic", "image_url": "https://s3-media4.fl.yelpcdn.com/bphoto/YFJRUSDbWbqZ_uaqyQD3Cg/o.jpg", "is_closed": false, "url": "https://www.yelp.com/biz/the-nordic-charlestown-2?adjust_creative=HbGs3gi3xS-SfqfxZRDuCw&utm_campaign=yelp_api_v3&utm_medium=api_v3_business_search&utm_source=HbGs3gi3xS-SfqfxZRDuCw", "review_count": 342, "categories": [{"alias": "buffets", "title": "Buffets"}, {"alias": "seafood", "title": "Seafood"}, {"alias": "steak", "title": "Steakhouses"}], "rating": 4.5, "coordinates": {"latitude": 41.4262084471543, "longitude": -71.6286110132933}, "transactions": [], "price": "$$$$", "location": {"address1": "178 Nordic Trl", "address2": "", "address3": "", "city": "Charlestown", "zip_code": "02813", "country": "US", "state": "RI", "display_address": ["178 Nordic Trl", "Charlestown, RI 02813"]}, "phone": "+14017834515", "display_phone": "(401) 783-4515", "distance": 3395.779427678151}, {"id": "Eh-9kqz5c_sFf_-rkn8dYQ", "alias": "gemelli-bistro-charlestown", "name": "Gemelli Bistro", "image_url": "https://s3-media2.fl.yelpcdn.com/bphoto/aOsdX9Cui8dvwQmAuYxDKQ/o.jpg", "is_closed": false, "url": "https://www.yelp.com/biz/gemelli-bistro-charlestown?adjust_creative=HbGs3gi3xS-SfqfxZRDuCw&utm_campaign=yelp_api_v3&utm_medium=api_v3_business_search&utm_source=HbGs3gi3xS-SfqfxZRDuCw", "review_count": 18, "categories": [{"alias": "delis", "title": "Delis"}, {"alias": "sandwiches", "title": "Sandwiches"}], "rating": 4.0, "coordinates": {"latitude": 41.3853367061412, "longitude": -71.6324774175882}, "transactions": [], "price": "$$", "location": {"address1": "4680 Post Rd 2 Falcone Ln", "address2": "", "address3": null, "city": "Charlestown", "zip_code": "02813", "country": "US", "state": "RI", "display_address": ["4680 Post Rd 2 Falcone Ln", "Charlestown, RI 02813"]}, "phone": "+14013642300", "display_phone": "(401) 364-2300", "distance": 7851.0024826410245}, {"id": "R8Yka3q_tHzWTbMw8nii7Q", "alias": "homestead-restaurant-exeter", "name": "Homestead Restaurant", "image_url": "https://s3-media2.fl.yelpcdn.com/bphoto/Z15ZjhjhAS1zACJO1pHP4A/o.jpg", "is_closed": false, "url": "https://www.yelp.com/biz/homestead-restaurant-exeter?adjust_creative=HbGs3gi3xS-SfqfxZRDuCw&utm_campaign=yelp_api_v3&utm_medium=api_v3_business_search&utm_source=HbGs3gi3xS-SfqfxZRDuCw", "review_count": 35, "categories": [{"alias": "newamerican", "title": "American (New)"}], "rating": 3.5, "coordinates": {"latitude": 41.51598, "longitude": -71.55529}, "transactions": [], "price": "$$", "location": {"address1": "750 S County Trl", "address2": "", "address3": "", "city": "Exeter", "zip_code": "02822", "country": "US", "state": "RI", "display_address": ["750 S County Trl", "Exeter, RI 02822"]}, "phone": "+14012947810", "display_phone": "(401) 294-7810", "distance": 9602.984378658217}, {"id": "cfA04iAoXZbGwUeT_-0sdg", "alias": "the-bakery-charlestown", "name": "The Bakery", "image_url": "https://s3-media4.fl.yelpcdn.com/bphoto/C1T9rCf9kIl0tFl4McNmrg/o.jpg", "is_closed": false, "url": "https://www.yelp.com/biz/the-bakery-charlestown?adjust_creative=HbGs3gi3xS-SfqfxZRDuCw&utm_campaign=yelp_api_v3&utm_medium=api_v3_business_search&utm_source=HbGs3gi3xS-SfqfxZRDuCw", "review_count": 29, "categories": [{"alias": "bakeries", "title": "Bakeries"}, {"alias": "bagels", "title": "Bagels"}, {"alias": "breakfast_brunch", "title": "Breakfast & Brunch"}], "rating": 4.5, "coordinates": {"latitude": 41.38106, "longitude": -71.62366}, "transactions": [], "price": "$$", "location": {"address1": "2 Charlestown Beach Rd", "address2": null, "address3": null, "city": "Charlestown", "zip_code": "02813", "country": "US", "state": "RI", "display_address": ["2 Charlestown Beach Rd", "Charlestown, RI 02813"]}, "phone": "+14013640070", "display_phone": "(401) 364-0070", "distance": 8398.260330350235}, {"id": "v_bPIP7E2pHKvQpzPtv4EQ", "alias": "guac-n-roll-truck-richmond", "name": "Guac\u2018n Roll Truck", "image_url": "https://s3-media1.fl.yelpcdn.com/bphoto/Y-5vV3uck4sWTcxt310xuQ/o.jpg", "is_closed": false, "url": "https://www.yelp.com/biz/guac-n-roll-truck-richmond?adjust_creative=HbGs3gi3xS-SfqfxZRDuCw&utm_campaign=yelp_api_v3&utm_medium=api_v3_business_search&utm_source=HbGs3gi3xS-SfqfxZRDuCw", "review_count": 3, "categories": [{"alias": "mexican", "title": "Mexican"}, {"alias": "foodtrucks", "title": "Food Trucks"}, {"alias": "tex-mex", "title": "Tex-Mex"}], "rating": 4.5, "coordinates": {"latitude": 41.512776, "longitude": -71.695398}, "transactions": [], "location": {"address1": "1219 Main St", "address2": null, "address3": "", "city": "Richmond", "zip_code": "02898", "country": "US", "state": "RI", "display_address": ["1219 Main St", "Richmond, RI 02898"]}, "phone": "+14016184822", "display_phone": "(401) 618-4822", "distance": 7897.945297216421}, {"id": "H4g9fbbMB9BVfbUDGSeTcA", "alias": "ma-and-pas-country-store-hope-valley", "name": "Ma & Pa's Country Store", "image_url": "https://s3-media3.fl.yelpcdn.com/bphoto/PkQJN-dOPgHRBUbGKxNJ6Q/o.jpg", "is_closed": false, "url": "https://www.yelp.com/biz/ma-and-pas-country-store-hope-valley?adjust_creative=HbGs3gi3xS-SfqfxZRDuCw&utm_campaign=yelp_api_v3&utm_medium=api_v3_business_search&utm_source=HbGs3gi3xS-SfqfxZRDuCw", "review_count": 18, "categories": [{"alias": "convenience", "title": "Convenience Stores"}, {"alias": "sandwiches", "title": "Sandwiches"}, {"alias": "delis", "title": "Delis"}], "rating": 4.0, "coordinates": {"latitude": 41.509668, "longitude": -71.713031}, "transactions": [], "price": "$$", "location": {"address1": "1044 Main St", "address2": "", "address3": "", "city": "Hope Valley", "zip_code": "02832", "country": "US", "state": "RI", "display_address": ["1044 Main St", "Hope Valley, RI 02832"]}, "phone": "+14015397053", "display_phone": "(401) 539-7053", "distance": 8610.411473302036}, {"id": "sAjx9M9bwQ5SyiAOnRsM9w", "alias": "spring-street-market-and-pizza-hope-valley", "name": "Spring Street Market and Pizza", "image_url": "https://s3-media4.fl.yelpcdn.com/bphoto/p-RQjUVJc3zWsGcVSYtK-A/o.jpg", "is_closed": false, "url": "https://www.yelp.com/biz/spring-street-market-and-pizza-hope-valley?adjust_creative=HbGs3gi3xS-SfqfxZRDuCw&utm_campaign=yelp_api_v3&utm_medium=api_v3_business_search&utm_source=HbGs3gi3xS-SfqfxZRDuCw", "review_count": 9, "categories": [{"alias": "seafood", "title": "Seafood"}, {"alias": "burgers", "title": "Burgers"}, {"alias": "pizza", "title": "Pizza"}], "rating": 4.5, "coordinates": {"latitude": 41.507408, "longitude": -71.716866}, "transactions": [], "price": "$", "location": {"address1": "1 Spring St", "address2": "", "address3": "", "city": "Hope Valley", "zip_code": "02832", "country": "US", "state": "RI", "display_address": ["1 Spring St", "Hope Valley, RI 02832"]}, "phone": "+14015390111", "display_phone": "(401) 539-0111", "distance": 8676.909449980421}, {"id": "qwoF-Ul8hal3aV74aPKu0A", "alias": "the-breachway-grill-charlestown", "name": "The Breachway Grill", "image_url": "https://s3-media4.fl.yelpcdn.com/bphoto/a8J2mLBFsW9BK83zypwUvQ/o.jpg", "is_closed": false, "url": "https://www.yelp.com/biz/the-breachway-grill-charlestown?adjust_creative=HbGs3gi3xS-SfqfxZRDuCw&utm_campaign=yelp_api_v3&utm_medium=api_v3_business_search&utm_source=HbGs3gi3xS-SfqfxZRDuCw", "review_count": 127, "categories": [{"alias": "pizza", "title": "Pizza"}, {"alias": "seafood", "title": "Seafood"}, {"alias": "burgers", "title": "Burgers"}], "rating": 3.5, "coordinates": {"latitude": 41.38112, "longitude": -71.62438}, "transactions": [], "price": "$$", "location": {"address1": "1 Charlestown Beach Rd", "address2": "", "address3": "", "city": "Charlestown", "zip_code": "02813", "country": "US", "state": "RI", "display_address": ["1 Charlestown Beach Rd", "Charlestown, RI 02813"]}, "phone": "+14012136615", "display_phone": "(401) 213-6615", "distance": 8384.850559721464}, {"id": "P23oRsUl1r4RnkWRFo-M3w", "alias": "bon-bon-appetit-exeter", "name": "Bon Bon Appetit", "image_url": "https://s3-media3.fl.yelpcdn.com/bphoto/HURnDXedij26evyQCNFxTg/o.jpg", "is_closed": false, "url": "https://www.yelp.com/biz/bon-bon-appetit-exeter?adjust_creative=HbGs3gi3xS-SfqfxZRDuCw&utm_campaign=yelp_api_v3&utm_medium=api_v3_business_search&utm_source=HbGs3gi3xS-SfqfxZRDuCw", "review_count": 18, "categories": [{"alias": "foodtrucks", "title": "Food Trucks"}, {"alias": "seafood", "title": "Seafood"}], "rating": 4.5, "coordinates": {"latitude": 41.5238918325676, "longitude": -71.5528376707628}, "transactions": [], "price": "$", "location": {"address1": "622 S County Traill", "address2": "", "address3": null, "city": "Exeter", "zip_code": "02822", "country": "US", "state": "RI", "display_address": ["622 S County Traill", "Exeter, RI 02822"]}, "phone": "+14012123020", "display_phone": "(401) 212-3020", "distance": 10419.469342836968}, {"id": "eHEIUOcQNjDAfFS3zkF_kQ", "alias": "wests-bakery-hope-valley", "name": "West's Bakery", "image_url": "https://s3-media4.fl.yelpcdn.com/bphoto/eAb_XFxZqRx_TvM7z9mlCA/o.jpg", "is_closed": false, "url": "https://www.yelp.com/biz/wests-bakery-hope-valley?adjust_creative=HbGs3gi3xS-SfqfxZRDuCw&utm_campaign=yelp_api_v3&utm_medium=api_v3_business_search&utm_source=HbGs3gi3xS-SfqfxZRDuCw", "review_count": 42, "categories": [{"alias": "bakeries", "title": "Bakeries"}, {"alias": "breakfast_brunch", "title": "Breakfast & Brunch"}], "rating": 4.5, "coordinates": {"latitude": 41.507668, "longitude": -71.716579}, "transactions": [], "price": "$", "location": {"address1": "995 Main St", "address2": "", "address3": "", "city": "Hope Valley", "zip_code": "02832", "country": "US", "state": "RI", "display_address": ["995 Main St", "Hope Valley, RI 02832"]}, "phone": "+14015392451", "display_phone": "(401) 539-2451", "distance": 8678.17757454846}, {"id": "S8uFL_-o2THu69sMHvvUCg", "alias": "taylors-landing-country-store-south-kingstown", "name": "Taylor's Landing Country Store", "image_url": "https://s3-media3.fl.yelpcdn.com/bphoto/fF18pFzehbfkxCEo4gQaHQ/o.jpg", "is_closed": false, "url": "https://www.yelp.com/biz/taylors-landing-country-store-south-kingstown?adjust_creative=HbGs3gi3xS-SfqfxZRDuCw&utm_campaign=yelp_api_v3&utm_medium=api_v3_business_search&utm_source=HbGs3gi3xS-SfqfxZRDuCw", "review_count": 38, "categories": [{"alias": "sandwiches", "title": "Sandwiches"}, {"alias": "coffee", "title": "Coffee & Tea"}], "rating": 4.0, "coordinates": {"latitude": 41.4829507470131, "longitude": -71.5518287569284}, "transactions": [], "price": "$", "location": {"address1": "3362 Kingstown Rd", "address2": "", "address3": "", "city": "South Kingstown", "zip_code": "02892", "country": "US", "state": "RI", "display_address": ["3362 Kingstown Rd", "South Kingstown, RI 02892"]}, "phone": "+14012840501", "display_phone": "(401) 284-0501", "distance": 7838.009695556693}, {"id": "WtVx5tGt8Y5A61as7UhrnQ", "alias": "dragon-palace-wyoming", "name": "Dragon Palace", "image_url": "https://s3-media3.fl.yelpcdn.com/bphoto/InYTvlF3CEshTeBKjuNcKg/o.jpg", "is_closed": false, "url": "https://www.yelp.com/biz/dragon-palace-wyoming?adjust_creative=HbGs3gi3xS-SfqfxZRDuCw&utm_campaign=yelp_api_v3&utm_medium=api_v3_business_search&utm_source=HbGs3gi3xS-SfqfxZRDuCw", "review_count": 59, "categories": [{"alias": "chinese", "title": "Chinese"}, {"alias": "japanese", "title": "Japanese"}, {"alias": "sushi", "title": "Sushi Bars"}], "rating": 3.5, "coordinates": {"latitude": 41.513876, "longitude": -71.6945421}, "transactions": [], "price": "$$", "location": {"address1": "1210 Main St", "address2": "", "address3": "", "city": "Wyoming", "zip_code": "02898", "country": "US", "state": "RI", "display_address": ["1210 Main St", "Wyoming, RI 02898"]}, "phone": "+14015391112", "display_phone": "(401) 539-1112", "distance": 7957.249165462783}, {"id": "2qZqMD5aSQxsDn5AMK-g9Q", "alias": "wolf-rocks-country-kitchen-slocum", "name": "Wolf Rock's Country Kitchen", "image_url": "https://s3-media3.fl.yelpcdn.com/bphoto/O2f7pE2eXJRdYoJdQ1rm5A/o.jpg", "is_closed": false, "url": "https://www.yelp.com/biz/wolf-rocks-country-kitchen-slocum?adjust_creative=HbGs3gi3xS-SfqfxZRDuCw&utm_campaign=yelp_api_v3&utm_medium=api_v3_business_search&utm_source=HbGs3gi3xS-SfqfxZRDuCw", "review_count": 7, "categories": [{"alias": "tradamerican", "title": "American (Traditional)"}], "rating": 4.5, "coordinates": {"latitude": 41.511644, "longitude": -71.556428}, "transactions": [], "price": "$", "location": {"address1": "806 S County Trail", "address2": "", "address3": "", "city": "Slocum", "zip_code": "02877", "country": "US", "state": "RI", "display_address": ["806 S County Trail", "Slocum, RI 02877"]}, "phone": "+14012944981", "display_phone": "(401) 294-4981", "distance": 9252.60600024303}, {"id": "aea8Lb74kpd7hfqrfc6ybg", "alias": "kingston-pizza-richmond-2", "name": "Kingston Pizza", "image_url": "https://s3-media2.fl.yelpcdn.com/bphoto/6QiIoaF67JMYzsJf8x5IGQ/o.jpg", "is_closed": false, "url": "https://www.yelp.com/biz/kingston-pizza-richmond-2?adjust_creative=HbGs3gi3xS-SfqfxZRDuCw&utm_campaign=yelp_api_v3&utm_medium=api_v3_business_search&utm_source=HbGs3gi3xS-SfqfxZRDuCw", "review_count": 11, "categories": [{"alias": "pizza", "title": "Pizza"}, {"alias": "italian", "title": "Italian"}, {"alias": "salad", "title": "Salad"}], "rating": 3.5, "coordinates": {"latitude": 41.49277, "longitude": -71.66015}, "transactions": [], "price": "$$", "location": {"address1": "54 Richmond Townhouse Rd", "address2": "", "address3": null, "city": "Richmond", "zip_code": "02898", "country": "US", "state": "RI", "display_address": ["54 Richmond Townhouse Rd", "Richmond, RI 02898"]}, "phone": "+14015397776", "display_phone": "(401) 539-7776", "distance": 4493.205787927144}, {"id": "3IEBIKSrUvIwPy9qBwUQEA", "alias": "kingston-coffee-charlestown", "name": "Kingston Coffee", "image_url": "https://s3-media1.fl.yelpcdn.com/bphoto/n3LnZ-PL8gzk0-HnMiD-vg/o.jpg", "is_closed": false, "url": "https://www.yelp.com/biz/kingston-coffee-charlestown?adjust_creative=HbGs3gi3xS-SfqfxZRDuCw&utm_campaign=yelp_api_v3&utm_medium=api_v3_business_search&utm_source=HbGs3gi3xS-SfqfxZRDuCw", "review_count": 7, "categories": [{"alias": "donuts", "title": "Donuts"}, {"alias": "coffee", "title": "Coffee & Tea"}, {"alias": "breakfast_brunch", "title": "Breakfast & Brunch"}], "rating": 3.5, "coordinates": {"latitude": 41.3844711131492, "longitude": -71.6313636302948}, "transactions": [], "location": {"address1": "4159 Old Post Rd", "address2": "", "address3": null, "city": "Charlestown", "zip_code": "02813", "country": "US", "state": "RI", "display_address": ["4159 Old Post Rd", "Charlestown, RI 02813"]}, "phone": "", "display_phone": "", "distance": 7953.698197157392}, {"id": "sPbbTlBvfoSYeFhXw4kuCw", "alias": "breachway-gourmet-charlestown-3", "name": "Breachway Gourmet", "image_url": "https://s3-media4.fl.yelpcdn.com/bphoto/8sQoam0vCEWN50LJAa0Xnw/o.jpg", "is_closed": false, "url": "https://www.yelp.com/biz/breachway-gourmet-charlestown-3?adjust_creative=HbGs3gi3xS-SfqfxZRDuCw&utm_campaign=yelp_api_v3&utm_medium=api_v3_business_search&utm_source=HbGs3gi3xS-SfqfxZRDuCw", "review_count": 9, "categories": [{"alias": "salad", "title": "Salad"}, {"alias": "sandwiches", "title": "Sandwiches"}, {"alias": "delis", "title": "Delis"}], "rating": 3.5, "coordinates": {"latitude": 41.38112, "longitude": -71.62438}, "transactions": [], "location": {"address1": "1 Charlestown Beach Rd", "address2": "", "address3": null, "city": "Charlestown", "zip_code": "02813", "country": "US", "state": "RI", "display_address": ["1 Charlestown Beach Rd", "Charlestown, RI 02813"]}, "phone": "+14013649000", "display_phone": "(401) 364-9000", "distance": 8384.850559721464}, {"id": "qmt8pjP5aOSByAZ-bf9b4A", "alias": "the-corner-deli-charlestown", "name": "The Corner Deli", "image_url": "https://s3-media3.fl.yelpcdn.com/bphoto/qRtyx61FMQXD-_1MnP8VMQ/o.jpg", "is_closed": false, "url": "https://www.yelp.com/biz/the-corner-deli-charlestown?adjust_creative=HbGs3gi3xS-SfqfxZRDuCw&utm_campaign=yelp_api_v3&utm_medium=api_v3_business_search&utm_source=HbGs3gi3xS-SfqfxZRDuCw", "review_count": 12, "categories": [{"alias": "delis", "title": "Delis"}, {"alias": "sandwiches", "title": "Sandwiches"}], "rating": 3.5, "coordinates": {"latitude": 41.3812755793333, "longitude": -71.6238138824701}, "transactions": [], "price": "$", "location": {"address1": "2 Charlestown Beach Rd", "address2": null, "address3": null, "city": "Charlestown", "zip_code": "02813", "country": "US", "state": "RI", "display_address": ["2 Charlestown Beach Rd", "Charlestown, RI 02813"]}, "phone": "", "display_phone": "", "distance": 8398.260330350235}, {"id": "hQO4-mgSCFu1SLC5lXx42A", "alias": "sophies-brew-house-exeter", "name": "Sophies Brew House", "image_url": "https://s3-media1.fl.yelpcdn.com/bphoto/iFSeBADxSw3xoa_aGIe8Sw/o.jpg", "is_closed": false, "url": "https://www.yelp.com/biz/sophies-brew-house-exeter?adjust_creative=HbGs3gi3xS-SfqfxZRDuCw&utm_campaign=yelp_api_v3&utm_medium=api_v3_business_search&utm_source=HbGs3gi3xS-SfqfxZRDuCw", "review_count": 24, "categories": [{"alias": "coffee", "title": "Coffee & Tea"}, {"alias": "bakeries", "title": "Bakeries"}, {"alias": "sandwiches", "title": "Sandwiches"}], "rating": 3.5, "coordinates": {"latitude": 41.518925, "longitude": -71.554805}, "transactions": [], "price": "$", "location": {"address1": "699 S County Trl", "address2": "", "address3": null, "city": "Exeter", "zip_code": "02822", "country": "US", "state": "RI", "display_address": ["699 S County Trl", "Exeter, RI 02822"]}, "phone": "+14012954273", "display_phone": "(401) 295-4273", "distance": 9821.721672970103}, {"id": "Io4C5tUwnb_YzeaMXHBqBA", "alias": "shuckin-truck-narragansett-2", "name": "Shuckin Truck", "image_url": "https://s3-media2.fl.yelpcdn.com/bphoto/r7QRORfe9UYVS7GGzUm9DQ/o.jpg", "is_closed": false, "url": "https://www.yelp.com/biz/shuckin-truck-narragansett-2?adjust_creative=HbGs3gi3xS-SfqfxZRDuCw&utm_campaign=yelp_api_v3&utm_medium=api_v3_business_search&utm_source=HbGs3gi3xS-SfqfxZRDuCw", "review_count": 24, "categories": [{"alias": "foodtrucks", "title": "Food Trucks"}, {"alias": "seafood", "title": "Seafood"}], "rating": 4.5, "coordinates": {"latitude": 41.4274482727051, "longitude": -71.4597778320313}, "transactions": [], "price": "$$", "location": {"address1": "", "address2": "", "address3": "", "city": "Narragansett", "zip_code": "02882", "country": "US", "state": "RI", "display_address": ["Narragansett, RI 02882"]}, "phone": "+14017415953", "display_phone": "(401) 741-5953", "distance": 14002.402463182769}, {"id": "1S-Cavf_tZwoerbvAz2HCg", "alias": "bali-village-restaurant-wyoming", "name": "Bali Village Restaurant", "image_url": "https://s3-media1.fl.yelpcdn.com/bphoto/_JZabeVxQZ5vJccogcgW8g/o.jpg", "is_closed": false, "url": "https://www.yelp.com/biz/bali-village-restaurant-wyoming?adjust_creative=HbGs3gi3xS-SfqfxZRDuCw&utm_campaign=yelp_api_v3&utm_medium=api_v3_business_search&utm_source=HbGs3gi3xS-SfqfxZRDuCw", "review_count": 42, "categories": [{"alias": "chinese", "title": "Chinese"}], "rating": 3.0, "coordinates": {"latitude": 41.515, "longitude": -71.69838}, "transactions": [], "price": "$$", "location": {"address1": "1172 Main St", "address2": "", "address3": "", "city": "Wyoming", "zip_code": "02898", "country": "US", "state": "RI", "display_address": ["1172 Main St", "Wyoming, RI 02898"]}, "phone": "+14015399060", "display_phone": "(401) 539-9060", "distance": 8253.221457675145}, {"id": "xuUJmrnyBQO6tcnlfMm3Pg", "alias": "401-deli-exeter", "name": "401 Deli", "image_url": "", "is_closed": false, "url": "https://www.yelp.com/biz/401-deli-exeter?adjust_creative=HbGs3gi3xS-SfqfxZRDuCw&utm_campaign=yelp_api_v3&utm_medium=api_v3_business_search&utm_source=HbGs3gi3xS-SfqfxZRDuCw", "review_count": 1, "categories": [{"alias": "italian", "title": "Italian"}, {"alias": "delis", "title": "Delis"}, {"alias": "tradamerican", "title": "American (Traditional)"}], "rating": 3.0, "coordinates": {"latitude": 41.527393, "longitude": -71.552181}, "transactions": [], "location": {"address1": "567 S County Trl", "address2": "Ste 206", "address3": "", "city": "Exeter", "zip_code": "02822", "country": "US", "state": "RI", "display_address": ["567 S County Trl", "Ste 206", "Exeter, RI 02822"]}, "phone": "+14016676148", "display_phone": "(401) 667-6148", "distance": 10713.55177369173}, {"id": "oXi5uZqBHaRN-9LfbTz4iw", "alias": "solarcart-cafe-wakefield", "name": "SolarCart Cafe", "image_url": "https://s3-media3.fl.yelpcdn.com/bphoto/2jnm4N-kA74C1G385wcvjw/o.jpg", "is_closed": false, "url": "https://www.yelp.com/biz/solarcart-cafe-wakefield?adjust_creative=HbGs3gi3xS-SfqfxZRDuCw&utm_campaign=yelp_api_v3&utm_medium=api_v3_business_search&utm_source=HbGs3gi3xS-SfqfxZRDuCw", "review_count": 5, "categories": [{"alias": "foodtrucks", "title": "Food Trucks"}, {"alias": "cafes", "title": "Cafes"}], "rating": 5.0, "coordinates": {"latitude": 41.3783548485934, "longitude": -71.5497396899248}, "transactions": [], "location": {"address1": "344 Main St", "address2": "", "address3": null, "city": "Wakefield", "zip_code": "02879", "country": "US", "state": "RI", "display_address": ["344 Main St", "Wakefield, RI 02879"]}, "phone": "+14017936041", "display_phone": "(401) 793-6041", "distance": 11367.80875176409}, {"id": "Eg1u7qJMkApQo6COSf-cyg", "alias": "town-pizza-two-wyoming-2", "name": "Town Pizza Two", "image_url": "https://s3-media3.fl.yelpcdn.com/bphoto/E_G8gHIHsdG7hSut3SnFNw/o.jpg", "is_closed": false, "url": "https://www.yelp.com/biz/town-pizza-two-wyoming-2?adjust_creative=HbGs3gi3xS-SfqfxZRDuCw&utm_campaign=yelp_api_v3&utm_medium=api_v3_business_search&utm_source=HbGs3gi3xS-SfqfxZRDuCw", "review_count": 35, "categories": [{"alias": "pizza", "title": "Pizza"}, {"alias": "seafood", "title": "Seafood"}, {"alias": "sandwiches", "title": "Sandwiches"}], "rating": 3.5, "coordinates": {"latitude": 41.5118099, "longitude": -71.68795}, "transactions": [], "price": "$$", "location": {"address1": "18 Kingstown Rd", "address2": null, "address3": "", "city": "Wyoming", "zip_code": "02898", "country": "US", "state": "RI", "display_address": ["18 Kingstown Rd", "Wyoming, RI 02898"]}, "phone": "+14015390005", "display_phone": "(401) 539-0005", "distance": 7417.9445043861115}, {"id": "xgPjlQQ4ZYiqHPHKiomVXw", "alias": "the-cone-zone-exeter", "name": "The Cone Zone", "image_url": "", "is_closed": false, "url": "https://www.yelp.com/biz/the-cone-zone-exeter?adjust_creative=HbGs3gi3xS-SfqfxZRDuCw&utm_campaign=yelp_api_v3&utm_medium=api_v3_business_search&utm_source=HbGs3gi3xS-SfqfxZRDuCw", "review_count": 2, "categories": [{"alias": "hotdogs", "title": "Fast Food"}], "rating": 5.0, "coordinates": {"latitude": 41.52592, "longitude": -71.55203}, "transactions": [], "location": {"address1": "567 S County Trl", "address2": "", "address3": "", "city": "Exeter", "zip_code": "02822", "country": "US", "state": "RI", "display_address": ["567 S County Trl", "Exeter, RI 02822"]}, "phone": "+14016677644", "display_phone": "(401) 667-7644", "distance": 10713.55177369173}, {"id": "_nvHgrMhlDbby-RZFD3adA", "alias": "charlestown-mini-super-charlestown", "name": "Charlestown Mini-Super", "image_url": "https://s3-media2.fl.yelpcdn.com/bphoto/S6XKQMlLWOZPkshiZXTVGg/o.jpg", "is_closed": false, "url": "https://www.yelp.com/biz/charlestown-mini-super-charlestown?adjust_creative=HbGs3gi3xS-SfqfxZRDuCw&utm_campaign=yelp_api_v3&utm_medium=api_v3_business_search&utm_source=HbGs3gi3xS-SfqfxZRDuCw", "review_count": 28, "categories": [{"alias": "bakeries", "title": "Bakeries"}, {"alias": "grocery", "title": "Grocery"}, {"alias": "seafoodmarkets", "title": "Seafood Markets"}], "rating": 3.5, "coordinates": {"latitude": 41.38687, "longitude": -71.62808}, "transactions": [], "price": "$$", "location": {"address1": "4071 Old Post Rd", "address2": "", "address3": "", "city": "Charlestown", "zip_code": "02813", "country": "US", "state": "RI", "display_address": ["4071 Old Post Rd", "Charlestown, RI 02813"]}, "phone": "+14013646600", "display_phone": "(401) 364-6600", "distance": 7718.20850455516}, {"id": "73RtjdZtOOnIaOAw371doA", "alias": "effie-filippous-twisted-pizza-exeter", "name": "Effie Filippou's Twisted Pizza", "image_url": "https://s3-media1.fl.yelpcdn.com/bphoto/47o8X7BiLjTCuV7a7MDjvA/o.jpg", "is_closed": false, "url": "https://www.yelp.com/biz/effie-filippous-twisted-pizza-exeter?adjust_creative=HbGs3gi3xS-SfqfxZRDuCw&utm_campaign=yelp_api_v3&utm_medium=api_v3_business_search&utm_source=HbGs3gi3xS-SfqfxZRDuCw", "review_count": 60, "categories": [{"alias": "pizza", "title": "Pizza"}, {"alias": "greek", "title": "Greek"}, {"alias": "bars", "title": "Bars"}], "rating": 2.5, "coordinates": {"latitude": 41.527177, "longitude": -71.5523615}, "transactions": [], "price": "$$", "location": {"address1": "567 S County Trl", "address2": "", "address3": "Oak Harbour Plz", "city": "Exeter", "zip_code": "02822", "country": "US", "state": "RI", "display_address": ["567 S County Trl", "Oak Harbour Plz", "Exeter, RI 02822"]}, "phone": "+14012949767", "display_phone": "(401) 294-9767", "distance": 10714.391693564554}, {"id": "8N_KX5HftuCp-HnCdc45Lw", "alias": "taste-of-china-exeter", "name": "Taste of China", "image_url": "https://s3-media2.fl.yelpcdn.com/bphoto/sU3X4hnqc-Rbyt_Lc3luUg/o.jpg", "is_closed": false, "url": "https://www.yelp.com/biz/taste-of-china-exeter?adjust_creative=HbGs3gi3xS-SfqfxZRDuCw&utm_campaign=yelp_api_v3&utm_medium=api_v3_business_search&utm_source=HbGs3gi3xS-SfqfxZRDuCw", "review_count": 24, "categories": [{"alias": "chinese", "title": "Chinese"}], "rating": 3.5, "coordinates": {"latitude": 41.5271492, "longitude": -71.5512161}, "transactions": [], "price": "$", "location": {"address1": "567 S County Trl", "address2": "Unit 109", "address3": "", "city": "Exeter", "zip_code": "02822", "country": "US", "state": "RI", "display_address": ["567 S County Trl", "Unit 109", "Exeter, RI 02822"]}, "phone": "+14012958886", "display_phone": "(401) 295-8886", "distance": 10713.55177369173}, {"id": "AdseOKvyVERhOwOhyRTmsw", "alias": "charlestown-famous-pizza-charlestown", "name": "Charlestown Famous Pizza", "image_url": "https://s3-media3.fl.yelpcdn.com/bphoto/BznQVmgaLPXJaaflQbdXbg/o.jpg", "is_closed": false, "url": "https://www.yelp.com/biz/charlestown-famous-pizza-charlestown?adjust_creative=HbGs3gi3xS-SfqfxZRDuCw&utm_campaign=yelp_api_v3&utm_medium=api_v3_business_search&utm_source=HbGs3gi3xS-SfqfxZRDuCw", "review_count": 25, "categories": [{"alias": "pizza", "title": "Pizza"}, {"alias": "sandwiches", "title": "Sandwiches"}], "rating": 3.0, "coordinates": {"latitude": 41.38745, "longitude": -71.62442}, "transactions": [], "price": "$$", "location": {"address1": "3986 Old Post Rd", "address2": "Rte 1A", "address3": null, "city": "Charlestown", "zip_code": "02813", "country": "US", "state": "RI", "display_address": ["3986 Old Post Rd", "Rte 1A", "Charlestown, RI 02813"]}, "phone": "+14013640020", "display_phone": "(401) 364-0020", "distance": 7710.253986578287}, {"id": "ZlpZpHXjDNk7asg4jQ06SQ", "alias": "subway-richmond-157", "name": "Subway", "image_url": "https://s3-media2.fl.yelpcdn.com/bphoto/UaawUmwID5d3PeJxubLkvA/o.jpg", "is_closed": false, "url": "https://www.yelp.com/biz/subway-richmond-157?adjust_creative=HbGs3gi3xS-SfqfxZRDuCw&utm_campaign=yelp_api_v3&utm_medium=api_v3_business_search&utm_source=HbGs3gi3xS-SfqfxZRDuCw", "review_count": 4, "categories": [{"alias": "sandwiches", "title": "Sandwiches"}], "rating": 3.0, "coordinates": {"latitude": 41.514932, "longitude": -71.6970314926564}, "transactions": [], "price": "$", "location": {"address1": "1190 Main St", "address2": "Unit 302", "address3": null, "city": "Richmond", "zip_code": "02898", "country": "US", "state": "RI", "display_address": ["1190 Main St", "Unit 302", "Richmond, RI 02898"]}, "phone": "+14014919789", "display_phone": "(401) 491-9789", "distance": 8174.2521230781595}, {"id": "AUxLtRlI5vkBFxXqvRFoxQ", "alias": "mcdonalds-wyoming-3", "name": "McDonald's", "image_url": "https://s3-media3.fl.yelpcdn.com/bphoto/8ATmPhLg3ytOg9ObhCtS-A/o.jpg", "is_closed": false, "url": "https://www.yelp.com/biz/mcdonalds-wyoming-3?adjust_creative=HbGs3gi3xS-SfqfxZRDuCw&utm_campaign=yelp_api_v3&utm_medium=api_v3_business_search&utm_source=HbGs3gi3xS-SfqfxZRDuCw", "review_count": 22, "categories": [{"alias": "hotdogs", "title": "Fast Food"}, {"alias": "burgers", "title": "Burgers"}, {"alias": "coffee", "title": "Coffee & Tea"}], "rating": 2.0, "coordinates": {"latitude": 41.5122912216178, "longitude": -71.6882493}, "transactions": [], "price": "$", "location": {"address1": "14 Kingston Rd", "address2": "", "address3": "", "city": "Wyoming", "zip_code": "02898", "country": "US", "state": "RI", "display_address": ["14 Kingston Rd", "Wyoming, RI 02898"]}, "phone": "+14015391115", "display_phone": "(401) 539-1115", "distance": 7515.035877780014}, {"id": "HSTjKSfiJNbc4SBFH6ELOA", "alias": "wendys-richmond-39", "name": "Wendy's", "image_url": "https://s3-media3.fl.yelpcdn.com/bphoto/EJFLSIoLG0VOAIgMLni6Cw/o.jpg", "is_closed": false, "url": "https://www.yelp.com/biz/wendys-richmond-39?adjust_creative=HbGs3gi3xS-SfqfxZRDuCw&utm_campaign=yelp_api_v3&utm_medium=api_v3_business_search&utm_source=HbGs3gi3xS-SfqfxZRDuCw", "review_count": 26, "categories": [{"alias": "burgers", "title": "Burgers"}, {"alias": "hotdogs", "title": "Fast Food"}], "rating": 1.5, "coordinates": {"latitude": 41.5105143122983, "longitude": -71.6839398225724}, "transactions": [], "price": "$", "location": {"address1": "1 Stilson Rd", "address2": "", "address3": "", "city": "Richmond", "zip_code": "02898", "country": "US", "state": "RI", "display_address": ["1 Stilson Rd", "Richmond, RI 02898"]}, "phone": "+14015390630", "display_phone": "(401) 539-0630", "distance": 7155.4963453084865}, {"id": "9UUs9kALiSi7lqbDzm9iCg", "alias": "kingston-pizza-charleston", "name": "Kingston Pizza", "image_url": "https://s3-media3.fl.yelpcdn.com/bphoto/o0IIW5YI1X3DC-yGhPn42w/o.jpg", "is_closed": false, "url": "https://www.yelp.com/biz/kingston-pizza-charleston?adjust_creative=HbGs3gi3xS-SfqfxZRDuCw&utm_campaign=yelp_api_v3&utm_medium=api_v3_business_search&utm_source=HbGs3gi3xS-SfqfxZRDuCw", "review_count": 27, "categories": [{"alias": "pizza", "title": "Pizza"}], "rating": 2.0, "coordinates": {"latitude": 41.3835411, "longitude": -71.6318817}, "transactions": [], "price": "$$", "location": {"address1": "4159 Old Post Rd", "address2": "", "address3": "", "city": "Charleston", "zip_code": "02813", "country": "US", "state": "RI", "display_address": ["4159 Old Post Rd", "Charleston, RI 02813"]}, "phone": "+14013647300", "display_phone": "(401) 364-7300", "distance": 7957.422948379609}, {"id": "JIhRVJ4BAWPH9NZ0u-7Wzw", "alias": "flip-n-roll-fall-river", "name": "Flip N Roll", "image_url": "https://s3-media1.fl.yelpcdn.com/bphoto/A3l1k85peGnmCC17j-Bmhg/o.jpg", "is_closed": false, "url": "https://www.yelp.com/biz/flip-n-roll-fall-river?adjust_creative=HbGs3gi3xS-SfqfxZRDuCw&utm_campaign=yelp_api_v3&utm_medium=api_v3_business_search&utm_source=HbGs3gi3xS-SfqfxZRDuCw", "review_count": 1, "categories": [{"alias": "foodtrucks", "title": "Food Trucks"}, {"alias": "tradamerican", "title": "American (Traditional)"}, {"alias": "portuguese", "title": "Portuguese"}], "rating": 1.0, "coordinates": {"latitude": 41.68687, "longitude": -71.17062}, "transactions": [], "price": "$$", "location": {"address1": "", "address2": "", "address3": "", "city": "Fall River", "zip_code": "02724", "country": "US", "state": "MA", "display_address": ["Fall River, MA 02724"]}, "phone": "", "display_phone": "", "distance": 46471.95144694466}]