[{"id": "AqFDcb_8x_N9jCeDDjLgUQ", "alias": "the-mooring-seafood-kitchen-and-bar-newport-2", "name": "The Mooring Seafood Kitchen & Bar", "image_url": "https://s3-media4.fl.yelpcdn.com/bphoto/mTS1g1WILvU3ctO4cBY93A/o.jpg", "is_closed": false, "url": "https://www.yelp.com/biz/the-mooring-seafood-kitchen-and-bar-newport-2?adjust_creative=9VzDKP4DqSuZkRYYaMKPjA&utm_campaign=yelp_api_v3&utm_medium=api_v3_business_search&utm_source=9VzDKP4DqSuZkRYYaMKPjA", "review_count": 1639, "categories": [{"alias": "seafood", "title": "Seafood"}, {"alias": "wine_bars", "title": "Wine Bars"}], "rating": 4.0, "coordinates": {"latitude": 41.4857857950906, "longitude": -71.316322}, "transactions": ["delivery"], "price": "$$$", "location": {"address1": "1 Sayers Wharf", "address2": "", "address3": "", "city": "Newport", "zip_code": "02840", "country": "US", "state": "RI", "display_address": ["1 Sayers Wharf", "Newport, RI 02840"]}, "phone": "+14018462260", "display_phone": "(401) 846-2260", "distance": 2879.1016640301027}, {"id": "cdjVOXkctJrSxeE5yGEy7g", "alias": "brick-alley-pub-and-restaurant-newport-3", "name": "Brick Alley Pub & Restaurant", "image_url": "https://s3-media2.fl.yelpcdn.com/bphoto/qQ8iasKbAh5VXX8A4jNjdQ/o.jpg", "is_closed": false, "url": "https://www.yelp.com/biz/brick-alley-pub-and-restaurant-newport-3?adjust_creative=9VzDKP4DqSuZkRYYaMKPjA&utm_campaign=yelp_api_v3&utm_medium=api_v3_business_search&utm_source=9VzDKP4DqSuZkRYYaMKPjA", "review_count": 1242, "categories": [{"alias": "tradamerican", "title": "American (Traditional)"}, {"alias": "pubs", "title": "Pubs"}], "rating": 4.0, "coordinates": {"latitude": 41.4893270283937, "longitude": -71.3151378929615}, "transactions": ["delivery"], "price": "$$", "location": {"address1": "140 Thames St", "address2": "", "address3": "", "city": "Newport", "zip_code": "02840", "country": "US", "state": "RI", "display_address": ["140 Thames St", "Newport, RI 02840"]}, "phone": "+14018496334", "display_phone": "(401) 849-6334", "distance": 2503.2154946362393}, {"id": "hf66G1A6LNgCdJ-yBLE-vw", "alias": "anthonys-seafood-middletown-2", "name": "Anthony's Seafood", "image_url": "https://s3-media3.fl.yelpcdn.com/bphoto/BHD0gUxmzCdoaMr55hVKwg/o.jpg", "is_closed": false, "url": "https://www.yelp.com/biz/anthonys-seafood-middletown-2?adjust_creative=9VzDKP4DqSuZkRYYaMKPjA&utm_campaign=yelp_api_v3&utm_medium=api_v3_business_search&utm_source=9VzDKP4DqSuZkRYYaMKPjA", "review_count": 862, "categories": [{"alias": "seafood", "title": "Seafood"}], "rating": 4.0, "coordinates": {"latitude": 41.51343, "longitude": -71.28247}, "transactions": ["delivery"], "price": "$$", "location": {"address1": "963 Aquidneck Ave", "address2": "", "address3": "", "city": "Middletown", "zip_code": "02842", "country": "US", "state": "RI", "display_address": ["963 Aquidneck Ave", "Middletown, RI 02842"]}, "phone": "+14018469620", "display_phone": "(401) 846-9620", "distance": 3291.3457775405145}, {"id": "iHWwl4DfZ0kWQC4LFcfe1Q", "alias": "curryland-newport-2", "name": "Curryland", "image_url": "https://s3-media3.fl.yelpcdn.com/bphoto/kxdmvCSv5P_MHQmSjE6NVg/o.jpg", "is_closed": false, "url": "https://www.yelp.com/biz/curryland-newport-2?adjust_creative=9VzDKP4DqSuZkRYYaMKPjA&utm_campaign=yelp_api_v3&utm_medium=api_v3_business_search&utm_source=9VzDKP4DqSuZkRYYaMKPjA", "review_count": 74, "categories": [{"alias": "indpak", "title": "Indian"}], "rating": 4.0, "coordinates": {"latitude": 41.50767, "longitude": -71.31746}, "transactions": ["pickup", "delivery"], "price": "$$", "location": {"address1": "163 Jt Connell Hwy", "address2": "", "address3": null, "city": "Newport", "zip_code": "02840", "country": "US", "state": "RI", "display_address": ["163 Jt Connell Hwy", "Newport, RI 02840"]}, "phone": "+14016198574", "display_phone": "(401) 619-8574", "distance": 508.8759463713967}, {"id": "ayNsHppnR8BAg1fJDJTRgg", "alias": "wharf-southern-kitchen-and-whiskey-bar-newport", "name": "Wharf Southern Kitchen & Whiskey Bar", "image_url": "https://s3-media4.fl.yelpcdn.com/bphoto/t9e3AXsfbn6-Qbhe74Uapg/o.jpg", "is_closed": false, "url": "https://www.yelp.com/biz/wharf-southern-kitchen-and-whiskey-bar-newport?adjust_creative=9VzDKP4DqSuZkRYYaMKPjA&utm_campaign=yelp_api_v3&utm_medium=api_v3_business_search&utm_source=9VzDKP4DqSuZkRYYaMKPjA", "review_count": 508, "categories": [{"alias": "seafood", "title": "Seafood"}, {"alias": "pubs", "title": "Pubs"}, {"alias": "musicvenues", "title": "Music Venues"}], "rating": 4.0, "coordinates": {"latitude": 41.486630795861, "longitude": -71.3164027088546}, "transactions": ["delivery"], "price": "$$", "location": {"address1": "37 Bowens Wharf", "address2": "", "address3": "", "city": "Newport", "zip_code": "02840", "country": "US", "state": "RI", "display_address": ["37 Bowens Wharf", "Newport, RI 02840"]}, "phone": "+14016195672", "display_phone": "(401) 619-5672", "distance": 2824.419340944151}, {"id": "VSH1GWGRLUE2AJ699L4Lkg", "alias": "midtown-oyster-bar-newport", "name": "Midtown Oyster Bar", "image_url": "https://s3-media3.fl.yelpcdn.com/bphoto/LuC7fEdaSetAMKohR4XFJg/o.jpg", "is_closed": false, "url": "https://www.yelp.com/biz/midtown-oyster-bar-newport?adjust_creative=9VzDKP4DqSuZkRYYaMKPjA&utm_campaign=yelp_api_v3&utm_medium=api_v3_business_search&utm_source=9VzDKP4DqSuZkRYYaMKPjA", "review_count": 1038, "categories": [{"alias": "tradamerican", "title": "American (Traditional)"}, {"alias": "seafood", "title": "Seafood"}, {"alias": "bars", "title": "Bars"}], "rating": 4.0, "coordinates": {"latitude": 41.4841558, "longitude": -71.3147216}, "transactions": ["pickup", "delivery"], "price": "$$", "location": {"address1": "345 Thames St", "address2": "", "address3": "", "city": "Newport", "zip_code": "02840", "country": "US", "state": "RI", "display_address": ["345 Thames St", "Newport, RI 02840"]}, "phone": "+14016194100", "display_phone": "(401) 619-4100", "distance": 3079.6268242515353}, {"id": "orcvI-_mxeLY3_JY1kldDg", "alias": "tsk-thames-street-kitchen-newport", "name": "TSK Thames Street Kitchen", "image_url": "https://s3-media2.fl.yelpcdn.com/bphoto/E5wrw2xLHFaMa_yjGVhCKA/o.jpg", "is_closed": false, "url": "https://www.yelp.com/biz/tsk-thames-street-kitchen-newport?adjust_creative=9VzDKP4DqSuZkRYYaMKPjA&utm_campaign=yelp_api_v3&utm_medium=api_v3_business_search&utm_source=9VzDKP4DqSuZkRYYaMKPjA", "review_count": 59, "categories": [{"alias": "newamerican", "title": "American (New)"}], "rating": 4.5, "coordinates": {"latitude": 41.4791, "longitude": -71.31441}, "transactions": ["delivery"], "price": "$$$", "location": {"address1": "509 Thames St", "address2": null, "address3": "", "city": "Newport", "zip_code": "02840", "country": "US", "state": "RI", "display_address": ["509 Thames St", "Newport, RI 02840"]}, "phone": "+14018460400", "display_phone": "(401) 846-0400", "distance": 3632.411601502672}, {"id": "BMC1v8fVB_HlrBJ__-kpyg", "alias": "rheas-kitchen-middletown", "name": "Rhea's Kitchen", "image_url": "https://s3-media4.fl.yelpcdn.com/bphoto/LM5piAQ9SEnxH9AYkWxbnA/o.jpg", "is_closed": false, "url": "https://www.yelp.com/biz/rheas-kitchen-middletown?adjust_creative=9VzDKP4DqSuZkRYYaMKPjA&utm_campaign=yelp_api_v3&utm_medium=api_v3_business_search&utm_source=9VzDKP4DqSuZkRYYaMKPjA", "review_count": 138, "categories": [{"alias": "seafood", "title": "Seafood"}, {"alias": "tradamerican", "title": "American (Traditional)"}], "rating": 4.5, "coordinates": {"latitude": 41.50869, "longitude": -71.30209}, "transactions": ["delivery"], "price": "$$", "location": {"address1": "120 W Main Rd", "address2": "", "address3": "", "city": "Middletown", "zip_code": "02842", "country": "US", "state": "RI", "display_address": ["120 W Main Rd", "Middletown, RI 02842"]}, "phone": "+14018415560", "display_phone": "(401) 841-5560", "distance": 1611.9146347061035}, {"id": "q3lAYOkhRyXD1-srXXR1Lg", "alias": "white-horse-tavern-newport", "name": "White Horse Tavern", "image_url": "https://s3-media4.fl.yelpcdn.com/bphoto/f7-6S-295THG1d7uIPSbFg/o.jpg", "is_closed": false, "url": "https://www.yelp.com/biz/white-horse-tavern-newport?adjust_creative=9VzDKP4DqSuZkRYYaMKPjA&utm_campaign=yelp_api_v3&utm_medium=api_v3_business_search&utm_source=9VzDKP4DqSuZkRYYaMKPjA", "review_count": 552, "categories": [{"alias": "newamerican", "title": "American (New)"}], "rating": 4.0, "coordinates": {"latitude": 41.4913963, "longitude": -71.3136689}, "transactions": ["delivery"], "price": "$$$", "location": {"address1": "26 Marlborough St", "address2": "", "address3": "", "city": "Newport", "zip_code": "02840", "country": "US", "state": "RI", "display_address": ["26 Marlborough St", "Newport, RI 02840"]}, "phone": "+14018493600", "display_phone": "(401) 849-3600", "distance": 2311.570842694917}, {"id": "BpRK4l3p0jPkouLost1Nmw", "alias": "winner-winner-newport-2", "name": "Winner Winner", "image_url": "https://s3-media3.fl.yelpcdn.com/bphoto/ZVTX768exoxkZBgaCvrfug/o.jpg", "is_closed": false, "url": "https://www.yelp.com/biz/winner-winner-newport-2?adjust_creative=9VzDKP4DqSuZkRYYaMKPjA&utm_campaign=yelp_api_v3&utm_medium=api_v3_business_search&utm_source=9VzDKP4DqSuZkRYYaMKPjA", "review_count": 286, "categories": [{"alias": "chickenshop", "title": "Chicken Shop"}], "rating": 4.5, "coordinates": {"latitude": 41.47391, "longitude": -71.3139}, "transactions": ["delivery"], "price": "$$", "location": {"address1": "677 Thames St", "address2": null, "address3": "", "city": "Newport", "zip_code": "02840", "country": "US", "state": "RI", "display_address": ["677 Thames St", "Newport, RI 02840"]}, "phone": "+14018482449", "display_phone": "(401) 848-2449", "distance": 4213.51382708856}, {"id": "pRlh7D9Vc6a30qVDut4fgQ", "alias": "idas-restaurant-middletown", "name": "Ida's Restaurant", "image_url": "https://s3-media2.fl.yelpcdn.com/bphoto/brs4HISXyBgXhI_j29UCWg/o.jpg", "is_closed": false, "url": "https://www.yelp.com/biz/idas-restaurant-middletown?adjust_creative=9VzDKP4DqSuZkRYYaMKPjA&utm_campaign=yelp_api_v3&utm_medium=api_v3_business_search&utm_source=9VzDKP4DqSuZkRYYaMKPjA", "review_count": 108, "categories": [{"alias": "italian", "title": "Italian"}, {"alias": "seafood", "title": "Seafood"}, {"alias": "tradamerican", "title": "American (Traditional)"}], "rating": 4.5, "coordinates": {"latitude": 41.521324, "longitude": -71.294943}, "transactions": ["delivery"], "price": "$$", "location": {"address1": "21 Valley Rd", "address2": "Ste B", "address3": "", "city": "Middletown", "zip_code": "02842", "country": "US", "state": "RI", "display_address": ["21 Valley Rd", "Ste B", "Middletown, RI 02842"]}, "phone": "+14018493377", "display_phone": "(401) 849-3377", "distance": 2460.1747551350873}, {"id": "sZG5qA0mvCT5mzyLZEioag", "alias": "bar-cino-newport-2", "name": "Bar \u2018Cino", "image_url": "https://s3-media4.fl.yelpcdn.com/bphoto/oU9RaPqexY7JaPmBO8ftnw/o.jpg", "is_closed": false, "url": "https://www.yelp.com/biz/bar-cino-newport-2?adjust_creative=9VzDKP4DqSuZkRYYaMKPjA&utm_campaign=yelp_api_v3&utm_medium=api_v3_business_search&utm_source=9VzDKP4DqSuZkRYYaMKPjA", "review_count": 70, "categories": [{"alias": "bars", "title": "Bars"}, {"alias": "italian", "title": "Italian"}], "rating": 4.5, "coordinates": {"latitude": 41.490306, "longitude": -71.314312}, "transactions": ["delivery"], "location": {"address1": "22 Washington Sq", "address2": "", "address3": null, "city": "Newport", "zip_code": "02840", "country": "US", "state": "RI", "display_address": ["22 Washington Sq", "Newport, RI 02840"]}, "phone": "+14016198201", "display_phone": "(401) 619-8201", "distance": 2418.009549870904}, {"id": "WCdTERhOBeVvgA17ds9nZg", "alias": "pour-judgement-bar-and-grill-newport-2", "name": "Pour Judgement Bar and Grill", "image_url": "https://s3-media1.fl.yelpcdn.com/bphoto/cPjvHmCE93qjJ-c5Gh_OgQ/o.jpg", "is_closed": false, "url": "https://www.yelp.com/biz/pour-judgement-bar-and-grill-newport-2?adjust_creative=9VzDKP4DqSuZkRYYaMKPjA&utm_campaign=yelp_api_v3&utm_medium=api_v3_business_search&utm_source=9VzDKP4DqSuZkRYYaMKPjA", "review_count": 470, "categories": [{"alias": "bars", "title": "Bars"}, {"alias": "tradamerican", "title": "American (Traditional)"}, {"alias": "musicvenues", "title": "Music Venues"}], "rating": 4.0, "coordinates": {"latitude": 41.49144, "longitude": -71.31236}, "transactions": ["delivery"], "price": "$$", "location": {"address1": "32 Broadway", "address2": "", "address3": "", "city": "Newport", "zip_code": "02840", "country": "US", "state": "RI", "display_address": ["32 Broadway", "Newport, RI 02840"]}, "phone": "+14016192115", "display_phone": "(401) 619-2115", "distance": 2356.6195849127125}, {"id": "Nuq2IOAdY6SwgzwSCMJoNg", "alias": "boru-noodle-bar-newport", "name": "Boru Noodle Bar", "image_url": "https://s3-media2.fl.yelpcdn.com/bphoto/0TK07JnXp_J5M8xRBJsKhw/o.jpg", "is_closed": false, "url": "https://www.yelp.com/biz/boru-noodle-bar-newport?adjust_creative=9VzDKP4DqSuZkRYYaMKPjA&utm_campaign=yelp_api_v3&utm_medium=api_v3_business_search&utm_source=9VzDKP4DqSuZkRYYaMKPjA", "review_count": 289, "categories": [{"alias": "noodles", "title": "Noodles"}], "rating": 4.0, "coordinates": {"latitude": 41.4913292, "longitude": -71.3125381}, "transactions": ["delivery"], "price": "$$", "location": {"address1": "36 Broadway", "address2": "", "address3": "", "city": "Newport", "zip_code": "02840", "country": "US", "state": "RI", "display_address": ["36 Broadway", "Newport, RI 02840"]}, "phone": "+14018464200", "display_phone": "(401) 846-4200", "distance": 2355.451710286718}, {"id": "CjatK28pVnktuvM73F-PSg", "alias": "scarpetta-newport-newport", "name": "Scarpetta Newport", "image_url": "https://s3-media3.fl.yelpcdn.com/bphoto/Tvs0JN-59AJ3Lt1769QuWg/o.jpg", "is_closed": false, "url": "https://www.yelp.com/biz/scarpetta-newport-newport?adjust_creative=9VzDKP4DqSuZkRYYaMKPjA&utm_campaign=yelp_api_v3&utm_medium=api_v3_business_search&utm_source=9VzDKP4DqSuZkRYYaMKPjA", "review_count": 109, "categories": [{"alias": "italian", "title": "Italian"}], "rating": 4.0, "coordinates": {"latitude": 41.492033, "longitude": -71.327292}, "transactions": ["delivery"], "price": "$$$", "location": {"address1": "1 Goat Island", "address2": null, "address3": null, "city": "Newport", "zip_code": "02840", "country": "US", "state": "RI", "display_address": ["1 Goat Island", "Newport, RI 02840"]}, "phone": "+14018492600", "display_phone": "(401) 849-2600", "distance": 2209.824104784989}, {"id": "AKCN2lsn8XVfChTBllAjvQ", "alias": "mission-newport", "name": "Mission", "image_url": "https://s3-media1.fl.yelpcdn.com/bphoto/6kwycWwmkeaBYPcquA1i6Q/o.jpg", "is_closed": false, "url": "https://www.yelp.com/biz/mission-newport?adjust_creative=9VzDKP4DqSuZkRYYaMKPjA&utm_campaign=yelp_api_v3&utm_medium=api_v3_business_search&utm_source=9VzDKP4DqSuZkRYYaMKPjA", "review_count": 542, "categories": [{"alias": "burgers", "title": "Burgers"}, {"alias": "falafel", "title": "Falafel"}, {"alias": "beerbar", "title": "Beer Bar"}], "rating": 4.5, "coordinates": {"latitude": 41.4912923317052, "longitude": -71.313038058579}, "transactions": ["delivery"], "price": "$$", "location": {"address1": "29 Marlborough St", "address2": "", "address3": "", "city": "Newport", "zip_code": "02840", "country": "US", "state": "RI", "display_address": ["29 Marlborough St", "Newport, RI 02840"]}, "phone": "+14016195560", "display_phone": "(401) 619-5560", "distance": 2340.924312462306}, {"id": "U1L4OrybvhRWmZHLo1L9tA", "alias": "the-fifth-element-newport", "name": "The Fifth Element", "image_url": "https://s3-media1.fl.yelpcdn.com/bphoto/VDp5jaju2UoUl3M7k_hk6w/o.jpg", "is_closed": false, "url": "https://www.yelp.com/biz/the-fifth-element-newport?adjust_creative=9VzDKP4DqSuZkRYYaMKPjA&utm_campaign=yelp_api_v3&utm_medium=api_v3_business_search&utm_source=9VzDKP4DqSuZkRYYaMKPjA", "review_count": 252, "categories": [{"alias": "newamerican", "title": "American (New)"}, {"alias": "lounges", "title": "Lounges"}, {"alias": "venues", "title": "Venues & Event Spaces"}], "rating": 4.0, "coordinates": {"latitude": 41.49325, "longitude": -71.30977}, "transactions": ["delivery"], "price": "$$", "location": {"address1": "111 Broadway", "address2": null, "address3": "", "city": "Newport", "zip_code": "02840", "country": "US", "state": "RI", "display_address": ["111 Broadway", "Newport, RI 02840"]}, "phone": "+14016192552", "display_phone": "(401) 619-2552", "distance": 2236.166885893671}, {"id": "G8jyY0_hFlxorWpikbyY7g", "alias": "salvation-cafe-newport", "name": "Salvation Cafe", "image_url": "https://s3-media2.fl.yelpcdn.com/bphoto/CearuRrnImvsK0bNw2j8bg/o.jpg", "is_closed": false, "url": "https://www.yelp.com/biz/salvation-cafe-newport?adjust_creative=9VzDKP4DqSuZkRYYaMKPjA&utm_campaign=yelp_api_v3&utm_medium=api_v3_business_search&utm_source=9VzDKP4DqSuZkRYYaMKPjA", "review_count": 339, "categories": [{"alias": "newamerican", "title": "American (New)"}, {"alias": "seafood", "title": "Seafood"}], "rating": 4.0, "coordinates": {"latitude": 41.49341, "longitude": -71.31014}, "transactions": ["delivery"], "price": "$$", "location": {"address1": "140 Broadway", "address2": "", "address3": "", "city": "Newport", "zip_code": "02840", "country": "US", "state": "RI", "display_address": ["140 Broadway", "Newport, RI 02840"]}, "phone": "+14018472620", "display_phone": "(401) 847-2620", "distance": 2198.669296916478}, {"id": "Td9zjRs3meJUhKGQH3pqWg", "alias": "malt-newport", "name": "Malt", "image_url": "https://s3-media2.fl.yelpcdn.com/bphoto/BJ9Mc360GozlXJmh25_9Gw/o.jpg", "is_closed": false, "url": "https://www.yelp.com/biz/malt-newport?adjust_creative=9VzDKP4DqSuZkRYYaMKPjA&utm_campaign=yelp_api_v3&utm_medium=api_v3_business_search&utm_source=9VzDKP4DqSuZkRYYaMKPjA", "review_count": 186, "categories": [{"alias": "newamerican", "title": "American (New)"}], "rating": 4.0, "coordinates": {"latitude": 41.4936867, "longitude": -71.3098602}, "transactions": ["delivery"], "price": "$$", "location": {"address1": "150 Broadway", "address2": "", "address3": "", "city": "Newport", "zip_code": "02840", "country": "US", "state": "RI", "display_address": ["150 Broadway", "Newport, RI 02840"]}, "phone": "+14016191667", "display_phone": "(401) 619-1667", "distance": 2186.1573883471597}, {"id": "5-utAGVRvtJaINslW5YOBw", "alias": "mamma-luisa-italian-restaurant-newport", "name": "Mamma Luisa Italian Restaurant", "image_url": "https://s3-media1.fl.yelpcdn.com/bphoto/0iPowib_yraMdL-ewfxmKw/o.jpg", "is_closed": false, "url": "https://www.yelp.com/biz/mamma-luisa-italian-restaurant-newport?adjust_creative=9VzDKP4DqSuZkRYYaMKPjA&utm_campaign=yelp_api_v3&utm_medium=api_v3_business_search&utm_source=9VzDKP4DqSuZkRYYaMKPjA", "review_count": 349, "categories": [{"alias": "italian", "title": "Italian"}], "rating": 4.0, "coordinates": {"latitude": 41.4741, "longitude": -71.31402}, "transactions": ["delivery"], "price": "$$", "location": {"address1": "673 Thames St", "address2": "", "address3": "", "city": "Newport", "zip_code": "02840", "country": "US", "state": "RI", "display_address": ["673 Thames St", "Newport, RI 02840"]}, "phone": "+14018485257", "display_phone": "(401) 848-5257", "distance": 4193.358694516954}, {"id": "KhwV2OOHTvKFoLWPQfmVWQ", "alias": "flos-clam-shack-middletown-2", "name": "Flo's Clam Shack", "image_url": "https://s3-media2.fl.yelpcdn.com/bphoto/vtqG3e5L9HxGja3wu4ZOfw/o.jpg", "is_closed": false, "url": "https://www.yelp.com/biz/flos-clam-shack-middletown-2?adjust_creative=9VzDKP4DqSuZkRYYaMKPjA&utm_campaign=yelp_api_v3&utm_medium=api_v3_business_search&utm_source=9VzDKP4DqSuZkRYYaMKPjA", "review_count": 572, "categories": [{"alias": "seafood", "title": "Seafood"}], "rating": 3.5, "coordinates": {"latitude": 41.4901319393572, "longitude": -71.2859330636009}, "transactions": ["delivery"], "price": "$$", "location": {"address1": "4 Wave Ave", "address2": "", "address3": "", "city": "Middletown", "zip_code": "02842", "country": "US", "state": "RI", "display_address": ["4 Wave Ave", "Middletown, RI 02842"]}, "phone": "+14018478141", "display_phone": "(401) 847-8141", "distance": 3851.9496607259352}, {"id": "4I0VHCYt2RCd6XenugXAog", "alias": "jos-american-bistro-newport", "name": "Jo's American Bistro", "image_url": "https://s3-media1.fl.yelpcdn.com/bphoto/iwGNP6IA_VZ-WPR6apsDtQ/o.jpg", "is_closed": false, "url": "https://www.yelp.com/biz/jos-american-bistro-newport?adjust_creative=9VzDKP4DqSuZkRYYaMKPjA&utm_campaign=yelp_api_v3&utm_medium=api_v3_business_search&utm_source=9VzDKP4DqSuZkRYYaMKPjA", "review_count": 227, "categories": [{"alias": "newamerican", "title": "American (New)"}, {"alias": "seafood", "title": "Seafood"}, {"alias": "burgers", "title": "Burgers"}], "rating": 4.5, "coordinates": {"latitude": 41.4837247, "longitude": -71.3097664}, "transactions": ["delivery"], "price": "$$", "location": {"address1": "24 Memorial Blvd W", "address2": "", "address3": "", "city": "Newport", "zip_code": "02840", "country": "US", "state": "RI", "display_address": ["24 Memorial Blvd W", "Newport, RI 02840"]}, "phone": "+14018475506", "display_phone": "(401) 847-5506", "distance": 3225.37949397569}, {"id": "0K8EiinwH4OzJuIb86T6zQ", "alias": "bouchard-restaurant-newport", "name": "Bouchard Restaurant", "image_url": "https://s3-media1.fl.yelpcdn.com/bphoto/T5WmooU13UE4kipEVZw-Fg/o.jpg", "is_closed": false, "url": "https://www.yelp.com/biz/bouchard-restaurant-newport?adjust_creative=9VzDKP4DqSuZkRYYaMKPjA&utm_campaign=yelp_api_v3&utm_medium=api_v3_business_search&utm_source=9VzDKP4DqSuZkRYYaMKPjA", "review_count": 294, "categories": [{"alias": "french", "title": "French"}], "rating": 4.5, "coordinates": {"latitude": 41.47924, "longitude": -71.31448}, "transactions": [], "price": "$$$", "location": {"address1": "505 Thames St", "address2": "", "address3": "", "city": "Newport", "zip_code": "02840", "country": "US", "state": "RI", "display_address": ["505 Thames St", "Newport, RI 02840"]}, "phone": "+14018460123", "display_phone": "(401) 846-0123", "distance": 3619.920603520556}, {"id": "fP-x7foKzVx9j-qJ98XacA", "alias": "yagi-noodles-newport", "name": "Yagi Noodles", "image_url": "https://s3-media3.fl.yelpcdn.com/bphoto/CpEp7bpVyDY5AV-bDESNkg/o.jpg", "is_closed": false, "url": "https://www.yelp.com/biz/yagi-noodles-newport?adjust_creative=9VzDKP4DqSuZkRYYaMKPjA&utm_campaign=yelp_api_v3&utm_medium=api_v3_business_search&utm_source=9VzDKP4DqSuZkRYYaMKPjA", "review_count": 13, "categories": [{"alias": "ramen", "title": "Ramen"}, {"alias": "noodles", "title": "Noodles"}, {"alias": "popuprestaurants", "title": "Pop-Up Restaurants"}], "rating": 4.0, "coordinates": {"latitude": 41.47683, "longitude": -71.313726}, "transactions": [], "price": "$$", "location": {"address1": "580 Thames St", "address2": "", "address3": null, "city": "Newport", "zip_code": "02840", "country": "US", "state": "RI", "display_address": ["580 Thames St", "Newport, RI 02840"]}, "phone": "+14013245669", "display_phone": "(401) 324-5669", "distance": 3896.420159550879}, {"id": "6bl3vkeixSCttv9hY5go1Q", "alias": "sunrise-restaurant-middletown", "name": "Sunrise Restaurant", "image_url": "https://s3-media2.fl.yelpcdn.com/bphoto/Ch8EhurtvpKVqhhJ0XISWA/o.jpg", "is_closed": false, "url": "https://www.yelp.com/biz/sunrise-restaurant-middletown?adjust_creative=9VzDKP4DqSuZkRYYaMKPjA&utm_campaign=yelp_api_v3&utm_medium=api_v3_business_search&utm_source=9VzDKP4DqSuZkRYYaMKPjA", "review_count": 99, "categories": [{"alias": "vietnamese", "title": "Vietnamese"}], "rating": 4.0, "coordinates": {"latitude": 41.5252, "longitude": -71.2975}, "transactions": ["delivery"], "price": "$$", "location": {"address1": "823 W Main Rd", "address2": "", "address3": "", "city": "Middletown", "zip_code": "02842", "country": "US", "state": "RI", "display_address": ["823 W Main Rd", "Middletown, RI 02842"]}, "phone": "+14018482252", "display_phone": "(401) 848-2252", "distance": 2539.742006595271}, {"id": "VVPR5r7j5EYhKYtBqE3HuA", "alias": "22-bowens-wine-bar-and-grille-newport", "name": "22 Bowen's Wine Bar & Grille", "image_url": "https://s3-media1.fl.yelpcdn.com/bphoto/Nt3nW8O0lxKT94Nc76SdKw/o.jpg", "is_closed": false, "url": "https://www.yelp.com/biz/22-bowens-wine-bar-and-grille-newport?adjust_creative=9VzDKP4DqSuZkRYYaMKPjA&utm_campaign=yelp_api_v3&utm_medium=api_v3_business_search&utm_source=9VzDKP4DqSuZkRYYaMKPjA", "review_count": 639, "categories": [{"alias": "newamerican", "title": "American (New)"}, {"alias": "wine_bars", "title": "Wine Bars"}, {"alias": "steak", "title": "Steakhouses"}], "rating": 4.0, "coordinates": {"latitude": 41.4867523, "longitude": -71.3165491}, "transactions": ["delivery"], "price": "$$$", "location": {"address1": "22 Bowen's Wharf", "address2": "", "address3": "", "city": "Newport", "zip_code": "02840", "country": "US", "state": "RI", "display_address": ["22 Bowen's Wharf", "Newport, RI 02840"]}, "phone": "+14018418884", "display_phone": "(401) 841-8884", "distance": 2770.0242277845537}, {"id": "UYJcTlANhdB8pinOexIReg", "alias": "bishops-4th-street-diner-newport", "name": "Bishop's 4th Street Diner", "image_url": "https://s3-media1.fl.yelpcdn.com/bphoto/rZiSTIctVVyQDNnh4Lc5JA/o.jpg", "is_closed": false, "url": "https://www.yelp.com/biz/bishops-4th-street-diner-newport?adjust_creative=9VzDKP4DqSuZkRYYaMKPjA&utm_campaign=yelp_api_v3&utm_medium=api_v3_business_search&utm_source=9VzDKP4DqSuZkRYYaMKPjA", "review_count": 82, "categories": [{"alias": "diners", "title": "Diners"}], "rating": 4.0, "coordinates": {"latitude": 41.5066367, "longitude": -71.3191294}, "transactions": ["delivery"], "price": "$", "location": {"address1": "184 Admiral Kalbfus Rd", "address2": "", "address3": "", "city": "Newport", "zip_code": "02840", "country": "US", "state": "RI", "display_address": ["184 Admiral Kalbfus Rd", "Newport, RI 02840"]}, "phone": "+14018472069", "display_phone": "(401) 847-2069", "distance": 584.714887953104}, {"id": "LWkyoS45LNHioi4uaVoWRw", "alias": "officers-club-newport", "name": "Officer's Club", "image_url": "https://s3-media3.fl.yelpcdn.com/bphoto/k3UPoBDKhn9r_iEgO_05lQ/o.jpg", "is_closed": false, "url": "https://www.yelp.com/biz/officers-club-newport?adjust_creative=9VzDKP4DqSuZkRYYaMKPjA&utm_campaign=yelp_api_v3&utm_medium=api_v3_business_search&utm_source=9VzDKP4DqSuZkRYYaMKPjA", "review_count": 40, "categories": [{"alias": "tradamerican", "title": "American (Traditional)"}], "rating": 3.5, "coordinates": {"latitude": 41.5049223600044, "longitude": -71.3280347089191}, "transactions": [], "price": "$$", "location": {"address1": "95 Perry Rd", "address2": "", "address3": "Naval Station Newport", "city": "Newport", "zip_code": "02841", "country": "US", "state": "RI", "display_address": ["95 Perry Rd", "Naval Station Newport", "Newport, RI 02841"]}, "phone": "+14018414821", "display_phone": "(401) 841-4821", "distance": 910.315293622034}, {"id": "7BDGNejyfVM3Htw0a4dRkA", "alias": "siam-square-fine-thai-cuisine-middletown", "name": "Siam Square Fine Thai Cuisine", "image_url": "https://s3-media4.fl.yelpcdn.com/bphoto/uunX-Dhu05ASmC4m1zZzzA/o.jpg", "is_closed": false, "url": "https://www.yelp.com/biz/siam-square-fine-thai-cuisine-middletown?adjust_creative=9VzDKP4DqSuZkRYYaMKPjA&utm_campaign=yelp_api_v3&utm_medium=api_v3_business_search&utm_source=9VzDKP4DqSuZkRYYaMKPjA", "review_count": 133, "categories": [{"alias": "thai", "title": "Thai"}], "rating": 4.0, "coordinates": {"latitude": 41.5196161, "longitude": -71.2930642}, "transactions": ["delivery"], "price": "$$", "location": {"address1": "238 E Main Rd", "address2": "", "address3": "", "city": "Middletown", "zip_code": "02842", "country": "US", "state": "RI", "display_address": ["238 E Main Rd", "Middletown, RI 02842"]}, "phone": "+14018517988", "display_phone": "(401) 851-7988", "distance": 2526.274677954117}, {"id": "BrjSZFXQ77wtgVCghgIzXA", "alias": "the-pub-at-two-mile-corner-middletown", "name": "The Pub at Two Mile Corner", "image_url": "https://s3-media1.fl.yelpcdn.com/bphoto/w1G5DOJ212d5DtniM3uzvA/o.jpg", "is_closed": false, "url": "https://www.yelp.com/biz/the-pub-at-two-mile-corner-middletown?adjust_creative=9VzDKP4DqSuZkRYYaMKPjA&utm_campaign=yelp_api_v3&utm_medium=api_v3_business_search&utm_source=9VzDKP4DqSuZkRYYaMKPjA", "review_count": 36, "categories": [{"alias": "chicken_wings", "title": "Chicken Wings"}, {"alias": "beerbar", "title": "Beer Bar"}, {"alias": "pubs", "title": "Pubs"}], "rating": 4.5, "coordinates": {"latitude": 41.5162531, "longitude": -71.3012112}, "transactions": ["pickup", "delivery"], "price": "$$", "location": {"address1": "10 Maple Ave", "address2": "Parking lot and Entrance on Smythe St", "address3": null, "city": "Middletown", "zip_code": "02842", "country": "US", "state": "RI", "display_address": ["10 Maple Ave", "Parking lot and Entrance on Smythe St", "Middletown, RI 02842"]}, "phone": "+14018461236", "display_phone": "(401) 846-1236", "distance": 1749.4728254045617}, {"id": "Adm0lVB53UbuNiv5FWzCfg", "alias": "99-restaurants-newport", "name": "99 Restaurants", "image_url": "https://s3-media2.fl.yelpcdn.com/bphoto/QgDcSNd5N05xmjMaDsGlYw/o.jpg", "is_closed": false, "url": "https://www.yelp.com/biz/99-restaurants-newport?adjust_creative=9VzDKP4DqSuZkRYYaMKPjA&utm_campaign=yelp_api_v3&utm_medium=api_v3_business_search&utm_source=9VzDKP4DqSuZkRYYaMKPjA", "review_count": 50, "categories": [{"alias": "tradamerican", "title": "American (Traditional)"}, {"alias": "pubs", "title": "Pubs"}], "rating": 3.5, "coordinates": {"latitude": 41.5097937381484, "longitude": -71.3174154236913}, "transactions": [], "price": "$$", "location": {"address1": "199 JTConnell Hwy", "address2": "", "address3": "", "city": "Newport", "zip_code": "02840", "country": "US", "state": "RI", "display_address": ["199 JTConnell Hwy", "Newport, RI 02840"]}, "phone": "+14018499969", "display_phone": "(401) 849-9969", "distance": 373.55793429241294}, {"id": "v6rJOyL3IOBtPn9TvAU9Jg", "alias": "brix-restaurant-middletown-2", "name": "Brix Restaurant", "image_url": "https://s3-media3.fl.yelpcdn.com/bphoto/whXL43yFi6fcEMwzuDsDiA/o.jpg", "is_closed": false, "url": "https://www.yelp.com/biz/brix-restaurant-middletown-2?adjust_creative=9VzDKP4DqSuZkRYYaMKPjA&utm_campaign=yelp_api_v3&utm_medium=api_v3_business_search&utm_source=9VzDKP4DqSuZkRYYaMKPjA", "review_count": 160, "categories": [{"alias": "tradamerican", "title": "American (Traditional)"}, {"alias": "cocktailbars", "title": "Cocktail Bars"}], "rating": 3.5, "coordinates": {"latitude": 41.529288, "longitude": -71.272548}, "transactions": ["delivery"], "price": "$$$", "location": {"address1": "909 E Main Rd", "address2": "", "address3": "", "city": "Middletown", "zip_code": "02842", "country": "US", "state": "RI", "display_address": ["909 E Main Rd", "Middletown, RI 02842"]}, "phone": "+14018485161", "display_phone": "(401) 848-5161", "distance": 4527.936037536226}, {"id": "el4fv-wn3NF5YQD8OtmPcw", "alias": "corner-cafe-newport", "name": "Corner Cafe", "image_url": "https://s3-media4.fl.yelpcdn.com/bphoto/K2A4-OuVwMper5-s1JkOKg/o.jpg", "is_closed": false, "url": "https://www.yelp.com/biz/corner-cafe-newport?adjust_creative=9VzDKP4DqSuZkRYYaMKPjA&utm_campaign=yelp_api_v3&utm_medium=api_v3_business_search&utm_source=9VzDKP4DqSuZkRYYaMKPjA", "review_count": 889, "categories": [{"alias": "breakfast_brunch", "title": "Breakfast & Brunch"}, {"alias": "cafes", "title": "Cafes"}, {"alias": "pizza", "title": "Pizza"}], "rating": 4.5, "coordinates": {"latitude": 41.4925934, "longitude": -71.3110722}, "transactions": [], "price": "$$", "location": {"address1": "110 Broadway", "address2": "", "address3": "", "city": "Newport", "zip_code": "02840", "country": "US", "state": "RI", "display_address": ["110 Broadway", "Newport, RI 02840"]}, "phone": "+14018460606", "display_phone": "(401) 846-0606", "distance": 2254.507298372507}, {"id": "Hwhagb_6CECPi-WwqH-C1Q", "alias": "beckys-bbq-middletown-2", "name": "Becky's BBQ", "image_url": "https://s3-media1.fl.yelpcdn.com/bphoto/hWTNOGeoF8LWB3vPjoY7yg/o.jpg", "is_closed": false, "url": "https://www.yelp.com/biz/beckys-bbq-middletown-2?adjust_creative=9VzDKP4DqSuZkRYYaMKPjA&utm_campaign=yelp_api_v3&utm_medium=api_v3_business_search&utm_source=9VzDKP4DqSuZkRYYaMKPjA", "review_count": 219, "categories": [{"alias": "bbq", "title": "Barbeque"}], "rating": 4.0, "coordinates": {"latitude": 41.5176229923964, "longitude": -71.2978845834732}, "transactions": ["delivery"], "price": "$", "location": {"address1": "82 E Main Rd", "address2": "", "address3": "", "city": "Middletown", "zip_code": "02842", "country": "US", "state": "RI", "display_address": ["82 E Main Rd", "Middletown, RI 02842"]}, "phone": "+14018419909", "display_phone": "(401) 841-9909", "distance": 2052.305367568885}, {"id": "DaSgGEXWCqKc5bwT0YrK8w", "alias": "the-black-pearl-newport", "name": "The Black Pearl", "image_url": "https://s3-media3.fl.yelpcdn.com/bphoto/89Bixl1pSZWVtPvS2reIHg/o.jpg", "is_closed": false, "url": "https://www.yelp.com/biz/the-black-pearl-newport?adjust_creative=9VzDKP4DqSuZkRYYaMKPjA&utm_campaign=yelp_api_v3&utm_medium=api_v3_business_search&utm_source=9VzDKP4DqSuZkRYYaMKPjA", "review_count": 645, "categories": [{"alias": "seafood", "title": "Seafood"}, {"alias": "hotdog", "title": "Hot Dogs"}, {"alias": "sandwiches", "title": "Sandwiches"}], "rating": 3.5, "coordinates": {"latitude": 41.486203599654, "longitude": -71.3163541794542}, "transactions": [], "price": "$$", "location": {"address1": "Bannister's Wharf", "address2": "", "address3": "", "city": "Newport", "zip_code": "02840", "country": "US", "state": "RI", "display_address": ["Bannister's Wharf", "Newport, RI 02840"]}, "phone": "+14018465264", "display_phone": "(401) 846-5264", "distance": 2832.7514366265304}, {"id": "nR903jymlToJxjRJlMCtMg", "alias": "sprout-and-lentil-middletown", "name": "Sprout and Lentil", "image_url": "https://s3-media2.fl.yelpcdn.com/bphoto/SGvKdMhei5cZpClfKnuwzw/o.jpg", "is_closed": false, "url": "https://www.yelp.com/biz/sprout-and-lentil-middletown?adjust_creative=9VzDKP4DqSuZkRYYaMKPjA&utm_campaign=yelp_api_v3&utm_medium=api_v3_business_search&utm_source=9VzDKP4DqSuZkRYYaMKPjA", "review_count": 4, "categories": [{"alias": "vegan", "title": "Vegan"}, {"alias": "soup", "title": "Soup"}, {"alias": "burgers", "title": "Burgers"}], "rating": 5.0, "coordinates": {"latitude": 41.509691, "longitude": -71.282945}, "transactions": ["delivery"], "location": {"address1": "796 Aquidneck Ave", "address2": "Unit 3", "address3": "", "city": "Middletown", "zip_code": "02840", "country": "US", "state": "RI", "display_address": ["796 Aquidneck Ave", "Unit 3", "Middletown, RI 02840"]}, "phone": "+14014260500", "display_phone": "(401) 426-0500", "distance": 3203.8295976144254}, {"id": "t-o19DKWT-yTG_DsLtSAUw", "alias": "newport-creamery-middletown", "name": "Newport Creamery", "image_url": "https://s3-media1.fl.yelpcdn.com/bphoto/5OYXyjyc5ujmJUH0lXPXmA/o.jpg", "is_closed": false, "url": "https://www.yelp.com/biz/newport-creamery-middletown?adjust_creative=9VzDKP4DqSuZkRYYaMKPjA&utm_campaign=yelp_api_v3&utm_medium=api_v3_business_search&utm_source=9VzDKP4DqSuZkRYYaMKPjA", "review_count": 166, "categories": [{"alias": "burgers", "title": "Burgers"}, {"alias": "diners", "title": "Diners"}, {"alias": "icecream", "title": "Ice Cream & Frozen Yogurt"}], "rating": 3.5, "coordinates": {"latitude": 41.51104, "longitude": -71.30244}, "transactions": [], "price": "$", "location": {"address1": "208 W Main Rd", "address2": "", "address3": "", "city": "Middletown", "zip_code": "02842", "country": "US", "state": "RI", "display_address": ["208 W Main Rd", "Middletown, RI 02842"]}, "phone": "+14018462767", "display_phone": "(401) 846-2767", "distance": 1537.1672457541515}, {"id": "-nK9PQgll9k_SW9QLIegCw", "alias": "international-pocket-cafe-middletown", "name": "International Pocket Cafe", "image_url": "https://s3-media1.fl.yelpcdn.com/bphoto/gA_ePf7c4grPHvJzq33-GQ/o.jpg", "is_closed": false, "url": "https://www.yelp.com/biz/international-pocket-cafe-middletown?adjust_creative=9VzDKP4DqSuZkRYYaMKPjA&utm_campaign=yelp_api_v3&utm_medium=api_v3_business_search&utm_source=9VzDKP4DqSuZkRYYaMKPjA", "review_count": 234, "categories": [{"alias": "mediterranean", "title": "Mediterranean"}, {"alias": "hotdogs", "title": "Fast Food"}, {"alias": "cafes", "title": "Cafes"}], "rating": 4.5, "coordinates": {"latitude": 41.5172214, "longitude": -71.2995867}, "transactions": ["pickup", "delivery"], "price": "$", "location": {"address1": "52 E Main Rd", "address2": "", "address3": "", "city": "Middletown", "zip_code": "02842", "country": "US", "state": "RI", "display_address": ["52 E Main Rd", "Middletown, RI 02842"]}, "phone": "+14018478900", "display_phone": "(401) 847-8900", "distance": 1953.3054658611609}, {"id": "nDmkflrq2elBhcEuHgVN8w", "alias": "viest\u00e9-simply-italian-newport", "name": "Viest\u00e9 Simply Italian", "image_url": "https://s3-media2.fl.yelpcdn.com/bphoto/of1qzSc0vDkAmU7PznT1RQ/o.jpg", "is_closed": false, "url": "https://www.yelp.com/biz/viest%C3%A9-simply-italian-newport?adjust_creative=9VzDKP4DqSuZkRYYaMKPjA&utm_campaign=yelp_api_v3&utm_medium=api_v3_business_search&utm_source=9VzDKP4DqSuZkRYYaMKPjA", "review_count": 23, "categories": [{"alias": "italian", "title": "Italian"}, {"alias": "wine_bars", "title": "Wine Bars"}], "rating": 4.5, "coordinates": {"latitude": 41.478944, "longitude": -71.3144}, "transactions": ["delivery"], "location": {"address1": "515 Thames St", "address2": "", "address3": null, "city": "Newport", "zip_code": "02840", "country": "US", "state": "RI", "display_address": ["515 Thames St", "Newport, RI 02840"]}, "phone": "+14013245905", "display_phone": "(401) 324-5905", "distance": 3657.092396436777}, {"id": "oQcxpCE0I69v_vBWizwYIg", "alias": "the-caf\u00e9-at-the-chanler-newport-3", "name": "The Caf\u00e9 at The Chanler", "image_url": "https://s3-media1.fl.yelpcdn.com/bphoto/M4aUb76WMdv3fOmNvDr6rA/o.jpg", "is_closed": false, "url": "https://www.yelp.com/biz/the-caf%C3%A9-at-the-chanler-newport-3?adjust_creative=9VzDKP4DqSuZkRYYaMKPjA&utm_campaign=yelp_api_v3&utm_medium=api_v3_business_search&utm_source=9VzDKP4DqSuZkRYYaMKPjA", "review_count": 6, "categories": [{"alias": "mediterranean", "title": "Mediterranean"}], "rating": 4.0, "coordinates": {"latitude": 41.48445, "longitude": -71.29813}, "transactions": ["delivery"], "location": {"address1": "117 Memorial Blvd", "address2": "", "address3": null, "city": "Newport", "zip_code": "02840", "country": "US", "state": "RI", "display_address": ["117 Memorial Blvd", "Newport, RI 02840"]}, "phone": "+14018471300", "display_phone": "(401) 847-1300", "distance": 3565.5951266820393}, {"id": "J9AeOmizHAoOJ-jXhZ48rA", "alias": "caleb-and-broad-newport", "name": "Caleb & Broad", "image_url": "https://s3-media1.fl.yelpcdn.com/bphoto/FNx5WCvr35joMYRDiZMbVQ/o.jpg", "is_closed": false, "url": "https://www.yelp.com/biz/caleb-and-broad-newport?adjust_creative=9VzDKP4DqSuZkRYYaMKPjA&utm_campaign=yelp_api_v3&utm_medium=api_v3_business_search&utm_source=9VzDKP4DqSuZkRYYaMKPjA", "review_count": 195, "categories": [{"alias": "bars", "title": "Bars"}, {"alias": "tradamerican", "title": "American (Traditional)"}], "rating": 4.0, "coordinates": {"latitude": 41.4937054848272, "longitude": -71.3098629380808}, "transactions": ["pickup", "delivery"], "price": "$$", "location": {"address1": "162 Broadway", "address2": "", "address3": "", "city": "Newport", "zip_code": "02840", "country": "US", "state": "RI", "display_address": ["162 Broadway", "Newport, RI 02840"]}, "phone": "+14016195955", "display_phone": "(401) 619-5955", "distance": 2188.149418926407}, {"id": "XcEkeIfOc5korqCKN3Pi8Q", "alias": "fluke-newport-newport", "name": "Fluke Newport", "image_url": "https://s3-media2.fl.yelpcdn.com/bphoto/WozBm5-iO3q6wzS82Nwt_A/o.jpg", "is_closed": false, "url": "https://www.yelp.com/biz/fluke-newport-newport?adjust_creative=9VzDKP4DqSuZkRYYaMKPjA&utm_campaign=yelp_api_v3&utm_medium=api_v3_business_search&utm_source=9VzDKP4DqSuZkRYYaMKPjA", "review_count": 389, "categories": [{"alias": "newamerican", "title": "American (New)"}, {"alias": "seafood", "title": "Seafood"}, {"alias": "cocktailbars", "title": "Cocktail Bars"}], "rating": 4.0, "coordinates": {"latitude": 41.4866307496833, "longitude": -71.3164048330649}, "transactions": ["delivery"], "price": "$$", "location": {"address1": "41 Bowens Wharf", "address2": "", "address3": "", "city": "Newport", "zip_code": "02840", "country": "US", "state": "RI", "display_address": ["41 Bowens Wharf", "Newport, RI 02840"]}, "phone": "+14018497778", "display_phone": "(401) 849-7778", "distance": 2818.685113905534}, {"id": "0I9SKEOjj8W4VO2zh-8Taw", "alias": "benjamins-raw-bar-newport", "name": "Benjamin's Raw Bar", "image_url": "https://s3-media4.fl.yelpcdn.com/bphoto/jFZt1I9pj1VXCahaysO63g/o.jpg", "is_closed": false, "url": "https://www.yelp.com/biz/benjamins-raw-bar-newport?adjust_creative=9VzDKP4DqSuZkRYYaMKPjA&utm_campaign=yelp_api_v3&utm_medium=api_v3_business_search&utm_source=9VzDKP4DqSuZkRYYaMKPjA", "review_count": 663, "categories": [{"alias": "seafood", "title": "Seafood"}], "rating": 3.5, "coordinates": {"latitude": 41.48659, "longitude": -71.3147}, "transactions": ["delivery"], "price": "$$", "location": {"address1": "254 Thames St", "address2": null, "address3": "", "city": "Newport", "zip_code": "02840", "country": "US", "state": "RI", "display_address": ["254 Thames St", "Newport, RI 02840"]}, "phone": "+14018468768", "display_phone": "(401) 846-8768", "distance": 2811.7058866179673}, {"id": "rAeNNJHmo_sZLpZ-DiE7_A", "alias": "blue-plate-diner-middletown", "name": "Blue Plate Diner", "image_url": "https://s3-media3.fl.yelpcdn.com/bphoto/qFNoRcZgejDLnXgj-p2-1w/o.jpg", "is_closed": false, "url": "https://www.yelp.com/biz/blue-plate-diner-middletown?adjust_creative=9VzDKP4DqSuZkRYYaMKPjA&utm_campaign=yelp_api_v3&utm_medium=api_v3_business_search&utm_source=9VzDKP4DqSuZkRYYaMKPjA", "review_count": 182, "categories": [{"alias": "diners", "title": "Diners"}], "rating": 3.5, "coordinates": {"latitude": 41.5207712, "longitude": -71.2988328}, "transactions": ["delivery"], "price": "$$", "location": {"address1": "665 W Main Rd", "address2": "", "address3": "", "city": "Middletown", "zip_code": "02842", "country": "US", "state": "RI", "display_address": ["665 W Main Rd", "Middletown, RI 02842"]}, "phone": "+14018489500", "display_phone": "(401) 848-9500", "distance": 2145.046361807841}, {"id": "wjy7I5hNnHZGrLEYUL1FDg", "alias": "bamboo-chinese-restaurant-newport", "name": "Bamboo Chinese Restaurant", "image_url": "https://s3-media3.fl.yelpcdn.com/bphoto/UBbG5Tr8BFOZ9XN_nw-DKQ/o.jpg", "is_closed": false, "url": "https://www.yelp.com/biz/bamboo-chinese-restaurant-newport?adjust_creative=9VzDKP4DqSuZkRYYaMKPjA&utm_campaign=yelp_api_v3&utm_medium=api_v3_business_search&utm_source=9VzDKP4DqSuZkRYYaMKPjA", "review_count": 40, "categories": [{"alias": "chinese", "title": "Chinese"}], "rating": 3.0, "coordinates": {"latitude": 41.5070626302426, "longitude": -71.3190240201319}, "transactions": ["delivery"], "price": "$", "location": {"address1": "163 Jt Connell Hwy", "address2": "", "address3": "", "city": "Newport", "zip_code": "02840", "country": "US", "state": "RI", "display_address": ["163 Jt Connell Hwy", "Newport, RI 02840"]}, "phone": "+14018460251", "display_phone": "(401) 846-0251", "distance": 520.1043094778965}, {"id": "1hOm7zOAygafsYY_6FESIg", "alias": "kellie-s-cafe-newport-2", "name": "Kellie\u2019s Cafe", "image_url": "https://s3-media3.fl.yelpcdn.com/bphoto/EXgDxDcp6M2K_7_YxUIxKg/o.jpg", "is_closed": false, "url": "https://www.yelp.com/biz/kellie-s-cafe-newport-2?adjust_creative=9VzDKP4DqSuZkRYYaMKPjA&utm_campaign=yelp_api_v3&utm_medium=api_v3_business_search&utm_source=9VzDKP4DqSuZkRYYaMKPjA", "review_count": 6, "categories": [{"alias": "cafes", "title": "Cafes"}], "rating": 5.0, "coordinates": {"latitude": 41.5002, "longitude": -71.31676}, "transactions": ["delivery"], "location": {"address1": "27 Jt Connell Hwy", "address2": null, "address3": "", "city": "Newport", "zip_code": "02840", "country": "US", "state": "RI", "display_address": ["27 Jt Connell Hwy", "Newport, RI 02840"]}, "phone": "+14018490123", "display_phone": "(401) 849-0123", "distance": 1280.9013839676772}, {"id": "EVwyT6iLskgo3U495CyYRQ", "alias": "antonios-pizza-newport", "name": "Antonio's Pizza", "image_url": "https://s3-media1.fl.yelpcdn.com/bphoto/nl4qThZa8ieSS7BdncQznQ/o.jpg", "is_closed": false, "url": "https://www.yelp.com/biz/antonios-pizza-newport?adjust_creative=9VzDKP4DqSuZkRYYaMKPjA&utm_campaign=yelp_api_v3&utm_medium=api_v3_business_search&utm_source=9VzDKP4DqSuZkRYYaMKPjA", "review_count": 70, "categories": [{"alias": "bars", "title": "Bars"}, {"alias": "pizza", "title": "Pizza"}], "rating": 3.5, "coordinates": {"latitude": 41.5073698538704, "longitude": -71.318249122184}, "transactions": ["delivery"], "price": "$", "location": {"address1": "150 Connell Hwy", "address2": "", "address3": null, "city": "Newport", "zip_code": "02840", "country": "US", "state": "RI", "display_address": ["150 Connell Hwy", "Newport, RI 02840"]}, "phone": "+14018461124", "display_phone": "(401) 846-1124", "distance": 517.5946253683471}, {"id": "b0gb-DaMtYcHwCTtnetbMg", "alias": "diegos-newport", "name": "Diego's", "image_url": "https://s3-media3.fl.yelpcdn.com/bphoto/DB8r-mtjkiyEhz-farzolQ/o.jpg", "is_closed": false, "url": "https://www.yelp.com/biz/diegos-newport?adjust_creative=9VzDKP4DqSuZkRYYaMKPjA&utm_campaign=yelp_api_v3&utm_medium=api_v3_business_search&utm_source=9VzDKP4DqSuZkRYYaMKPjA", "review_count": 705, "categories": [{"alias": "mexican", "title": "Mexican"}, {"alias": "cocktailbars", "title": "Cocktail Bars"}], "rating": 3.5, "coordinates": {"latitude": 41.4865623, "longitude": -71.3156981}, "transactions": ["delivery"], "price": "$$", "location": {"address1": "11 Bowens Wharf", "address2": "", "address3": "", "city": "Newport", "zip_code": "02840", "country": "US", "state": "RI", "display_address": ["11 Bowens Wharf", "Newport, RI 02840"]}, "phone": "+14016192640", "display_phone": "(401) 619-2640", "distance": 2810.613008622755}, {"id": "AXEufnwT2MhLrFuS4aWcow", "alias": "the-red-parrot-restaurant-newport", "name": "The Red Parrot Restaurant", "image_url": "https://s3-media2.fl.yelpcdn.com/bphoto/Up_793glHEPftQ7xp1FeNw/o.jpg", "is_closed": false, "url": "https://www.yelp.com/biz/the-red-parrot-restaurant-newport?adjust_creative=9VzDKP4DqSuZkRYYaMKPjA&utm_campaign=yelp_api_v3&utm_medium=api_v3_business_search&utm_source=9VzDKP4DqSuZkRYYaMKPjA", "review_count": 913, "categories": [{"alias": "tradamerican", "title": "American (Traditional)"}, {"alias": "bars", "title": "Bars"}, {"alias": "seafood", "title": "Seafood"}], "rating": 3.5, "coordinates": {"latitude": 41.4842, "longitude": -71.31455}, "transactions": [], "price": "$$$", "location": {"address1": "348 Thames St", "address2": "", "address3": "", "city": "Newport", "zip_code": "02840", "country": "US", "state": "RI", "display_address": ["348 Thames St", "Newport, RI 02840"]}, "phone": "+14018473800", "display_phone": "(401) 847-3800", "distance": 3079.1655740253323}, {"id": "OjSexs1xkns2tiIYwJDGmg", "alias": "tavern-on-broadway-newport-2", "name": "Tavern On Broadway", "image_url": "https://s3-media2.fl.yelpcdn.com/bphoto/bTbHriwAj17BjGVW31UXpg/o.jpg", "is_closed": false, "url": "https://www.yelp.com/biz/tavern-on-broadway-newport-2?adjust_creative=9VzDKP4DqSuZkRYYaMKPjA&utm_campaign=yelp_api_v3&utm_medium=api_v3_business_search&utm_source=9VzDKP4DqSuZkRYYaMKPjA", "review_count": 155, "categories": [{"alias": "tradamerican", "title": "American (Traditional)"}, {"alias": "bars", "title": "Bars"}], "rating": 4.0, "coordinates": {"latitude": 41.4909311, "longitude": -71.3128822}, "transactions": ["delivery"], "price": "$$", "location": {"address1": "16 Broadway", "address2": null, "address3": "", "city": "Newport", "zip_code": "02840", "country": "US", "state": "RI", "display_address": ["16 Broadway", "Newport, RI 02840"]}, "phone": "+14016195675", "display_phone": "(401) 619-5675", "distance": 2383.133951566796}, {"id": "N1y1W-hEGJPP1fAUNPJT1w", "alias": "diegos-bodega-middletown", "name": "Diego's Bodega", "image_url": "https://s3-media2.fl.yelpcdn.com/bphoto/8fJHJG-H-RCqb4gET-XVXw/o.jpg", "is_closed": false, "url": "https://www.yelp.com/biz/diegos-bodega-middletown?adjust_creative=9VzDKP4DqSuZkRYYaMKPjA&utm_campaign=yelp_api_v3&utm_medium=api_v3_business_search&utm_source=9VzDKP4DqSuZkRYYaMKPjA", "review_count": 84, "categories": [{"alias": "mexican", "title": "Mexican"}], "rating": 3.5, "coordinates": {"latitude": 41.4929500222206, "longitude": -71.2843521684408}, "transactions": ["delivery"], "price": "$$", "location": {"address1": "124 Aquidneck Ave", "address2": "", "address3": null, "city": "Middletown", "zip_code": "02842", "country": "US", "state": "RI", "display_address": ["124 Aquidneck Ave", "Middletown, RI 02842"]}, "phone": "+14016191717", "display_phone": "(401) 619-1717", "distance": 3695.973570975626}, {"id": "oi3GSR-4p9ghGq-leJSMhw", "alias": "ney-hall-galley-newport", "name": "Ney Hall Galley", "image_url": "https://s3-media4.fl.yelpcdn.com/bphoto/XBG_3GlaTQIkF_wukhkBGA/o.jpg", "is_closed": false, "url": "https://www.yelp.com/biz/ney-hall-galley-newport?adjust_creative=9VzDKP4DqSuZkRYYaMKPjA&utm_campaign=yelp_api_v3&utm_medium=api_v3_business_search&utm_source=9VzDKP4DqSuZkRYYaMKPjA", "review_count": 7, "categories": [{"alias": "tradamerican", "title": "American (Traditional)"}], "rating": 3.5, "coordinates": {"latitude": 41.5221592783928, "longitude": -71.3250909000635}, "transactions": [], "price": "$", "location": {"address1": "292 Capodanno Dr", "address2": "", "address3": "", "city": "Newport", "zip_code": "02841", "country": "US", "state": "RI", "display_address": ["292 Capodanno Dr", "Newport, RI 02841"]}, "phone": "+14018414445", "display_phone": "(401) 841-4445", "distance": 1153.043100205761}, {"id": "-pD78viuODFtDU-NayWNEw", "alias": "atlantic-grille-middletown", "name": "Atlantic Grille", "image_url": "https://s3-media1.fl.yelpcdn.com/bphoto/sOSCCzZqbku7YvDhzvWyXQ/o.jpg", "is_closed": false, "url": "https://www.yelp.com/biz/atlantic-grille-middletown?adjust_creative=9VzDKP4DqSuZkRYYaMKPjA&utm_campaign=yelp_api_v3&utm_medium=api_v3_business_search&utm_source=9VzDKP4DqSuZkRYYaMKPjA", "review_count": 309, "categories": [{"alias": "breakfast_brunch", "title": "Breakfast & Brunch"}, {"alias": "tradamerican", "title": "American (Traditional)"}], "rating": 4.0, "coordinates": {"latitude": 41.4921252504078, "longitude": -71.2840764199425}, "transactions": ["delivery"], "price": "$$", "location": {"address1": "91 Aquidneck Ave", "address2": "", "address3": "", "city": "Middletown", "zip_code": "02842", "country": "US", "state": "RI", "display_address": ["91 Aquidneck Ave", "Middletown, RI 02842"]}, "phone": "+14018494440", "display_phone": "(401) 849-4440", "distance": 3790.3326392668673}, {"id": "jfap-KLMgymLQWnJCuLkzg", "alias": "pasta-beach-newport", "name": "Pasta Beach", "image_url": "https://s3-media3.fl.yelpcdn.com/bphoto/Tl4KhYfudqjEheeM3Uo-UQ/o.jpg", "is_closed": false, "url": "https://www.yelp.com/biz/pasta-beach-newport?adjust_creative=9VzDKP4DqSuZkRYYaMKPjA&utm_campaign=yelp_api_v3&utm_medium=api_v3_business_search&utm_source=9VzDKP4DqSuZkRYYaMKPjA", "review_count": 385, "categories": [{"alias": "italian", "title": "Italian"}], "rating": 3.5, "coordinates": {"latitude": 41.484364, "longitude": -71.308499}, "transactions": ["delivery"], "price": "$$", "location": {"address1": "138 Bellevue Ave", "address2": "", "address3": "", "city": "Newport", "zip_code": "02840", "country": "US", "state": "RI", "display_address": ["138 Bellevue Ave", "Newport, RI 02840"]}, "phone": "+14018472222", "display_phone": "(401) 847-2222", "distance": 3191.461425106407}, {"id": "wHTgNqC0d36v3remhVHQug", "alias": "liberty-donuts-newport", "name": "Liberty Donuts", "image_url": "https://s3-media1.fl.yelpcdn.com/bphoto/yu2lNmTXF2xA-_7ox-Iq9A/o.jpg", "is_closed": false, "url": "https://www.yelp.com/biz/liberty-donuts-newport?adjust_creative=9VzDKP4DqSuZkRYYaMKPjA&utm_campaign=yelp_api_v3&utm_medium=api_v3_business_search&utm_source=9VzDKP4DqSuZkRYYaMKPjA", "review_count": 101, "categories": [{"alias": "donuts", "title": "Donuts"}, {"alias": "coffee", "title": "Coffee & Tea"}, {"alias": "breakfast_brunch", "title": "Breakfast & Brunch"}], "rating": 4.0, "coordinates": {"latitude": 41.4895191, "longitude": -71.3174575}, "transactions": ["delivery", "pickup"], "price": "$", "location": {"address1": "22 Long Wharf Mall", "address2": "", "address3": null, "city": "Newport", "zip_code": "02840", "country": "US", "state": "RI", "display_address": ["22 Long Wharf Mall", "Newport, RI 02840"]}, "phone": "+14018471320", "display_phone": "(401) 847-1320", "distance": 2452.7452949532867}, {"id": "JK1yRr61K0ryCTTs_v2Csw", "alias": "perro-salado-newport", "name": "Perro Salado", "image_url": "https://s3-media3.fl.yelpcdn.com/bphoto/rwVxxIYXhR9ybIMMiuItSQ/o.jpg", "is_closed": false, "url": "https://www.yelp.com/biz/perro-salado-newport?adjust_creative=9VzDKP4DqSuZkRYYaMKPjA&utm_campaign=yelp_api_v3&utm_medium=api_v3_business_search&utm_source=9VzDKP4DqSuZkRYYaMKPjA", "review_count": 425, "categories": [{"alias": "mexican", "title": "Mexican"}, {"alias": "breakfast_brunch", "title": "Breakfast & Brunch"}], "rating": 4.0, "coordinates": {"latitude": 41.49073, "longitude": -71.31434}, "transactions": ["delivery"], "price": "$$", "location": {"address1": "19 Charles St", "address2": "", "address3": "", "city": "Newport", "zip_code": "02840", "country": "US", "state": "RI", "display_address": ["19 Charles St", "Newport, RI 02840"]}, "phone": "+14016194777", "display_phone": "(401) 619-4777", "distance": 2370.792569291113}, {"id": "O0NjJJ_--cqqPBW8Ad1XvQ", "alias": "o-briens-pub-newport-2", "name": "O'Brien's Pub", "image_url": "https://s3-media3.fl.yelpcdn.com/bphoto/PvGGF2wXL9PO15y1biykQg/o.jpg", "is_closed": false, "url": "https://www.yelp.com/biz/o-briens-pub-newport-2?adjust_creative=9VzDKP4DqSuZkRYYaMKPjA&utm_campaign=yelp_api_v3&utm_medium=api_v3_business_search&utm_source=9VzDKP4DqSuZkRYYaMKPjA", "review_count": 247, "categories": [{"alias": "pubs", "title": "Pubs"}, {"alias": "tradamerican", "title": "American (Traditional)"}, {"alias": "sandwiches", "title": "Sandwiches"}], "rating": 3.5, "coordinates": {"latitude": 41.47942, "longitude": -71.3145399}, "transactions": ["delivery"], "price": "$$", "location": {"address1": "501 Thames St", "address2": "", "address3": "", "city": "Newport", "zip_code": "02840", "country": "US", "state": "RI", "display_address": ["501 Thames St", "Newport, RI 02840"]}, "phone": "+14018496623", "display_phone": "(401) 849-6623", "distance": 3601.381265545872}, {"id": "gGC75tBsPK9r9NkOasohHQ", "alias": "lucia-italian-restaurant-and-pizzeria-newport-4", "name": "Lucia Italian Restaurant & Pizzeria", "image_url": "https://s3-media4.fl.yelpcdn.com/bphoto/InuXz2TOw-uq4xGZ4b6ewQ/o.jpg", "is_closed": false, "url": "https://www.yelp.com/biz/lucia-italian-restaurant-and-pizzeria-newport-4?adjust_creative=9VzDKP4DqSuZkRYYaMKPjA&utm_campaign=yelp_api_v3&utm_medium=api_v3_business_search&utm_source=9VzDKP4DqSuZkRYYaMKPjA", "review_count": 189, "categories": [{"alias": "italian", "title": "Italian"}, {"alias": "venues", "title": "Venues & Event Spaces"}, {"alias": "wine_bars", "title": "Wine Bars"}], "rating": 4.0, "coordinates": {"latitude": 41.4882781, "longitude": -71.3149261}, "transactions": ["delivery"], "price": "$$", "location": {"address1": "186B -190B Thames St", "address2": "", "address3": "", "city": "Newport", "zip_code": "02840", "country": "US", "state": "RI", "display_address": ["186B -190B Thames St", "Newport, RI 02840"]}, "phone": "+14018464477", "display_phone": "(401) 846-4477", "distance": 2623.229253212683}, {"id": "mKcIHF4qhdkK1A-GVi5_4Q", "alias": "the-french-confection-middletown", "name": "The French Confection", "image_url": "https://s3-media2.fl.yelpcdn.com/bphoto/ZQD0VIgvWCpjDkW3c6P60Q/o.jpg", "is_closed": false, "url": "https://www.yelp.com/biz/the-french-confection-middletown?adjust_creative=9VzDKP4DqSuZkRYYaMKPjA&utm_campaign=yelp_api_v3&utm_medium=api_v3_business_search&utm_source=9VzDKP4DqSuZkRYYaMKPjA", "review_count": 69, "categories": [{"alias": "bakeries", "title": "Bakeries"}, {"alias": "cafes", "title": "Cafes"}, {"alias": "desserts", "title": "Desserts"}], "rating": 4.0, "coordinates": {"latitude": 41.517623353368, "longitude": -71.2985122203827}, "transactions": ["delivery"], "price": "$", "location": {"address1": "72 E Main Rd", "address2": "", "address3": "", "city": "Middletown", "zip_code": "02842", "country": "US", "state": "RI", "display_address": ["72 E Main Rd", "Middletown, RI 02842"]}, "phone": "+14016197816", "display_phone": "(401) 619-7816", "distance": 2023.7210851699665}, {"id": "Mr5buz-9HbKgCcW3Td3IVw", "alias": "flat-waves-food-shack-middletown-5", "name": "Flat Waves Food Shack", "image_url": "https://s3-media4.fl.yelpcdn.com/bphoto/l9ukIq_e1QFjTacshpn_Tg/o.jpg", "is_closed": false, "url": "https://www.yelp.com/biz/flat-waves-food-shack-middletown-5?adjust_creative=9VzDKP4DqSuZkRYYaMKPjA&utm_campaign=yelp_api_v3&utm_medium=api_v3_business_search&utm_source=9VzDKP4DqSuZkRYYaMKPjA", "review_count": 107, "categories": [{"alias": "acaibowls", "title": "Acai Bowls"}, {"alias": "mexican", "title": "Mexican"}], "rating": 4.0, "coordinates": {"latitude": 41.5185254, "longitude": -71.2834239}, "transactions": ["delivery", "pickup"], "price": "$$", "location": {"address1": "1130 Aquidneck Ave", "address2": null, "address3": "", "city": "Middletown", "zip_code": "02842", "country": "US", "state": "RI", "display_address": ["1130 Aquidneck Ave", "Middletown, RI 02842"]}, "phone": "+14018479283", "display_phone": "(401) 847-9283", "distance": 3235.60035538781}, {"id": "R6VPMYBVzYEvCQqN0_Jyeg", "alias": "carmellas-pizzeria-middletown", "name": "Carmella's Pizzeria", "image_url": "https://s3-media1.fl.yelpcdn.com/bphoto/luWmxYVO5ov8HXt0gKDsQg/o.jpg", "is_closed": false, "url": "https://www.yelp.com/biz/carmellas-pizzeria-middletown?adjust_creative=9VzDKP4DqSuZkRYYaMKPjA&utm_campaign=yelp_api_v3&utm_medium=api_v3_business_search&utm_source=9VzDKP4DqSuZkRYYaMKPjA", "review_count": 129, "categories": [{"alias": "pizza", "title": "Pizza"}, {"alias": "italian", "title": "Italian"}], "rating": 3.5, "coordinates": {"latitude": 41.5145525, "longitude": -71.3016398}, "transactions": ["delivery", "pickup"], "price": "$$", "location": {"address1": "330 W Main Rd", "address2": "", "address3": "", "city": "Middletown", "zip_code": "02842", "country": "US", "state": "RI", "display_address": ["330 W Main Rd", "Middletown, RI 02842"]}, "phone": "+14018472424", "display_phone": "(401) 847-2424", "distance": 1678.417432501918}, {"id": "3jbnrAxx8edZpNjNKE-BMQ", "alias": "pick-pockets-deli-middletown", "name": "Pick Pockets Deli", "image_url": "https://s3-media2.fl.yelpcdn.com/bphoto/Xzjn-9AQtYsV2lc_5ZHh2A/o.jpg", "is_closed": false, "url": "https://www.yelp.com/biz/pick-pockets-deli-middletown?adjust_creative=9VzDKP4DqSuZkRYYaMKPjA&utm_campaign=yelp_api_v3&utm_medium=api_v3_business_search&utm_source=9VzDKP4DqSuZkRYYaMKPjA", "review_count": 41, "categories": [{"alias": "lebanese", "title": "Lebanese"}, {"alias": "delis", "title": "Delis"}], "rating": 5.0, "coordinates": {"latitude": 41.521905524714, "longitude": -71.2835679842486}, "transactions": ["delivery", "pickup"], "location": {"address1": "510 E Main Rd", "address2": "", "address3": null, "city": "Middletown", "zip_code": "02842", "country": "US", "state": "RI", "display_address": ["510 E Main Rd", "Middletown, RI 02842"]}, "phone": "+14016196911", "display_phone": "(401) 619-6911", "distance": 3355.7842192424127}, {"id": "1TYjBwHwXPuDhaaXrSPdgw", "alias": "angels-kitchen-jamestown-3", "name": "Angels Kitchen", "image_url": "https://s3-media2.fl.yelpcdn.com/bphoto/Wf2fhX-q5CVEVk3423KHUg/o.jpg", "is_closed": false, "url": "https://www.yelp.com/biz/angels-kitchen-jamestown-3?adjust_creative=9VzDKP4DqSuZkRYYaMKPjA&utm_campaign=yelp_api_v3&utm_medium=api_v3_business_search&utm_source=9VzDKP4DqSuZkRYYaMKPjA", "review_count": 10, "categories": [{"alias": "newamerican", "title": "American (New)"}], "rating": 4.0, "coordinates": {"latitude": 41.496187, "longitude": -71.36888}, "transactions": [], "location": {"address1": "23 Narragansett Ave", "address2": null, "address3": "", "city": "Jamestown", "zip_code": "02835", "country": "US", "state": "RI", "display_address": ["23 Narragansett Ave", "Jamestown, RI 02835"]}, "phone": "+14014196732", "display_phone": "(401) 419-6732", "distance": 4305.17914239825}, {"id": "BmvSCXaURnN81y0TCvoHxw", "alias": "humming-bird-newport", "name": "Humming Bird", "image_url": "https://s3-media1.fl.yelpcdn.com/bphoto/k-qRT0F8hx1bsuUlYdfWvg/o.jpg", "is_closed": false, "url": "https://www.yelp.com/biz/humming-bird-newport?adjust_creative=9VzDKP4DqSuZkRYYaMKPjA&utm_campaign=yelp_api_v3&utm_medium=api_v3_business_search&utm_source=9VzDKP4DqSuZkRYYaMKPjA", "review_count": 45, "categories": [{"alias": "caribbean", "title": "Caribbean"}], "rating": 4.5, "coordinates": {"latitude": 41.4923148607406, "longitude": -71.3112939613293}, "transactions": ["delivery"], "price": "$$", "location": {"address1": "104 Broadway", "address2": "", "address3": null, "city": "Newport", "zip_code": "02840", "country": "US", "state": "RI", "display_address": ["104 Broadway", "Newport, RI 02840"]}, "phone": "+14016190032", "display_phone": "(401) 619-0032", "distance": 2281.8007586071435}, {"id": "tMCQt6edpUwcEglFCr76ww", "alias": "topside-newport", "name": "Topside", "image_url": "https://s3-media2.fl.yelpcdn.com/bphoto/REOXHrxujLG6cb-QDjRRvA/o.jpg", "is_closed": false, "url": "https://www.yelp.com/biz/topside-newport?adjust_creative=9VzDKP4DqSuZkRYYaMKPjA&utm_campaign=yelp_api_v3&utm_medium=api_v3_business_search&utm_source=9VzDKP4DqSuZkRYYaMKPjA", "review_count": 5, "categories": [{"alias": "tradamerican", "title": "American (Traditional)"}], "rating": 3.5, "coordinates": {"latitude": 41.511405, "longitude": -71.325628}, "transactions": [], "price": "$$", "location": {"address1": "95 Perry Rd", "address2": "", "address3": "Naval Station Newport", "city": "Newport", "zip_code": "02841", "country": "US", "state": "RI", "display_address": ["95 Perry Rd", "Naval Station Newport", "Newport, RI 02841"]}, "phone": "+14018411442", "display_phone": "(401) 841-1442", "distance": 355.8833779926804}, {"id": "8t2FbqO15ZAkCAJZFCCohA", "alias": "newport-playhouse-and-cabaret-restaurant-newport", "name": "Newport Playhouse & Cabaret Restaurant", "image_url": "https://s3-media2.fl.yelpcdn.com/bphoto/FDxFakWoq3LgB0wQJQHf2A/o.jpg", "is_closed": false, "url": "https://www.yelp.com/biz/newport-playhouse-and-cabaret-restaurant-newport?adjust_creative=9VzDKP4DqSuZkRYYaMKPjA&utm_campaign=yelp_api_v3&utm_medium=api_v3_business_search&utm_source=9VzDKP4DqSuZkRYYaMKPjA", "review_count": 19, "categories": [{"alias": "theater", "title": "Performing Arts"}, {"alias": "buffets", "title": "Buffets"}], "rating": 4.5, "coordinates": {"latitude": 41.50419, "longitude": -71.31808}, "transactions": [], "price": "$$$", "location": {"address1": "102 Connell Hwy", "address2": "", "address3": "", "city": "Newport", "zip_code": "02840", "country": "US", "state": "RI", "display_address": ["102 Connell Hwy", "Newport, RI 02840"]}, "phone": "+14018487529", "display_phone": "(401) 848-7529", "distance": 840.5819543073203}, {"id": "5nkwj0rIUWwx7zkhIl1zKA", "alias": "bangkok-city-thai-restaurant-middletown", "name": "Bangkok City Thai Restaurant", "image_url": "https://s3-media2.fl.yelpcdn.com/bphoto/2uhKK8kHGdNMcBL-Cul45g/o.jpg", "is_closed": false, "url": "https://www.yelp.com/biz/bangkok-city-thai-restaurant-middletown?adjust_creative=9VzDKP4DqSuZkRYYaMKPjA&utm_campaign=yelp_api_v3&utm_medium=api_v3_business_search&utm_source=9VzDKP4DqSuZkRYYaMKPjA", "review_count": 76, "categories": [{"alias": "thai", "title": "Thai"}], "rating": 4.0, "coordinates": {"latitude": 41.52211, "longitude": -71.29513}, "transactions": ["delivery"], "price": "$", "location": {"address1": "21 Valley Rd", "address2": "Ste A", "address3": "", "city": "Middletown", "zip_code": "02842", "country": "US", "state": "RI", "display_address": ["21 Valley Rd", "Ste A", "Middletown, RI 02842"]}, "phone": "+14018482250", "display_phone": "(401) 848-2250", "distance": 2461.5332922153593}, {"id": "7fTzl4tl22hK6CzyhqKdaQ", "alias": "scratch-kitchen-and-catering-newport", "name": "Scratch Kitchen & Catering", "image_url": "https://s3-media2.fl.yelpcdn.com/bphoto/OZ2Ep2Cm3dpbja-FGZchBg/o.jpg", "is_closed": false, "url": "https://www.yelp.com/biz/scratch-kitchen-and-catering-newport?adjust_creative=9VzDKP4DqSuZkRYYaMKPjA&utm_campaign=yelp_api_v3&utm_medium=api_v3_business_search&utm_source=9VzDKP4DqSuZkRYYaMKPjA", "review_count": 292, "categories": [{"alias": "breakfast_brunch", "title": "Breakfast & Brunch"}, {"alias": "sandwiches", "title": "Sandwiches"}, {"alias": "salad", "title": "Salad"}], "rating": 4.5, "coordinates": {"latitude": 41.4923133, "longitude": -71.3113835}, "transactions": ["delivery"], "price": "$", "location": {"address1": "88 Broadway", "address2": "", "address3": "", "city": "Newport", "zip_code": "02840", "country": "US", "state": "RI", "display_address": ["88 Broadway", "Newport, RI 02840"]}, "phone": "+14018494782", "display_phone": "(401) 849-4782", "distance": 2271.0655304103634}, {"id": "YRmGjbxBRr-kaL83wb4xdA", "alias": "portofino-bar-and-grille-middletown", "name": "Portofino Bar And Grille", "image_url": "https://s3-media1.fl.yelpcdn.com/bphoto/9PLg4icIlSzlBYTFSnRI8g/o.jpg", "is_closed": false, "url": "https://www.yelp.com/biz/portofino-bar-and-grille-middletown?adjust_creative=9VzDKP4DqSuZkRYYaMKPjA&utm_campaign=yelp_api_v3&utm_medium=api_v3_business_search&utm_source=9VzDKP4DqSuZkRYYaMKPjA", "review_count": 16, "categories": [{"alias": "bars", "title": "Bars"}, {"alias": "tradamerican", "title": "American (Traditional)"}], "rating": 3.5, "coordinates": {"latitude": 41.5210680137493, "longitude": -71.2857569754124}, "transactions": ["delivery"], "price": "$$", "location": {"address1": "425 E Main Rd", "address2": "", "address3": "", "city": "Middletown", "zip_code": "02842", "country": "US", "state": "RI", "display_address": ["425 E Main Rd", "Middletown, RI 02842"]}, "phone": "+14018463555", "display_phone": "(401) 846-3555", "distance": 3152.6234695245726}, {"id": "02IuCsAqIkOKlhGyqTImZg", "alias": "crown-fried-chicken-and-kabab-middletown", "name": "Crown Fried Chicken & Kabab", "image_url": "https://s3-media2.fl.yelpcdn.com/bphoto/VoayQxyXDvkqCfSpWZoe9A/o.jpg", "is_closed": false, "url": "https://www.yelp.com/biz/crown-fried-chicken-and-kabab-middletown?adjust_creative=9VzDKP4DqSuZkRYYaMKPjA&utm_campaign=yelp_api_v3&utm_medium=api_v3_business_search&utm_source=9VzDKP4DqSuZkRYYaMKPjA", "review_count": 5, "categories": [{"alias": "kebab", "title": "Kebab"}, {"alias": "southern", "title": "Southern"}, {"alias": "halal", "title": "Halal"}], "rating": 5.0, "coordinates": {"latitude": 41.51612, "longitude": -71.30106}, "transactions": ["delivery", "pickup"], "location": {"address1": "390 W Main Rd", "address2": "", "address3": null, "city": "Middletown", "zip_code": "02842", "country": "US", "state": "RI", "display_address": ["390 W Main Rd", "Middletown, RI 02842"]}, "phone": "+14018491122", "display_phone": "(401) 849-1122", "distance": 1769.2695903605766}, {"id": "STVKRDpM6y9E1j8wHubsrQ", "alias": "kingston-pizza-middletown", "name": "Kingston Pizza", "image_url": "https://s3-media3.fl.yelpcdn.com/bphoto/02Sb4kUiDPq03eBmukYOZQ/o.jpg", "is_closed": false, "url": "https://www.yelp.com/biz/kingston-pizza-middletown?adjust_creative=9VzDKP4DqSuZkRYYaMKPjA&utm_campaign=yelp_api_v3&utm_medium=api_v3_business_search&utm_source=9VzDKP4DqSuZkRYYaMKPjA", "review_count": 43, "categories": [{"alias": "pizza", "title": "Pizza"}], "rating": 4.0, "coordinates": {"latitude": 41.52079, "longitude": -71.29908}, "transactions": ["delivery"], "price": "$$", "location": {"address1": "659 W Main St", "address2": null, "address3": null, "city": "Middletown", "zip_code": "02842", "country": "US", "state": "RI", "display_address": ["659 W Main St", "Middletown, RI 02842"]}, "phone": "+14016193988", "display_phone": "(401) 619-3988", "distance": 2124.0392777918887}, {"id": "CPf-uqYaLoCaM6oIqamP8g", "alias": "parlor-bar-and-kitchen-newport", "name": "Parlor Bar & Kitchen", "image_url": "https://s3-media4.fl.yelpcdn.com/bphoto/GLHGaMKYmazMMB4ghy9PIQ/o.jpg", "is_closed": false, "url": "https://www.yelp.com/biz/parlor-bar-and-kitchen-newport?adjust_creative=9VzDKP4DqSuZkRYYaMKPjA&utm_campaign=yelp_api_v3&utm_medium=api_v3_business_search&utm_source=9VzDKP4DqSuZkRYYaMKPjA", "review_count": 45, "categories": [{"alias": "bars", "title": "Bars"}, {"alias": "venues", "title": "Venues & Event Spaces"}, {"alias": "newamerican", "title": "American (New)"}], "rating": 4.5, "coordinates": {"latitude": 41.4952759, "longitude": -71.30905}, "transactions": ["delivery"], "price": "$$", "location": {"address1": "200 Broadway", "address2": "", "address3": "", "city": "Newport", "zip_code": "02840", "country": "US", "state": "RI", "display_address": ["200 Broadway", "Newport, RI 02840"]}, "phone": "+14018489081", "display_phone": "(401) 848-9081", "distance": 2065.2767589395767}, {"id": "7ClHlrx7bmk51ZOhVH5dgw", "alias": "provencal-bakery-and-cafe-newport-3", "name": "Provencal Bakery & Cafe", "image_url": "https://s3-media1.fl.yelpcdn.com/bphoto/DkeVvkgY6NYZl8BFAiZZOA/o.jpg", "is_closed": false, "url": "https://www.yelp.com/biz/provencal-bakery-and-cafe-newport-3?adjust_creative=9VzDKP4DqSuZkRYYaMKPjA&utm_campaign=yelp_api_v3&utm_medium=api_v3_business_search&utm_source=9VzDKP4DqSuZkRYYaMKPjA", "review_count": 4, "categories": [{"alias": "bakeries", "title": "Bakeries"}, {"alias": "cafes", "title": "Cafes"}], "rating": 4.5, "coordinates": {"latitude": 41.498897431221, "longitude": -71.3067385554314}, "transactions": [], "location": {"address1": "311 Broadway", "address2": "", "address3": null, "city": "Newport", "zip_code": "02840", "country": "US", "state": "RI", "display_address": ["311 Broadway", "Newport, RI 02840"]}, "phone": "+14016198440", "display_phone": "(401) 619-8440", "distance": 1847.8995586528326}, {"id": "xilTBYfnSdqftRy1I4ahKw", "alias": "root-newport", "name": "Root", "image_url": "https://s3-media1.fl.yelpcdn.com/bphoto/Y2l66QEboXEwax0eXoTaNA/o.jpg", "is_closed": false, "url": "https://www.yelp.com/biz/root-newport?adjust_creative=9VzDKP4DqSuZkRYYaMKPjA&utm_campaign=yelp_api_v3&utm_medium=api_v3_business_search&utm_source=9VzDKP4DqSuZkRYYaMKPjA", "review_count": 51, "categories": [{"alias": "vegan", "title": "Vegan"}, {"alias": "juicebars", "title": "Juice Bars & Smoothies"}, {"alias": "salad", "title": "Salad"}], "rating": 5.0, "coordinates": {"latitude": 41.49077, "longitude": -71.31307}, "transactions": ["delivery", "pickup"], "location": {"address1": "6 Broadway", "address2": null, "address3": "", "city": "Newport", "zip_code": "02840", "country": "US", "state": "RI", "display_address": ["6 Broadway", "Newport, RI 02840"]}, "phone": "+14018472727", "display_phone": "(401) 847-2727", "distance": 2390.252400595122}, {"id": "mZfbuKf4M-xps4q0iXrL3A", "alias": "saltwater-newport", "name": "Saltwater", "image_url": "https://s3-media2.fl.yelpcdn.com/bphoto/kmQUd2kVa8C38iNoDuW_vw/o.jpg", "is_closed": false, "url": "https://www.yelp.com/biz/saltwater-newport?adjust_creative=9VzDKP4DqSuZkRYYaMKPjA&utm_campaign=yelp_api_v3&utm_medium=api_v3_business_search&utm_source=9VzDKP4DqSuZkRYYaMKPjA", "review_count": 105, "categories": [{"alias": "seafood", "title": "Seafood"}, {"alias": "newamerican", "title": "American (New)"}], "rating": 3.0, "coordinates": {"latitude": 41.48744, "longitude": -71.316226}, "transactions": ["delivery"], "price": "$$", "location": {"address1": "49 America's Cup Ave", "address2": "", "address3": "", "city": "Newport", "zip_code": "02840", "country": "US", "state": "RI", "display_address": ["49 America's Cup Ave", "Newport, RI 02840"]}, "phone": "+14018483303", "display_phone": "(401) 848-3303", "distance": 2698.5073346139134}, {"id": "w9wEgl0fqwkWQjJ8Wwm4Lw", "alias": "sardellas-italian-restaurant-newport", "name": "Sardella's Italian Restaurant", "image_url": "https://s3-media1.fl.yelpcdn.com/bphoto/5xSlzRaGF_lMonHqMyMkvA/o.jpg", "is_closed": false, "url": "https://www.yelp.com/biz/sardellas-italian-restaurant-newport?adjust_creative=9VzDKP4DqSuZkRYYaMKPjA&utm_campaign=yelp_api_v3&utm_medium=api_v3_business_search&utm_source=9VzDKP4DqSuZkRYYaMKPjA", "review_count": 285, "categories": [{"alias": "italian", "title": "Italian"}, {"alias": "venues", "title": "Venues & Event Spaces"}, {"alias": "pizza", "title": "Pizza"}], "rating": 3.5, "coordinates": {"latitude": 41.4837981136301, "longitude": -71.3100850084384}, "transactions": ["delivery", "restaurant_reservation"], "price": "$$", "location": {"address1": "30 Memorial Blvd W", "address2": "", "address3": "", "city": "Newport", "zip_code": "02840", "country": "US", "state": "RI", "display_address": ["30 Memorial Blvd W", "Newport, RI 02840"]}, "phone": "+14018496312", "display_phone": "(401) 849-6312", "distance": 3209.7323413193903}, {"id": "LgqqBKaxkwxKhKzceZpTPw", "alias": "scales-and-shells-newport", "name": "Scales & Shells", "image_url": "https://s3-media3.fl.yelpcdn.com/bphoto/NU1pABALTKceypC0woiclQ/o.jpg", "is_closed": false, "url": "https://www.yelp.com/biz/scales-and-shells-newport?adjust_creative=9VzDKP4DqSuZkRYYaMKPjA&utm_campaign=yelp_api_v3&utm_medium=api_v3_business_search&utm_source=9VzDKP4DqSuZkRYYaMKPjA", "review_count": 257, "categories": [{"alias": "seafood", "title": "Seafood"}], "rating": 3.5, "coordinates": {"latitude": 41.4785, "longitude": -71.31437}, "transactions": [], "price": "$$$", "location": {"address1": "527 Thames St", "address2": "", "address3": "", "city": "Newport", "zip_code": "02840", "country": "US", "state": "RI", "display_address": ["527 Thames St", "Newport, RI 02840"]}, "phone": "+14018463474", "display_phone": "(401) 846-3474", "distance": 3703.4126753622086}, {"id": "273KY_Dq39PL2JxIMBKrgw", "alias": "binge-bbq-newport", "name": "Binge BBQ", "image_url": "https://s3-media3.fl.yelpcdn.com/bphoto/QPQ08DsMyNa_PBH1KzvMOg/o.jpg", "is_closed": false, "url": "https://www.yelp.com/biz/binge-bbq-newport?adjust_creative=9VzDKP4DqSuZkRYYaMKPjA&utm_campaign=yelp_api_v3&utm_medium=api_v3_business_search&utm_source=9VzDKP4DqSuZkRYYaMKPjA", "review_count": 135, "categories": [{"alias": "bbq", "title": "Barbeque"}, {"alias": "tradamerican", "title": "American (Traditional)"}, {"alias": "sandwiches", "title": "Sandwiches"}], "rating": 4.5, "coordinates": {"latitude": 41.49092, "longitude": -71.31293}, "transactions": ["delivery", "pickup"], "price": "$$", "location": {"address1": "12 Broadway", "address2": "", "address3": "", "city": "Newport", "zip_code": "02840", "country": "US", "state": "RI", "display_address": ["12 Broadway", "Newport, RI 02840"]}, "phone": "+14016193799", "display_phone": "(401) 619-3799", "distance": 2376.785304821733}, {"id": "qaaLZvCSOXNTT-e6BUGMDg", "alias": "nikolas-pizza-newport", "name": "Nikolas Pizza", "image_url": "https://s3-media2.fl.yelpcdn.com/bphoto/ALG2qGj4FEuhY5BIK0o6mA/o.jpg", "is_closed": false, "url": "https://www.yelp.com/biz/nikolas-pizza-newport?adjust_creative=9VzDKP4DqSuZkRYYaMKPjA&utm_campaign=yelp_api_v3&utm_medium=api_v3_business_search&utm_source=9VzDKP4DqSuZkRYYaMKPjA", "review_count": 209, "categories": [{"alias": "pizza", "title": "Pizza"}], "rating": 3.0, "coordinates": {"latitude": 41.48373, "longitude": -71.3105099}, "transactions": ["delivery"], "price": "$$", "location": {"address1": "38 Memorial Blvd W", "address2": "", "address3": "", "city": "Newport", "zip_code": "02840", "country": "US", "state": "RI", "display_address": ["38 Memorial Blvd W", "Newport, RI 02840"]}, "phone": "+14018496611", "display_phone": "(401) 849-6611", "distance": 3201.862752407929}, {"id": "7fKkNM786O4HLqSPd-UGMg", "alias": "il-forno-italiano-newport", "name": "Il Forno Italiano", "image_url": "https://s3-media1.fl.yelpcdn.com/bphoto/ue5afy0_P9wSXP4c2mni5A/o.jpg", "is_closed": false, "url": "https://www.yelp.com/biz/il-forno-italiano-newport?adjust_creative=9VzDKP4DqSuZkRYYaMKPjA&utm_campaign=yelp_api_v3&utm_medium=api_v3_business_search&utm_source=9VzDKP4DqSuZkRYYaMKPjA", "review_count": 9, "categories": [{"alias": "pizza", "title": "Pizza"}, {"alias": "italian", "title": "Italian"}], "rating": 4.0, "coordinates": {"latitude": 41.48335, "longitude": -71.3144183}, "transactions": ["delivery", "pickup"], "location": {"address1": "372 Thames St", "address2": "", "address3": null, "city": "Newport", "zip_code": "02840", "country": "US", "state": "RI", "display_address": ["372 Thames St", "Newport, RI 02840"]}, "phone": "+14018485555", "display_phone": "(401) 848-5555", "distance": 3172.3179543256415}, {"id": "yEc7WF-kOgJEtHHHrmdu1w", "alias": "mori-sushi-newport", "name": "Mori Sushi", "image_url": "https://s3-media2.fl.yelpcdn.com/bphoto/7LyFJ0t6y4WrxQs4EG1kGg/o.jpg", "is_closed": false, "url": "https://www.yelp.com/biz/mori-sushi-newport?adjust_creative=9VzDKP4DqSuZkRYYaMKPjA&utm_campaign=yelp_api_v3&utm_medium=api_v3_business_search&utm_source=9VzDKP4DqSuZkRYYaMKPjA", "review_count": 142, "categories": [{"alias": "sushi", "title": "Sushi Bars"}, {"alias": "japanese", "title": "Japanese"}], "rating": 4.5, "coordinates": {"latitude": 41.4892191472322, "longitude": -71.3159338373631}, "transactions": ["delivery"], "price": "$$", "location": {"address1": "215 Goddard Row", "address2": "", "address3": "", "city": "Newport", "zip_code": "02840", "country": "US", "state": "RI", "display_address": ["215 Goddard Row", "Newport, RI 02840"]}, "phone": "+14018517981", "display_phone": "(401) 851-7981", "distance": 2522.401670149693}, {"id": "0WKMkgd_2abO3cGipgMVfg", "alias": "ching-tao-restaurant-middletown", "name": "Ching Tao Restaurant", "image_url": "https://s3-media4.fl.yelpcdn.com/bphoto/h4Nma8KC_TsZ38CEeSDU7A/o.jpg", "is_closed": false, "url": "https://www.yelp.com/biz/ching-tao-restaurant-middletown?adjust_creative=9VzDKP4DqSuZkRYYaMKPjA&utm_campaign=yelp_api_v3&utm_medium=api_v3_business_search&utm_source=9VzDKP4DqSuZkRYYaMKPjA", "review_count": 66, "categories": [{"alias": "chinese", "title": "Chinese"}, {"alias": "soup", "title": "Soup"}, {"alias": "breakfast_brunch", "title": "Breakfast & Brunch"}], "rating": 3.5, "coordinates": {"latitude": 41.5132694, "longitude": -71.3019933}, "transactions": ["delivery"], "price": "$$", "location": {"address1": "268 W Main Rd", "address2": "", "address3": "", "city": "Middletown", "zip_code": "02842", "country": "US", "state": "RI", "display_address": ["268 W Main Rd", "Middletown, RI 02842"]}, "phone": "+14018492112", "display_phone": "(401) 849-2112", "distance": 1577.5101349717195}, {"id": "Ps2Tl4KyI8L6u1mVaIkLOA", "alias": "imbriglio-s-pizzeria-napoletana-newport", "name": "Imbriglio\u2019s Pizzeria Napoletana", "image_url": "https://s3-media3.fl.yelpcdn.com/bphoto/xNwXS3YPMe2XIQe8qUN5Zw/o.jpg", "is_closed": false, "url": "https://www.yelp.com/biz/imbriglio-s-pizzeria-napoletana-newport?adjust_creative=9VzDKP4DqSuZkRYYaMKPjA&utm_campaign=yelp_api_v3&utm_medium=api_v3_business_search&utm_source=9VzDKP4DqSuZkRYYaMKPjA", "review_count": 5, "categories": [{"alias": "pizza", "title": "Pizza"}, {"alias": "italian", "title": "Italian"}, {"alias": "bars", "title": "Bars"}], "rating": 4.5, "coordinates": {"latitude": 41.48367, "longitude": -71.31028}, "transactions": ["delivery"], "location": {"address1": "32 Memorial Blvd W", "address2": null, "address3": "", "city": "Newport", "zip_code": "02840", "country": "US", "state": "RI", "display_address": ["32 Memorial Blvd W", "Newport, RI 02840"]}, "phone": "+14018496312", "display_phone": "(401) 849-6312", "distance": 3209.9430307477933}, {"id": "zJXWvRdNvJvlXNvY5_Alcg", "alias": "tijuana-burrito-grill-newport", "name": "Tijuana Burrito Grill", "image_url": "", "is_closed": false, "url": "https://www.yelp.com/biz/tijuana-burrito-grill-newport?adjust_creative=9VzDKP4DqSuZkRYYaMKPjA&utm_campaign=yelp_api_v3&utm_medium=api_v3_business_search&utm_source=9VzDKP4DqSuZkRYYaMKPjA", "review_count": 6, "categories": [{"alias": "mexican", "title": "Mexican"}, {"alias": "steak", "title": "Steakhouses"}], "rating": 5.0, "coordinates": {"latitude": 41.4918900438941, "longitude": -71.3117901608348}, "transactions": [], "location": {"address1": "66 Broadway", "address2": "", "address3": null, "city": "Newport", "zip_code": "02840", "country": "US", "state": "RI", "display_address": ["66 Broadway", "Newport, RI 02840"]}, "phone": "+14013245320", "display_phone": "(401) 324-5320", "distance": 2311.2416765551693}, {"id": "COVFeQIrakjWzK7HyIKQkg", "alias": "the-deck-newport-2", "name": "The Deck", "image_url": "https://s3-media1.fl.yelpcdn.com/bphoto/16569JgqnCUhq7vWzK9pzw/o.jpg", "is_closed": false, "url": "https://www.yelp.com/biz/the-deck-newport-2?adjust_creative=9VzDKP4DqSuZkRYYaMKPjA&utm_campaign=yelp_api_v3&utm_medium=api_v3_business_search&utm_source=9VzDKP4DqSuZkRYYaMKPjA", "review_count": 108, "categories": [{"alias": "bars", "title": "Bars"}, {"alias": "tradamerican", "title": "American (Traditional)"}, {"alias": "venues", "title": "Venues & Event Spaces"}], "rating": 2.5, "coordinates": {"latitude": 41.4796949, "longitude": -71.3145112}, "transactions": ["delivery"], "price": "$$", "location": {"address1": "1 Waites Wharf", "address2": "", "address3": "", "city": "Newport", "zip_code": "02840", "country": "US", "state": "RI", "display_address": ["1 Waites Wharf", "Newport, RI 02840"]}, "phone": "+14018463600", "display_phone": "(401) 846-3600", "distance": 3568.404506474016}, {"id": "heOBOt7zK9X2eoOdmQALZg", "alias": "megs-aussie-milk-bar-newport-2", "name": "Megs' Aussie Milk Bar", "image_url": "https://s3-media2.fl.yelpcdn.com/bphoto/pc4YbJzQvdhu2PYYd9D4WA/o.jpg", "is_closed": false, "url": "https://www.yelp.com/biz/megs-aussie-milk-bar-newport-2?adjust_creative=9VzDKP4DqSuZkRYYaMKPjA&utm_campaign=yelp_api_v3&utm_medium=api_v3_business_search&utm_source=9VzDKP4DqSuZkRYYaMKPjA", "review_count": 244, "categories": [{"alias": "cafes", "title": "Cafes"}, {"alias": "breakfast_brunch", "title": "Breakfast & Brunch"}, {"alias": "juicebars", "title": "Juice Bars & Smoothies"}], "rating": 4.5, "coordinates": {"latitude": 41.484561, "longitude": -71.3087745}, "transactions": ["delivery"], "price": "$", "location": {"address1": "111 Bellevue Ave", "address2": "", "address3": "", "city": "Newport", "zip_code": "02840", "country": "US", "state": "RI", "display_address": ["111 Bellevue Ave", "Newport, RI 02840"]}, "phone": "+14016194811", "display_phone": "(401) 619-4811", "distance": 3163.160165166841}, {"id": "wWtcgVlDfouiz0KpBN1BmA", "alias": "yiayias-cafe-middletown", "name": "YiaYia's Cafe", "image_url": "https://s3-media1.fl.yelpcdn.com/bphoto/Owjfuzttq3EdFPWEViaJrg/o.jpg", "is_closed": false, "url": "https://www.yelp.com/biz/yiayias-cafe-middletown?adjust_creative=9VzDKP4DqSuZkRYYaMKPjA&utm_campaign=yelp_api_v3&utm_medium=api_v3_business_search&utm_source=9VzDKP4DqSuZkRYYaMKPjA", "review_count": 32, "categories": [{"alias": "breakfast_brunch", "title": "Breakfast & Brunch"}, {"alias": "mediterranean", "title": "Mediterranean"}, {"alias": "icecream", "title": "Ice Cream & Frozen Yogurt"}], "rating": 4.5, "coordinates": {"latitude": 41.49364, "longitude": -71.28418}, "transactions": [], "price": "$$", "location": {"address1": "147 Aquidneck Ave", "address2": null, "address3": null, "city": "Middletown", "zip_code": "02842", "country": "US", "state": "RI", "display_address": ["147 Aquidneck Ave", "Middletown, RI 02842"]}, "phone": "+14018491211", "display_phone": "(401) 849-1211", "distance": 3679.4056364841626}, {"id": "iZDGdffQmUgD0NVB8bbaEA", "alias": "five-guys-newport", "name": "Five Guys", "image_url": "https://s3-media2.fl.yelpcdn.com/bphoto/0JOs6toyLM1DJ_XpDWTezQ/o.jpg", "is_closed": false, "url": "https://www.yelp.com/biz/five-guys-newport?adjust_creative=9VzDKP4DqSuZkRYYaMKPjA&utm_campaign=yelp_api_v3&utm_medium=api_v3_business_search&utm_source=9VzDKP4DqSuZkRYYaMKPjA", "review_count": 34, "categories": [{"alias": "burgers", "title": "Burgers"}, {"alias": "hotdogs", "title": "Fast Food"}], "rating": 3.5, "coordinates": {"latitude": 41.508829, "longitude": -71.316219}, "transactions": ["pickup"], "price": "$", "location": {"address1": "199 Connell Hwy", "address2": "", "address3": "", "city": "Newport", "zip_code": "02840", "country": "US", "state": "RI", "display_address": ["199 Connell Hwy", "Newport, RI 02840"]}, "phone": "+14018470593", "display_phone": "(401) 847-0593", "distance": 514.4897670565626}, {"id": "JYylwQmns_TkFE1RVe5byw", "alias": "cara-newport", "name": "Cara", "image_url": "https://s3-media2.fl.yelpcdn.com/bphoto/jQk6aNLhKiGNSdWY4oDX0w/o.jpg", "is_closed": false, "url": "https://www.yelp.com/biz/cara-newport?adjust_creative=9VzDKP4DqSuZkRYYaMKPjA&utm_campaign=yelp_api_v3&utm_medium=api_v3_business_search&utm_source=9VzDKP4DqSuZkRYYaMKPjA", "review_count": 7, "categories": [{"alias": "french", "title": "French"}, {"alias": "spanish", "title": "Spanish"}, {"alias": "italian", "title": "Italian"}], "rating": 4.0, "coordinates": {"latitude": 41.48445, "longitude": -71.29813}, "transactions": ["delivery"], "location": {"address1": "117 Memorial Blvd", "address2": null, "address3": "", "city": "Newport", "zip_code": "02840", "country": "US", "state": "RI", "display_address": ["117 Memorial Blvd", "Newport, RI 02840"]}, "phone": "+14018472244", "display_phone": "(401) 847-2244", "distance": 3565.5951266820393}, {"id": "982gWgNGJkPUMMSMJEAIPQ", "alias": "thai-cuisine-newport", "name": "Thai Cuisine", "image_url": "https://s3-media2.fl.yelpcdn.com/bphoto/UqGqT9dSEsZVR3ActcHjmg/o.jpg", "is_closed": false, "url": "https://www.yelp.com/biz/thai-cuisine-newport?adjust_creative=9VzDKP4DqSuZkRYYaMKPjA&utm_campaign=yelp_api_v3&utm_medium=api_v3_business_search&utm_source=9VzDKP4DqSuZkRYYaMKPjA", "review_count": 136, "categories": [{"alias": "thai", "title": "Thai"}], "rating": 3.5, "coordinates": {"latitude": 41.4788, "longitude": -71.31438}, "transactions": ["delivery"], "price": "$$", "location": {"address1": "517 Thames St", "address2": "", "address3": "", "city": "Newport", "zip_code": "02840", "country": "US", "state": "RI", "display_address": ["517 Thames St", "Newport, RI 02840"]}, "phone": "+14018418822", "display_phone": "(401) 841-8822", "distance": 3667.1538992729606}, {"id": "KiXN4Mikq8ta6YGcmWUl1Q", "alias": "titos-cantina-middletown", "name": "Tito's Cantina", "image_url": "https://s3-media3.fl.yelpcdn.com/bphoto/m1iuqC5oaWEsWrXRa8kEAA/o.jpg", "is_closed": false, "url": "https://www.yelp.com/biz/titos-cantina-middletown?adjust_creative=9VzDKP4DqSuZkRYYaMKPjA&utm_campaign=yelp_api_v3&utm_medium=api_v3_business_search&utm_source=9VzDKP4DqSuZkRYYaMKPjA", "review_count": 162, "categories": [{"alias": "mexican", "title": "Mexican"}], "rating": 2.5, "coordinates": {"latitude": 41.5203278, "longitude": -71.2990648}, "transactions": ["delivery", "pickup"], "price": "$$", "location": {"address1": "651 W Main Rd", "address2": "", "address3": "", "city": "Middletown", "zip_code": "02842", "country": "US", "state": "RI", "display_address": ["651 W Main Rd", "Middletown, RI 02842"]}, "phone": "+14018494222", "display_phone": "(401) 849-4222", "distance": 2104.492191344364}, {"id": "gof4oykUDc5PdOdoNCb31A", "alias": "surf-club-newport-2", "name": "Surf Club", "image_url": "https://s3-media4.fl.yelpcdn.com/bphoto/2ZmC0snOjG_T2j0j847Jfw/o.jpg", "is_closed": false, "url": "https://www.yelp.com/biz/surf-club-newport-2?adjust_creative=9VzDKP4DqSuZkRYYaMKPjA&utm_campaign=yelp_api_v3&utm_medium=api_v3_business_search&utm_source=9VzDKP4DqSuZkRYYaMKPjA", "review_count": 52, "categories": [{"alias": "cocktailbars", "title": "Cocktail Bars"}, {"alias": "pizza", "title": "Pizza"}], "rating": 4.0, "coordinates": {"latitude": 41.48422, "longitude": -71.31485}, "transactions": ["delivery", "pickup"], "price": "$$", "location": {"address1": "337 Thames St", "address2": "", "address3": null, "city": "Newport", "zip_code": "02840", "country": "US", "state": "RI", "display_address": ["337 Thames St", "Newport, RI 02840"]}, "phone": "+14016195701", "display_phone": "(401) 619-5701", "distance": 3050.5657419658028}, {"id": "53Zs2J2BTFnLtdzwNlAIbw", "alias": "aquidneck-lobster-newport", "name": "Aquidneck Lobster", "image_url": "https://s3-media1.fl.yelpcdn.com/bphoto/1X-fvrvYXK8mfqI9hlRPsA/o.jpg", "is_closed": false, "url": "https://www.yelp.com/biz/aquidneck-lobster-newport?adjust_creative=9VzDKP4DqSuZkRYYaMKPjA&utm_campaign=yelp_api_v3&utm_medium=api_v3_business_search&utm_source=9VzDKP4DqSuZkRYYaMKPjA", "review_count": 113, "categories": [{"alias": "seafood", "title": "Seafood"}], "rating": 3.5, "coordinates": {"latitude": 41.4866203559198, "longitude": -71.3174773906506}, "transactions": [], "price": "$$", "location": {"address1": "31 Bowens Whf", "address2": "", "address3": "", "city": "Newport", "zip_code": "02840", "country": "US", "state": "RI", "display_address": ["31 Bowens Whf", "Newport, RI 02840"]}, "phone": "+14018460106", "display_phone": "(401) 846-0106", "distance": 2774.48807522803}, {"id": "-UZAH-oltO_vTPdtrPVfgQ", "alias": "bens-chili-dogs-newport-2", "name": "Ben's Chili Dogs", "image_url": "https://s3-media1.fl.yelpcdn.com/bphoto/l5TXf9bODvNf--opvfWJDg/o.jpg", "is_closed": false, "url": "https://www.yelp.com/biz/bens-chili-dogs-newport-2?adjust_creative=9VzDKP4DqSuZkRYYaMKPjA&utm_campaign=yelp_api_v3&utm_medium=api_v3_business_search&utm_source=9VzDKP4DqSuZkRYYaMKPjA", "review_count": 53, "categories": [{"alias": "hotdog", "title": "Hot Dogs"}], "rating": 4.0, "coordinates": {"latitude": 41.4939198, "longitude": -71.3096061}, "transactions": ["delivery", "pickup"], "price": "$", "location": {"address1": "158 Broadway", "address2": "", "address3": "", "city": "Newport", "zip_code": "02840", "country": "US", "state": "RI", "display_address": ["158 Broadway", "Newport, RI 02840"]}, "phone": "+14018468206", "display_phone": "(401) 846-8206", "distance": 2169.8872356165907}, {"id": "lkWdidduBwRBCInCpMMWsQ", "alias": "eastons-beach-snack-bar-newport", "name": "Easton's Beach Snack Bar", "image_url": "https://s3-media2.fl.yelpcdn.com/bphoto/53SCB0iQ5gyGFO2dlF9ymA/o.jpg", "is_closed": false, "url": "https://www.yelp.com/biz/eastons-beach-snack-bar-newport?adjust_creative=9VzDKP4DqSuZkRYYaMKPjA&utm_campaign=yelp_api_v3&utm_medium=api_v3_business_search&utm_source=9VzDKP4DqSuZkRYYaMKPjA", "review_count": 311, "categories": [{"alias": "seafood", "title": "Seafood"}, {"alias": "salad", "title": "Salad"}, {"alias": "wraps", "title": "Wraps"}], "rating": 4.5, "coordinates": {"latitude": 41.48866, "longitude": -71.290616}, "transactions": ["delivery"], "price": "$$", "location": {"address1": "175 Memorial Blvd", "address2": "", "address3": "", "city": "Newport", "zip_code": "02840", "country": "US", "state": "RI", "display_address": ["175 Memorial Blvd", "Newport, RI 02840"]}, "phone": "+14018551910", "display_phone": "(401) 855-1910", "distance": 3598.317359979777}, {"id": "NGa6jDoAemVgqdip5U3Haw", "alias": "yumi-garden-buffet-middletown", "name": "Yumi Garden Buffet", "image_url": "https://s3-media1.fl.yelpcdn.com/bphoto/twrftDZupUa-OzxR3oJ6aA/o.jpg", "is_closed": false, "url": "https://www.yelp.com/biz/yumi-garden-buffet-middletown?adjust_creative=9VzDKP4DqSuZkRYYaMKPjA&utm_campaign=yelp_api_v3&utm_medium=api_v3_business_search&utm_source=9VzDKP4DqSuZkRYYaMKPjA", "review_count": 80, "categories": [{"alias": "chinese", "title": "Chinese"}, {"alias": "sushi", "title": "Sushi Bars"}, {"alias": "buffets", "title": "Buffets"}], "rating": 3.5, "coordinates": {"latitude": 41.527239233222, "longitude": -71.299255178761}, "transactions": ["delivery"], "price": "$$", "location": {"address1": "872 W Main Rd", "address2": "", "address3": "", "city": "Middletown", "zip_code": "02842", "country": "US", "state": "RI", "display_address": ["872 W Main Rd", "Middletown, RI 02842"]}, "phone": "+14018482588", "display_phone": "(401) 848-2588", "distance": 2546.7607710713105}, {"id": "v0JY_xHop1MVyOLUtKPLpg", "alias": "mission-middletown", "name": "Mission", "image_url": "https://s3-media3.fl.yelpcdn.com/bphoto/jt4MaGLwYEi81-rItKRNnQ/o.jpg", "is_closed": false, "url": "https://www.yelp.com/biz/mission-middletown?adjust_creative=9VzDKP4DqSuZkRYYaMKPjA&utm_campaign=yelp_api_v3&utm_medium=api_v3_business_search&utm_source=9VzDKP4DqSuZkRYYaMKPjA", "review_count": 9, "categories": [{"alias": "tradamerican", "title": "American (Traditional)"}, {"alias": "wine_bars", "title": "Wine Bars"}, {"alias": "falafel", "title": "Falafel"}], "rating": 4.0, "coordinates": {"latitude": 41.491256, "longitude": -71.28417}, "transactions": ["delivery"], "price": "$$", "location": {"address1": "58 Aquidneck Ave", "address2": null, "address3": "", "city": "Middletown", "zip_code": "02842", "country": "US", "state": "RI", "display_address": ["58 Aquidneck Ave", "Middletown, RI 02842"]}, "phone": "+14013245811", "display_phone": "(401) 324-5811", "distance": 3822.275561599357}, {"id": "Vu4JoahMW3Z5belzKNp5eA", "alias": "pickles-a-deli-middletown", "name": "Pickles-A Deli", "image_url": "https://s3-media3.fl.yelpcdn.com/bphoto/_Zwvz2MdqOi1SqZ9mmBfWg/o.jpg", "is_closed": false, "url": "https://www.yelp.com/biz/pickles-a-deli-middletown?adjust_creative=9VzDKP4DqSuZkRYYaMKPjA&utm_campaign=yelp_api_v3&utm_medium=api_v3_business_search&utm_source=9VzDKP4DqSuZkRYYaMKPjA", "review_count": 59, "categories": [{"alias": "delis", "title": "Delis"}, {"alias": "sandwiches", "title": "Sandwiches"}], "rating": 4.0, "coordinates": {"latitude": 41.513342, "longitude": -71.282832}, "transactions": ["delivery"], "price": "$", "location": {"address1": "936 Aquidneck Ave", "address2": "", "address3": "", "city": "Middletown", "zip_code": "02842", "country": "US", "state": "RI", "display_address": ["936 Aquidneck Ave", "Middletown, RI 02842"]}, "phone": "+14018493950", "display_phone": "(401) 849-3950", "distance": 3192.3267809769422}, {"id": "ZVfi2TnaN31gt-uASgBIbQ", "alias": "bar-and-board-bistro-newport", "name": "Bar & Board Bistro", "image_url": "https://s3-media2.fl.yelpcdn.com/bphoto/B50AEkczc-jlE6kJPea5OA/o.jpg", "is_closed": false, "url": "https://www.yelp.com/biz/bar-and-board-bistro-newport?adjust_creative=9VzDKP4DqSuZkRYYaMKPjA&utm_campaign=yelp_api_v3&utm_medium=api_v3_business_search&utm_source=9VzDKP4DqSuZkRYYaMKPjA", "review_count": 80, "categories": [{"alias": "newamerican", "title": "American (New)"}, {"alias": "bars", "title": "Bars"}], "rating": 4.0, "coordinates": {"latitude": 41.48585, "longitude": -71.3146}, "transactions": ["delivery"], "location": {"address1": "282 Thames St", "address2": null, "address3": "", "city": "Newport", "zip_code": "02840", "country": "US", "state": "RI", "display_address": ["282 Thames St", "Newport, RI 02840"]}, "phone": "+14016191022", "display_phone": "(401) 619-1022", "distance": 2891.4261712901757}, {"id": "JRoO6einR-rjVmlgZNuvyg", "alias": "tickets-bar-and-grille-middletown", "name": "Tickets Bar & Grille", "image_url": "https://s3-media1.fl.yelpcdn.com/bphoto/0nGDl0T1es9iTV7HKvO-ZQ/o.jpg", "is_closed": false, "url": "https://www.yelp.com/biz/tickets-bar-and-grille-middletown?adjust_creative=9VzDKP4DqSuZkRYYaMKPjA&utm_campaign=yelp_api_v3&utm_medium=api_v3_business_search&utm_source=9VzDKP4DqSuZkRYYaMKPjA", "review_count": 147, "categories": [{"alias": "bars", "title": "Bars"}, {"alias": "tradamerican", "title": "American (Traditional)"}], "rating": 3.5, "coordinates": {"latitude": 41.48988, "longitude": -71.28415}, "transactions": ["delivery"], "price": "$$", "location": {"address1": "15 Aquidneck Ave", "address2": "", "address3": "", "city": "Middletown", "zip_code": "02842", "country": "US", "state": "RI", "display_address": ["15 Aquidneck Ave", "Middletown, RI 02842"]}, "phone": "+14018477678", "display_phone": "(401) 847-7678", "distance": 3918.0259002847315}, {"id": "fKtgfInnjvuazSS_IanREw", "alias": "cru-cafe-newport", "name": "Cru Cafe", "image_url": "https://s3-media2.fl.yelpcdn.com/bphoto/jYUDBDoueAB9qo23TPfGUA/o.jpg", "is_closed": false, "url": "https://www.yelp.com/biz/cru-cafe-newport?adjust_creative=9VzDKP4DqSuZkRYYaMKPjA&utm_campaign=yelp_api_v3&utm_medium=api_v3_business_search&utm_source=9VzDKP4DqSuZkRYYaMKPjA", "review_count": 236, "categories": [{"alias": "cafes", "title": "Cafes"}, {"alias": "breakfast_brunch", "title": "Breakfast & Brunch"}, {"alias": "sandwiches", "title": "Sandwiches"}], "rating": 4.5, "coordinates": {"latitude": 41.48196, "longitude": -71.30777}, "transactions": ["delivery"], "price": "$", "location": {"address1": "1 Casino Ter", "address2": null, "address3": "", "city": "Newport", "zip_code": "02840", "country": "US", "state": "RI", "display_address": ["1 Casino Ter", "Newport, RI 02840"]}, "phone": "+14013140500", "display_phone": "(401) 314-0500", "distance": 3451.3155630353485}, {"id": "jkHL7HwrbfIIllKNJrv28A", "alias": "harrys-newport-newport-2", "name": "Harry's - Newport", "image_url": "https://s3-media3.fl.yelpcdn.com/bphoto/AdxnnVfquQd0Bn1tk4l30A/o.jpg", "is_closed": false, "url": "https://www.yelp.com/biz/harrys-newport-newport-2?adjust_creative=9VzDKP4DqSuZkRYYaMKPjA&utm_campaign=yelp_api_v3&utm_medium=api_v3_business_search&utm_source=9VzDKP4DqSuZkRYYaMKPjA", "review_count": 107, "categories": [{"alias": "burgers", "title": "Burgers"}, {"alias": "hotdog", "title": "Hot Dogs"}, {"alias": "cocktailbars", "title": "Cocktail Bars"}], "rating": 4.0, "coordinates": {"latitude": 41.4804, "longitude": -71.31417}, "transactions": ["pickup"], "price": "$", "location": {"address1": "464 Thames St", "address2": null, "address3": "", "city": "Newport", "zip_code": "02840", "country": "US", "state": "RI", "display_address": ["464 Thames St", "Newport, RI 02840"]}, "phone": "+14016193617", "display_phone": "(401) 619-3617", "distance": 3499.4342258557967}, {"id": "Rm9dUVm_juauf23AOzd0iw", "alias": "johnnys-restaurant-and-patio-bar-middletown", "name": "Johnny's Restaurant & Patio Bar", "image_url": "https://s3-media3.fl.yelpcdn.com/bphoto/sZVKQ6veq08OP2OQjHFBRw/o.jpg", "is_closed": false, "url": "https://www.yelp.com/biz/johnnys-restaurant-and-patio-bar-middletown?adjust_creative=9VzDKP4DqSuZkRYYaMKPjA&utm_campaign=yelp_api_v3&utm_medium=api_v3_business_search&utm_source=9VzDKP4DqSuZkRYYaMKPjA", "review_count": 51, "categories": [{"alias": "seafood", "title": "Seafood"}, {"alias": "tradamerican", "title": "American (Traditional)"}, {"alias": "lounges", "title": "Lounges"}], "rating": 3.5, "coordinates": {"latitude": 41.497217, "longitude": -71.284883}, "transactions": ["delivery"], "price": "$$", "location": {"address1": "240 Aquidneck Ave", "address2": "", "address3": null, "city": "Middletown", "zip_code": "02842", "country": "US", "state": "RI", "display_address": ["240 Aquidneck Ave", "Middletown, RI 02842"]}, "phone": "+14018472750", "display_phone": "(401) 847-2750", "distance": 3422.2763777004857}, {"id": "wE_VYyxJE-mDJzRu5Y9tsg", "alias": "karma-pizza-newport", "name": "Karma Pizza", "image_url": "https://s3-media3.fl.yelpcdn.com/bphoto/ffnRWY0k99cTgScPcp5CmQ/o.jpg", "is_closed": false, "url": "https://www.yelp.com/biz/karma-pizza-newport?adjust_creative=9VzDKP4DqSuZkRYYaMKPjA&utm_campaign=yelp_api_v3&utm_medium=api_v3_business_search&utm_source=9VzDKP4DqSuZkRYYaMKPjA", "review_count": 41, "categories": [{"alias": "pizza", "title": "Pizza"}], "rating": 3.5, "coordinates": {"latitude": 41.48124917, "longitude": -71.31440183}, "transactions": ["delivery", "pickup"], "location": {"address1": "446 Thames St", "address2": null, "address3": null, "city": "Newport", "zip_code": "02840", "country": "US", "state": "RI", "display_address": ["446 Thames St", "Newport, RI 02840"]}, "phone": "+14016193343", "display_phone": "(401) 619-3343", "distance": 3402.9512868361576}, {"id": "eyf08RkWZ0LH4vyvkq8sJw", "alias": "the-port-newport", "name": "The Port", "image_url": "https://s3-media3.fl.yelpcdn.com/bphoto/bF0y8MS_HkxHB0qUe1X0lA/o.jpg", "is_closed": false, "url": "https://www.yelp.com/biz/the-port-newport?adjust_creative=9VzDKP4DqSuZkRYYaMKPjA&utm_campaign=yelp_api_v3&utm_medium=api_v3_business_search&utm_source=9VzDKP4DqSuZkRYYaMKPjA", "review_count": 120, "categories": [{"alias": "seafood", "title": "Seafood"}], "rating": 3.5, "coordinates": {"latitude": 41.4836199581623, "longitude": -71.3147067278624}, "transactions": ["delivery"], "price": "$$", "location": {"address1": "359 Thames St", "address2": "", "address3": "", "city": "Newport", "zip_code": "02840", "country": "US", "state": "RI", "display_address": ["359 Thames St", "Newport, RI 02840"]}, "phone": "+14016195892", "display_phone": "(401) 619-5892", "distance": 3131.739422128039}, {"id": "JxbzdyLpA78Wo06WXs0CUQ", "alias": "zeldas-newport", "name": "Zelda's", "image_url": "https://s3-media4.fl.yelpcdn.com/bphoto/1SVIbtTfe48jvvDFBvSdLg/o.jpg", "is_closed": false, "url": "https://www.yelp.com/biz/zeldas-newport?adjust_creative=9VzDKP4DqSuZkRYYaMKPjA&utm_campaign=yelp_api_v3&utm_medium=api_v3_business_search&utm_source=9VzDKP4DqSuZkRYYaMKPjA", "review_count": 137, "categories": [{"alias": "newamerican", "title": "American (New)"}], "rating": 3.5, "coordinates": {"latitude": 41.47839, "longitude": -71.31399}, "transactions": ["delivery"], "price": "$$$", "location": {"address1": "528 Thames St", "address2": "", "address3": "", "city": "Newport", "zip_code": "02840", "country": "US", "state": "RI", "display_address": ["528 Thames St", "Newport, RI 02840"]}, "phone": "+14018494002", "display_phone": "(401) 849-4002", "distance": 3719.8435799857552}, {"id": "bWRAf7GxR7vo3AO1wYZo8A", "alias": "stoneacre-brasserie-newport", "name": "Stoneacre Brasserie", "image_url": "https://s3-media1.fl.yelpcdn.com/bphoto/ZW_RVzf4Fp-VUV_Ggj_ZLA/o.jpg", "is_closed": false, "url": "https://www.yelp.com/biz/stoneacre-brasserie-newport?adjust_creative=9VzDKP4DqSuZkRYYaMKPjA&utm_campaign=yelp_api_v3&utm_medium=api_v3_business_search&utm_source=9VzDKP4DqSuZkRYYaMKPjA", "review_count": 189, "categories": [{"alias": "french", "title": "French"}, {"alias": "newamerican", "title": "American (New)"}, {"alias": "sushi", "title": "Sushi Bars"}], "rating": 3.5, "coordinates": {"latitude": 41.4902240467067, "longitude": -71.3141120769464}, "transactions": ["delivery"], "price": "$$$", "location": {"address1": "28 Washington Square", "address2": "", "address3": null, "city": "Newport", "zip_code": "02840", "country": "US", "state": "RI", "display_address": ["28 Washington Square", "Newport, RI 02840"]}, "phone": "+14016197810", "display_phone": "(401) 619-7810", "distance": 2420.3892737465953}, {"id": "aK705MCAmuhYtgPDaLiuhw", "alias": "new-seashai-restaurant-middletown-3", "name": "New Seashai Restaurant", "image_url": "https://s3-media3.fl.yelpcdn.com/bphoto/HnFIwNa0cOQnnHph1Oesag/o.jpg", "is_closed": false, "url": "https://www.yelp.com/biz/new-seashai-restaurant-middletown-3?adjust_creative=9VzDKP4DqSuZkRYYaMKPjA&utm_campaign=yelp_api_v3&utm_medium=api_v3_business_search&utm_source=9VzDKP4DqSuZkRYYaMKPjA", "review_count": 78, "categories": [{"alias": "japanese", "title": "Japanese"}, {"alias": "korean", "title": "Korean"}, {"alias": "sushi", "title": "Sushi Bars"}], "rating": 4.0, "coordinates": {"latitude": 41.50811, "longitude": -71.28243}, "transactions": ["delivery"], "price": "$$", "location": {"address1": "747 Aquidneck Ave", "address2": null, "address3": "", "city": "Middletown", "zip_code": "02842", "country": "US", "state": "RI", "display_address": ["747 Aquidneck Ave", "Middletown, RI 02842"]}, "phone": "+14016190968", "display_phone": "(401) 619-0968", "distance": 3303.1686090094827}, {"id": "GtUQrm1zO5KSS6TLqECk1w", "alias": "slice-of-heaven-jamestown", "name": "Slice of Heaven", "image_url": "https://s3-media3.fl.yelpcdn.com/bphoto/4xjEw0LbPwYCM6Bq43eqtA/o.jpg", "is_closed": false, "url": "https://www.yelp.com/biz/slice-of-heaven-jamestown?adjust_creative=9VzDKP4DqSuZkRYYaMKPjA&utm_campaign=yelp_api_v3&utm_medium=api_v3_business_search&utm_source=9VzDKP4DqSuZkRYYaMKPjA", "review_count": 122, "categories": [{"alias": "breakfast_brunch", "title": "Breakfast & Brunch"}, {"alias": "bakeries", "title": "Bakeries"}], "rating": 4.0, "coordinates": {"latitude": 41.4964, "longitude": -71.36978}, "transactions": [], "price": "$$", "location": {"address1": "32 Narragansett Ave", "address2": "", "address3": "", "city": "Jamestown", "zip_code": "02835", "country": "US", "state": "RI", "display_address": ["32 Narragansett Ave", "Jamestown, RI 02835"]}, "phone": "+14014239866", "display_phone": "(401) 423-9866", "distance": 4344.869838982327}, {"id": "yEa9IQVOyLcOe4ifJKl3Lg", "alias": "skiff-bar-newport", "name": "Skiff Bar", "image_url": "https://s3-media1.fl.yelpcdn.com/bphoto/vRhHpKxh82LxtE9ThqpsNw/o.jpg", "is_closed": false, "url": "https://www.yelp.com/biz/skiff-bar-newport?adjust_creative=9VzDKP4DqSuZkRYYaMKPjA&utm_campaign=yelp_api_v3&utm_medium=api_v3_business_search&utm_source=9VzDKP4DqSuZkRYYaMKPjA", "review_count": 24, "categories": [{"alias": "sportsbars", "title": "Sports Bars"}, {"alias": "newamerican", "title": "American (New)"}, {"alias": "pizza", "title": "Pizza"}], "rating": 4.0, "coordinates": {"latitude": 41.490304, "longitude": -71.318358}, "transactions": ["delivery"], "price": "$$", "location": {"address1": "25 America's Cup Ave", "address2": "", "address3": "Newport Marriott", "city": "Newport", "zip_code": "02840", "country": "US", "state": "RI", "display_address": ["25 America's Cup Ave", "Newport Marriott", "Newport, RI 02840"]}, "phone": "+14018491000", "display_phone": "(401) 849-1000", "distance": 2359.2683298813554}, {"id": "Rshoeyk-FxOv6bR1qvEZCw", "alias": "picnic-cafe-newport", "name": "Picnic Cafe", "image_url": "https://s3-media2.fl.yelpcdn.com/bphoto/F6AzqsmH-wbQ0mPl0UDK3A/o.jpg", "is_closed": false, "url": "https://www.yelp.com/biz/picnic-cafe-newport?adjust_creative=9VzDKP4DqSuZkRYYaMKPjA&utm_campaign=yelp_api_v3&utm_medium=api_v3_business_search&utm_source=9VzDKP4DqSuZkRYYaMKPjA", "review_count": 33, "categories": [{"alias": "cafes", "title": "Cafes"}, {"alias": "bakeries", "title": "Bakeries"}, {"alias": "sandwiches", "title": "Sandwiches"}], "rating": 4.5, "coordinates": {"latitude": 41.4872413120365, "longitude": -71.3091897676101}, "transactions": ["delivery"], "price": "$$", "location": {"address1": "28 Bellevue Ave", "address2": null, "address3": "", "city": "Newport", "zip_code": "02840", "country": "US", "state": "RI", "display_address": ["28 Bellevue Ave", "Newport, RI 02840"]}, "phone": "+14016191181", "display_phone": "(401) 619-1181", "distance": 2858.643857772296}, {"id": "iv3Vkh6-id2Ps1hZIlUGxA", "alias": "the-clarke-cooke-house-newport", "name": "The Clarke Cooke House", "image_url": "https://s3-media3.fl.yelpcdn.com/bphoto/k3L5oArfJl9vCjz1bwMjFQ/o.jpg", "is_closed": false, "url": "https://www.yelp.com/biz/the-clarke-cooke-house-newport?adjust_creative=9VzDKP4DqSuZkRYYaMKPjA&utm_campaign=yelp_api_v3&utm_medium=api_v3_business_search&utm_source=9VzDKP4DqSuZkRYYaMKPjA", "review_count": 438, "categories": [{"alias": "seafood", "title": "Seafood"}, {"alias": "sushi", "title": "Sushi Bars"}, {"alias": "cocktailbars", "title": "Cocktail Bars"}], "rating": 3.0, "coordinates": {"latitude": 41.4861374, "longitude": -71.3160258}, "transactions": ["delivery"], "price": "$$$", "location": {"address1": "26 Bannisters Wharf", "address2": "", "address3": "", "city": "Newport", "zip_code": "02840", "country": "US", "state": "RI", "display_address": ["26 Bannisters Wharf", "Newport, RI 02840"]}, "phone": "+14018492900", "display_phone": "(401) 849-2900", "distance": 2844.1709979150473}, {"id": "tujWHCL3_TTtOaFCjyW1-w", "alias": "newport-creamery-ice-cream-and-sandwich-shoppes-newport", "name": "Newport Creamery Ice Cream & Sandwich Shoppes", "image_url": "https://s3-media2.fl.yelpcdn.com/bphoto/tOlnrBQR8bYi3BRui_Yfmw/o.jpg", "is_closed": false, "url": "https://www.yelp.com/biz/newport-creamery-ice-cream-and-sandwich-shoppes-newport?adjust_creative=9VzDKP4DqSuZkRYYaMKPjA&utm_campaign=yelp_api_v3&utm_medium=api_v3_business_search&utm_source=9VzDKP4DqSuZkRYYaMKPjA", "review_count": 141, "categories": [{"alias": "diners", "title": "Diners"}, {"alias": "icecream", "title": "Ice Cream & Frozen Yogurt"}], "rating": 3.0, "coordinates": {"latitude": 41.48274, "longitude": -71.30949}, "transactions": ["delivery"], "price": "$", "location": {"address1": "181 Bellevue Ave", "address2": "", "address3": "", "city": "Newport", "zip_code": "02840", "country": "US", "state": "RI", "display_address": ["181 Bellevue Ave", "Newport, RI 02840"]}, "phone": "+14018466332", "display_phone": "(401) 846-6332", "distance": 3321.9031925378836}, {"id": "Tv11aleBA5xG2DEl0_EOug", "alias": "leos-food-market-and-restaurant-newport", "name": "Leo's Food Market & Restaurant", "image_url": "https://s3-media4.fl.yelpcdn.com/bphoto/Ak_L-fKwHX2z16Sm3h_TtA/o.jpg", "is_closed": false, "url": "https://www.yelp.com/biz/leos-food-market-and-restaurant-newport?adjust_creative=9VzDKP4DqSuZkRYYaMKPjA&utm_campaign=yelp_api_v3&utm_medium=api_v3_business_search&utm_source=9VzDKP4DqSuZkRYYaMKPjA", "review_count": 31, "categories": [{"alias": "grocery", "title": "Grocery"}, {"alias": "latin", "title": "Latin American"}, {"alias": "bakeries", "title": "Bakeries"}], "rating": 4.5, "coordinates": {"latitude": 41.4938999, "longitude": -71.3096}, "transactions": ["delivery"], "price": "$$", "location": {"address1": "162 Broadway", "address2": null, "address3": "", "city": "Newport", "zip_code": "02840", "country": "US", "state": "RI", "display_address": ["162 Broadway", "Newport, RI 02840"]}, "phone": "+14016195935", "display_phone": "(401) 619-5935", "distance": 2164.9012162836584}, {"id": "h_pCQQ1QLI57KMAkiRkgeg", "alias": "gas-lamp-grille-newport", "name": "Gas Lamp Grille", "image_url": "https://s3-media2.fl.yelpcdn.com/bphoto/4lX0oax77C9kzzNlmZF9hw/o.jpg", "is_closed": false, "url": "https://www.yelp.com/biz/gas-lamp-grille-newport?adjust_creative=9VzDKP4DqSuZkRYYaMKPjA&utm_campaign=yelp_api_v3&utm_medium=api_v3_business_search&utm_source=9VzDKP4DqSuZkRYYaMKPjA", "review_count": 225, "categories": [{"alias": "bars", "title": "Bars"}, {"alias": "gluten_free", "title": "Gluten-Free"}, {"alias": "tradamerican", "title": "American (Traditional)"}], "rating": 3.5, "coordinates": {"latitude": 41.4877646416426, "longitude": -71.3150004297495}, "transactions": ["delivery"], "price": "$$", "location": {"address1": "206 Thames St", "address2": "", "address3": "", "city": "Newport", "zip_code": "02840", "country": "US", "state": "RI", "display_address": ["206 Thames St", "Newport, RI 02840"]}, "phone": "+14018459300", "display_phone": "(401) 845-9300", "distance": 2679.778148745441}, {"id": "Wg0EIBDDl4pF4A8AiPSgvA", "alias": "good-friends-chinese-restaurant-newport", "name": "Good Friends Chinese Restaurant", "image_url": "https://s3-media1.fl.yelpcdn.com/bphoto/7W5_qick0Vm3vyE6i5j-uA/o.jpg", "is_closed": false, "url": "https://www.yelp.com/biz/good-friends-chinese-restaurant-newport?adjust_creative=9VzDKP4DqSuZkRYYaMKPjA&utm_campaign=yelp_api_v3&utm_medium=api_v3_business_search&utm_source=9VzDKP4DqSuZkRYYaMKPjA", "review_count": 20, "categories": [{"alias": "chinese", "title": "Chinese"}], "rating": 2.5, "coordinates": {"latitude": 41.5077676, "longitude": -71.3174557}, "transactions": ["delivery"], "price": "$$", "location": {"address1": "135 Connell Hwy", "address2": "", "address3": "", "city": "Newport", "zip_code": "02840", "country": "US", "state": "RI", "display_address": ["135 Connell Hwy", "Newport, RI 02840"]}, "phone": "+14018478898", "display_phone": "(401) 847-8898", "distance": 675.2011442747414}, {"id": "JUo39j2lNmaG1XHbKOtnKQ", "alias": "vineyard-cafe-middletown", "name": "Vineyard Cafe", "image_url": "https://s3-media3.fl.yelpcdn.com/bphoto/xzUoqWuEaBBT4LbxeGxUxg/o.jpg", "is_closed": false, "url": "https://www.yelp.com/biz/vineyard-cafe-middletown?adjust_creative=9VzDKP4DqSuZkRYYaMKPjA&utm_campaign=yelp_api_v3&utm_medium=api_v3_business_search&utm_source=9VzDKP4DqSuZkRYYaMKPjA", "review_count": 12, "categories": [{"alias": "desserts", "title": "Desserts"}, {"alias": "burgers", "title": "Burgers"}, {"alias": "sandwiches", "title": "Sandwiches"}], "rating": 3.5, "coordinates": {"latitude": 41.52847, "longitude": -71.2739}, "transactions": [], "price": "$$", "location": {"address1": "909 East Main Rd", "address2": "", "address3": "Newport Vineyards", "city": "Middletown", "zip_code": "02842", "country": "US", "state": "RI", "display_address": ["909 East Main Rd", "Newport Vineyards", "Middletown, RI 02842"]}, "phone": "+14018485161", "display_phone": "(401) 848-5161", "distance": 4527.936037536226}, {"id": "JM_lT0pKaOyrKVFmzUZIpg", "alias": "umi-asian-cuisine-newport", "name": "UMI Asian Cuisine", "image_url": "https://s3-media3.fl.yelpcdn.com/bphoto/P1HlEDjy6_mAoHYcKgw93g/o.jpg", "is_closed": false, "url": "https://www.yelp.com/biz/umi-asian-cuisine-newport?adjust_creative=9VzDKP4DqSuZkRYYaMKPjA&utm_campaign=yelp_api_v3&utm_medium=api_v3_business_search&utm_source=9VzDKP4DqSuZkRYYaMKPjA", "review_count": 5, "categories": [{"alias": "asianfusion", "title": "Asian Fusion"}], "rating": 4.0, "coordinates": {"latitude": 41.4922502714256, "longitude": -71.3116514886868}, "transactions": ["delivery", "pickup"], "location": {"address1": "82 Broadway", "address2": "", "address3": null, "city": "Newport", "zip_code": "02840", "country": "US", "state": "RI", "display_address": ["82 Broadway", "Newport, RI 02840"]}, "phone": "", "display_phone": "", "distance": 2277.751675206217}, {"id": "FBPKyM4nqgZEiAH1MMri3g", "alias": "the-hungry-monkey-newport", "name": "The Hungry Monkey", "image_url": "https://s3-media1.fl.yelpcdn.com/bphoto/3c2EkFIcyyfaulkUuG2KyQ/o.jpg", "is_closed": false, "url": "https://www.yelp.com/biz/the-hungry-monkey-newport?adjust_creative=9VzDKP4DqSuZkRYYaMKPjA&utm_campaign=yelp_api_v3&utm_medium=api_v3_business_search&utm_source=9VzDKP4DqSuZkRYYaMKPjA", "review_count": 336, "categories": [{"alias": "breakfast_brunch", "title": "Breakfast & Brunch"}, {"alias": "soup", "title": "Soup"}, {"alias": "sandwiches", "title": "Sandwiches"}], "rating": 3.5, "coordinates": {"latitude": 41.49315, "longitude": -71.31043}, "transactions": ["delivery"], "price": "$", "location": {"address1": "124 Broadway", "address2": "", "address3": "", "city": "Newport", "zip_code": "02840", "country": "US", "state": "RI", "display_address": ["124 Broadway", "Newport, RI 02840"]}, "phone": "+14016194433", "display_phone": "(401) 619-4433", "distance": 2217.3696072921916}, {"id": "bcxHRvYm6CO891VtlXp2MA", "alias": "chilis-middletown-6", "name": "Chili's", "image_url": "https://s3-media2.fl.yelpcdn.com/bphoto/8k0QDogw2Fy6F3vafY5AFw/o.jpg", "is_closed": false, "url": "https://www.yelp.com/biz/chilis-middletown-6?adjust_creative=9VzDKP4DqSuZkRYYaMKPjA&utm_campaign=yelp_api_v3&utm_medium=api_v3_business_search&utm_source=9VzDKP4DqSuZkRYYaMKPjA", "review_count": 65, "categories": [{"alias": "tradamerican", "title": "American (Traditional)"}, {"alias": "bars", "title": "Bars"}, {"alias": "tex-mex", "title": "Tex-Mex"}], "rating": 3.5, "coordinates": {"latitude": 41.525712, "longitude": -71.296997}, "transactions": [], "price": "$$", "location": {"address1": "855 W Main Rd", "address2": "", "address3": "", "city": "Middletown", "zip_code": "02842", "country": "US", "state": "RI", "display_address": ["855 W Main Rd", "Middletown, RI 02842"]}, "phone": "+14018489380", "display_phone": "(401) 848-9380", "distance": 2577.5902622682383}, {"id": "lkciUmC-tGIFGE9ugSStew", "alias": "the-vanderbilt-grill-newport-2", "name": "The Vanderbilt Grill", "image_url": "https://s3-media3.fl.yelpcdn.com/bphoto/pTRPg7VvmYX-_pNaO3512A/o.jpg", "is_closed": false, "url": "https://www.yelp.com/biz/the-vanderbilt-grill-newport-2?adjust_creative=9VzDKP4DqSuZkRYYaMKPjA&utm_campaign=yelp_api_v3&utm_medium=api_v3_business_search&utm_source=9VzDKP4DqSuZkRYYaMKPjA", "review_count": 53, "categories": [{"alias": "newamerican", "title": "American (New)"}, {"alias": "bars", "title": "Bars"}], "rating": 3.5, "coordinates": {"latitude": 41.488219, "longitude": -71.313578}, "transactions": [], "price": "$$$$", "location": {"address1": "41 Mary St", "address2": "", "address3": "", "city": "Newport", "zip_code": "02840", "country": "US", "state": "RI", "display_address": ["41 Mary St", "Newport, RI 02840"]}, "phone": "+14018466200", "display_phone": "(401) 846-6200", "distance": 2657.973911639706}, {"id": "Cx0I1l4rRIcgjtyX3e3D1Q", "alias": "friskie-fries-newport", "name": "Friskie Fries", "image_url": "https://s3-media4.fl.yelpcdn.com/bphoto/Jpgm8fod0aRywDLdXoOxBw/o.jpg", "is_closed": false, "url": "https://www.yelp.com/biz/friskie-fries-newport?adjust_creative=9VzDKP4DqSuZkRYYaMKPjA&utm_campaign=yelp_api_v3&utm_medium=api_v3_business_search&utm_source=9VzDKP4DqSuZkRYYaMKPjA", "review_count": 8, "categories": [{"alias": "foodtrucks", "title": "Food Trucks"}, {"alias": "hotdogs", "title": "Fast Food"}, {"alias": "icecream", "title": "Ice Cream & Frozen Yogurt"}], "rating": 3.5, "coordinates": {"latitude": 41.4823463, "longitude": -71.3144135}, "transactions": ["delivery", "pickup"], "location": {"address1": "404 Thames St", "address2": "", "address3": null, "city": "Newport", "zip_code": "02840", "country": "US", "state": "RI", "display_address": ["404 Thames St", "Newport, RI 02840"]}, "phone": "+14012282660", "display_phone": "(401) 228-2660", "distance": 3282.1925795177444}, {"id": "gKU41rs0iaENjWyO6n8uBg", "alias": "one-bellevue-newport-2", "name": "One Bellevue", "image_url": "https://s3-media3.fl.yelpcdn.com/bphoto/x1ehKl-_fz40tz6FTsmIiQ/o.jpg", "is_closed": false, "url": "https://www.yelp.com/biz/one-bellevue-newport-2?adjust_creative=9VzDKP4DqSuZkRYYaMKPjA&utm_campaign=yelp_api_v3&utm_medium=api_v3_business_search&utm_source=9VzDKP4DqSuZkRYYaMKPjA", "review_count": 90, "categories": [{"alias": "newamerican", "title": "American (New)"}], "rating": 3.5, "coordinates": {"latitude": 41.487623, "longitude": -71.30981}, "transactions": ["delivery"], "price": "$$$", "location": {"address1": "1 Bellevue Ave", "address2": "", "address3": "The Hotel Viking", "city": "Newport", "zip_code": "02840", "country": "US", "state": "RI", "display_address": ["1 Bellevue Ave", "The Hotel Viking", "Newport, RI 02840"]}, "phone": "+14018484824", "display_phone": "(401) 848-4824", "distance": 2813.503180849659}, {"id": "o5fSv756958iF8oNEDmHTA", "alias": "la-petite-creperie-newport-3", "name": "La Petite Creperie", "image_url": "https://s3-media2.fl.yelpcdn.com/bphoto/1B0FBp-7q1jZkKB1kN0Wog/o.jpg", "is_closed": false, "url": "https://www.yelp.com/biz/la-petite-creperie-newport-3?adjust_creative=9VzDKP4DqSuZkRYYaMKPjA&utm_campaign=yelp_api_v3&utm_medium=api_v3_business_search&utm_source=9VzDKP4DqSuZkRYYaMKPjA", "review_count": 2, "categories": [{"alias": "creperies", "title": "Creperies"}], "rating": 3.5, "coordinates": {"latitude": 41.4867138, "longitude": -71.3164013}, "transactions": ["delivery", "pickup"], "location": {"address1": "36 Bowens Wharf", "address2": "", "address3": null, "city": "Newport", "zip_code": "02840", "country": "US", "state": "RI", "display_address": ["36 Bowens Wharf", "Newport, RI 02840"]}, "phone": "", "display_phone": "", "distance": 2772.714140723619}, {"id": "XYx3OX8N5XzvYnKQS9Vb_A", "alias": "narragansett-cafe-jamestown", "name": "Narragansett Cafe", "image_url": "https://s3-media2.fl.yelpcdn.com/bphoto/J7yN7oEbCoHcQ_7VzCVJWQ/o.jpg", "is_closed": false, "url": "https://www.yelp.com/biz/narragansett-cafe-jamestown?adjust_creative=9VzDKP4DqSuZkRYYaMKPjA&utm_campaign=yelp_api_v3&utm_medium=api_v3_business_search&utm_source=9VzDKP4DqSuZkRYYaMKPjA", "review_count": 56, "categories": [{"alias": "tradamerican", "title": "American (Traditional)"}], "rating": 3.0, "coordinates": {"latitude": 41.4961751, "longitude": -71.3690466}, "transactions": [], "price": "$$", "location": {"address1": "25 Narragansett Ave", "address2": "", "address3": "", "city": "Jamestown", "zip_code": "02835", "country": "US", "state": "RI", "display_address": ["25 Narragansett Ave", "Jamestown, RI 02835"]}, "phone": "+14014232150", "display_phone": "(401) 423-2150", "distance": 4317.987646204979}, {"id": "5Jx6Q72UMzKdPc2UgPAKMg", "alias": "the-reef-newport", "name": "The Reef", "image_url": "https://s3-media1.fl.yelpcdn.com/bphoto/pjAA2QKJKb1Ta_5dzZXTsw/o.jpg", "is_closed": false, "url": "https://www.yelp.com/biz/the-reef-newport?adjust_creative=9VzDKP4DqSuZkRYYaMKPjA&utm_campaign=yelp_api_v3&utm_medium=api_v3_business_search&utm_source=9VzDKP4DqSuZkRYYaMKPjA", "review_count": 53, "categories": [{"alias": "seafood", "title": "Seafood"}, {"alias": "bars", "title": "Bars"}, {"alias": "chicken_wings", "title": "Chicken Wings"}], "rating": 3.0, "coordinates": {"latitude": 41.48199, "longitude": -71.31471}, "transactions": ["delivery", "pickup"], "price": "$$", "location": {"address1": "10 Howard Wharf", "address2": null, "address3": "", "city": "Newport", "zip_code": "02840", "country": "US", "state": "RI", "display_address": ["10 Howard Wharf", "Newport, RI 02840"]}, "phone": "+14013245852", "display_phone": "(401) 324-5852", "distance": 3412.5277312345825}, {"id": "OB_GhcLJDXVL8_PJ0DjoRQ", "alias": "speakeasy-bar-and-grill-newport", "name": "SpeakEasy Bar & Grill", "image_url": "https://s3-media3.fl.yelpcdn.com/bphoto/k-c1sMx5U4822l5GQzQE8w/o.jpg", "is_closed": false, "url": "https://www.yelp.com/biz/speakeasy-bar-and-grill-newport?adjust_creative=9VzDKP4DqSuZkRYYaMKPjA&utm_campaign=yelp_api_v3&utm_medium=api_v3_business_search&utm_source=9VzDKP4DqSuZkRYYaMKPjA", "review_count": 178, "categories": [{"alias": "newamerican", "title": "American (New)"}, {"alias": "speakeasies", "title": "Speakeasies"}], "rating": 3.5, "coordinates": {"latitude": 41.48668, "longitude": -71.31468}, "transactions": ["delivery"], "price": "$$", "location": {"address1": "250 Thames St", "address2": "", "address3": "", "city": "Newport", "zip_code": "02840", "country": "US", "state": "RI", "display_address": ["250 Thames St", "Newport, RI 02840"]}, "phone": "+14018460514", "display_phone": "(401) 846-0514", "distance": 2802.1603378044433}, {"id": "29sRzJjFrSUk6UolNpz-IQ", "alias": "mizu-middletown", "name": "Mizu", "image_url": "https://s3-media3.fl.yelpcdn.com/bphoto/e83pBl7-mnc8I5k4M4Ac5g/o.jpg", "is_closed": false, "url": "https://www.yelp.com/biz/mizu-middletown?adjust_creative=9VzDKP4DqSuZkRYYaMKPjA&utm_campaign=yelp_api_v3&utm_medium=api_v3_business_search&utm_source=9VzDKP4DqSuZkRYYaMKPjA", "review_count": 100, "categories": [{"alias": "japanese", "title": "Japanese"}, {"alias": "sushi", "title": "Sushi Bars"}], "rating": 3.5, "coordinates": {"latitude": 41.519953, "longitude": -71.292475}, "transactions": ["delivery"], "price": "$$", "location": {"address1": "250 E Main Rd", "address2": "", "address3": "", "city": "Middletown", "zip_code": "02842", "country": "US", "state": "RI", "display_address": ["250 E Main Rd", "Middletown, RI 02842"]}, "phone": "+14018462008", "display_phone": "(401) 846-2008", "distance": 2585.6080454236476}, {"id": "2phkNWcakkw4mBTzHTvZIg", "alias": "the-conservatory-newport", "name": "The Conservatory", "image_url": "https://s3-media2.fl.yelpcdn.com/bphoto/T8Hbb-25RgpRbF7cn9Mcqg/o.jpg", "is_closed": false, "url": "https://www.yelp.com/biz/the-conservatory-newport?adjust_creative=9VzDKP4DqSuZkRYYaMKPjA&utm_campaign=yelp_api_v3&utm_medium=api_v3_business_search&utm_source=9VzDKP4DqSuZkRYYaMKPjA", "review_count": 10, "categories": [{"alias": "newamerican", "title": "American (New)"}], "rating": 4.0, "coordinates": {"latitude": 41.4882927, "longitude": -71.3138046}, "transactions": [], "price": "$$$", "location": {"address1": "41 Mary St", "address2": "", "address3": "", "city": "Newport", "zip_code": "02840", "country": "US", "state": "RI", "display_address": ["41 Mary St", "Newport, RI 02840"]}, "phone": "+14018466200", "display_phone": "(401) 846-6200", "distance": 2657.973911639706}, {"id": "SagL4_XoKL9EFC58eknfjw", "alias": "newport-tokyo-house-newport", "name": "Newport Tokyo House", "image_url": "https://s3-media2.fl.yelpcdn.com/bphoto/ZcDWiTI_SJPSG6IpmeKuSQ/o.jpg", "is_closed": false, "url": "https://www.yelp.com/biz/newport-tokyo-house-newport?adjust_creative=9VzDKP4DqSuZkRYYaMKPjA&utm_campaign=yelp_api_v3&utm_medium=api_v3_business_search&utm_source=9VzDKP4DqSuZkRYYaMKPjA", "review_count": 113, "categories": [{"alias": "japanese", "title": "Japanese"}, {"alias": "sushi", "title": "Sushi Bars"}], "rating": 3.5, "coordinates": {"latitude": 41.4944, "longitude": -71.30973}, "transactions": ["delivery"], "price": "$$", "location": {"address1": "6 Equality Park Pl", "address2": "", "address3": "", "city": "Newport", "zip_code": "02840", "country": "US", "state": "RI", "display_address": ["6 Equality Park Pl", "Newport, RI 02840"]}, "phone": "+14018478888", "display_phone": "(401) 847-8888", "distance": 2119.2321788742056}, {"id": "B0jDQpYhcD88XCuXXcUxZw", "alias": "mainsail-newport", "name": "MainSail", "image_url": "https://s3-media3.fl.yelpcdn.com/bphoto/X70Wzu_82i93VgLCnqX3Iw/o.jpg", "is_closed": false, "url": "https://www.yelp.com/biz/mainsail-newport?adjust_creative=9VzDKP4DqSuZkRYYaMKPjA&utm_campaign=yelp_api_v3&utm_medium=api_v3_business_search&utm_source=9VzDKP4DqSuZkRYYaMKPjA", "review_count": 19, "categories": [{"alias": "newamerican", "title": "American (New)"}], "rating": 3.0, "coordinates": {"latitude": 41.490104, "longitude": -71.318407}, "transactions": [], "price": "$$$", "location": {"address1": "Newport Marriott", "address2": "", "address3": "America's Cup Ave", "city": "Newport", "zip_code": "02840", "country": "US", "state": "RI", "display_address": ["Newport Marriott", "America's Cup Ave", "Newport, RI 02840"]}, "phone": "+14018497788", "display_phone": "(401) 849-7788", "distance": 2380.959717282038}, {"id": "wFVe6U8iudfKcjxutfR0Ug", "alias": "celtica-newport", "name": "Celtica", "image_url": "https://s3-media3.fl.yelpcdn.com/bphoto/6NTYVQArXE-UP9Ve__cJMA/o.jpg", "is_closed": false, "url": "https://www.yelp.com/biz/celtica-newport?adjust_creative=9VzDKP4DqSuZkRYYaMKPjA&utm_campaign=yelp_api_v3&utm_medium=api_v3_business_search&utm_source=9VzDKP4DqSuZkRYYaMKPjA", "review_count": 77, "categories": [{"alias": "pubs", "title": "Pubs"}, {"alias": "tradamerican", "title": "American (Traditional)"}], "rating": 3.5, "coordinates": {"latitude": 41.48968, "longitude": -71.31874}, "transactions": ["delivery"], "price": "$$", "location": {"address1": "95 Long Wharf", "address2": "", "address3": "", "city": "Newport", "zip_code": "02840", "country": "US", "state": "RI", "display_address": ["95 Long Wharf", "Newport, RI 02840"]}, "phone": "+14018474770", "display_phone": "(401) 847-4770", "distance": 2427.864672572142}, {"id": "ChOJ8NpUHQjrqlQ7_mdvEw", "alias": "china-star-ii-middletown", "name": "China Star II", "image_url": "https://s3-media2.fl.yelpcdn.com/bphoto/_bqtmOkaClHnT9RD5oaK1w/o.jpg", "is_closed": false, "url": "https://www.yelp.com/biz/china-star-ii-middletown?adjust_creative=9VzDKP4DqSuZkRYYaMKPjA&utm_campaign=yelp_api_v3&utm_medium=api_v3_business_search&utm_source=9VzDKP4DqSuZkRYYaMKPjA", "review_count": 25, "categories": [{"alias": "chinese", "title": "Chinese"}], "rating": 3.5, "coordinates": {"latitude": 41.52676, "longitude": -71.29664}, "transactions": ["delivery"], "price": "$$", "location": {"address1": "877 W Main Rd", "address2": "", "address3": "", "city": "Middletown", "zip_code": "02842", "country": "US", "state": "RI", "display_address": ["877 W Main Rd", "Middletown, RI 02842"]}, "phone": "+14018489370", "display_phone": "(401) 848-9370", "distance": 2648.7632394957213}, {"id": "U-O4KFsu4LLUfqMLuhDntQ", "alias": "sigs-place-middletown", "name": "Sig's Place", "image_url": "https://s3-media1.fl.yelpcdn.com/bphoto/-eqNCgC7IlavmiUuFwXZZQ/o.jpg", "is_closed": false, "url": "https://www.yelp.com/biz/sigs-place-middletown?adjust_creative=9VzDKP4DqSuZkRYYaMKPjA&utm_campaign=yelp_api_v3&utm_medium=api_v3_business_search&utm_source=9VzDKP4DqSuZkRYYaMKPjA", "review_count": 34, "categories": [{"alias": "pizza", "title": "Pizza"}, {"alias": "salad", "title": "Salad"}, {"alias": "sandwiches", "title": "Sandwiches"}], "rating": 4.0, "coordinates": {"latitude": 41.519479, "longitude": -71.283354}, "transactions": ["delivery"], "price": "$", "location": {"address1": "1151 Aquidneck Ave", "address2": null, "address3": "", "city": "Middletown", "zip_code": "02842", "country": "US", "state": "RI", "display_address": ["1151 Aquidneck Ave", "Middletown, RI 02842"]}, "phone": "+14018473500", "display_phone": "(401) 847-3500", "distance": 3288.8674409216283}, {"id": "20F_jBjE6eRqfIfGbGvJuQ", "alias": "applebees-grill-bar-middletown-4", "name": "Applebee's Grill + Bar", "image_url": "https://s3-media2.fl.yelpcdn.com/bphoto/wkQf1tl_rghpL3vTrIUSkA/o.jpg", "is_closed": false, "url": "https://www.yelp.com/biz/applebees-grill-bar-middletown-4?adjust_creative=9VzDKP4DqSuZkRYYaMKPjA&utm_campaign=yelp_api_v3&utm_medium=api_v3_business_search&utm_source=9VzDKP4DqSuZkRYYaMKPjA", "review_count": 51, "categories": [{"alias": "tradamerican", "title": "American (Traditional)"}, {"alias": "sportsbars", "title": "Sports Bars"}, {"alias": "burgers", "title": "Burgers"}], "rating": 2.0, "coordinates": {"latitude": 41.514877, "longitude": -71.300768}, "transactions": [], "price": "$$", "location": {"address1": "349 West Main Rd", "address2": "", "address3": "", "city": "Middletown", "zip_code": "02842", "country": "US", "state": "RI", "display_address": ["349 West Main Rd", "Middletown, RI 02842"]}, "phone": "+14018495676", "display_phone": "(401) 849-5676", "distance": 1757.04942466616}, {"id": "NPwDNFs9dPp10TgLAurk6A", "alias": "12-metre-cafe-newport", "name": "12 Metre Cafe", "image_url": "https://s3-media2.fl.yelpcdn.com/bphoto/Aev8hoLrSsYYIAvKadsnqA/o.jpg", "is_closed": false, "url": "https://www.yelp.com/biz/12-metre-cafe-newport?adjust_creative=9VzDKP4DqSuZkRYYaMKPjA&utm_campaign=yelp_api_v3&utm_medium=api_v3_business_search&utm_source=9VzDKP4DqSuZkRYYaMKPjA", "review_count": 1, "categories": [{"alias": "breakfast_brunch", "title": "Breakfast & Brunch"}, {"alias": "wraps", "title": "Wraps"}, {"alias": "sandwiches", "title": "Sandwiches"}], "rating": 5.0, "coordinates": {"latitude": 41.486829, "longitude": -71.315793}, "transactions": ["delivery"], "location": {"address1": "18 Market Square", "address2": null, "address3": "", "city": "Newport", "zip_code": "02840", "country": "US", "state": "RI", "display_address": ["18 Market Square", "Newport, RI 02840"]}, "phone": "+14013245720", "display_phone": "(401) 324-5720", "distance": 2771.7411257417134}, {"id": "ut8EqgH78gwVgJ-xnJZdBQ", "alias": "the-fastnet-pub-newport", "name": "The Fastnet Pub", "image_url": "https://s3-media1.fl.yelpcdn.com/bphoto/YAwO_V58PwM8LO5y29IsaA/o.jpg", "is_closed": false, "url": "https://www.yelp.com/biz/the-fastnet-pub-newport?adjust_creative=9VzDKP4DqSuZkRYYaMKPjA&utm_campaign=yelp_api_v3&utm_medium=api_v3_business_search&utm_source=9VzDKP4DqSuZkRYYaMKPjA", "review_count": 162, "categories": [{"alias": "pubs", "title": "Pubs"}, {"alias": "irish", "title": "Irish"}], "rating": 3.5, "coordinates": {"latitude": 41.4905621, "longitude": -71.312892}, "transactions": ["delivery"], "price": "$$", "location": {"address1": "1 Broadway", "address2": "", "address3": "", "city": "Newport", "zip_code": "02840", "country": "US", "state": "RI", "display_address": ["1 Broadway", "Newport, RI 02840"]}, "phone": "+14018459311", "display_phone": "(401) 845-9311", "distance": 2423.6496654410594}, {"id": "4g8sptXJ3uwZx2BeaIP40A", "alias": "the-power-of-juice-newport-2", "name": "The Power of Juice", "image_url": "https://s3-media4.fl.yelpcdn.com/bphoto/f6cHInJglQ8_LxPXaMWeSw/o.jpg", "is_closed": false, "url": "https://www.yelp.com/biz/the-power-of-juice-newport-2?adjust_creative=9VzDKP4DqSuZkRYYaMKPjA&utm_campaign=yelp_api_v3&utm_medium=api_v3_business_search&utm_source=9VzDKP4DqSuZkRYYaMKPjA", "review_count": 1, "categories": [{"alias": "vegan", "title": "Vegan"}, {"alias": "gourmet", "title": "Specialty Food"}], "rating": 2.0, "coordinates": {"latitude": 41.48323, "longitude": -71.3067}, "transactions": [], "location": {"address1": "13 Memorial Blvd", "address2": null, "address3": "", "city": "Newport", "zip_code": "02840", "country": "US", "state": "RI", "display_address": ["13 Memorial Blvd", "Newport, RI 02840"]}, "phone": "+14016198338", "display_phone": "(401) 619-8338", "distance": 3362.899734910169}, {"id": "GE1gJakNBNDS6Dxe481Ukg", "alias": "plumbys-upstairs-burger-bar-newport", "name": "Plumby's Upstairs Burger Bar", "image_url": "https://s3-media1.fl.yelpcdn.com/bphoto/Sp0s_WXfiNArCgzRUvBbzQ/o.jpg", "is_closed": false, "url": "https://www.yelp.com/biz/plumbys-upstairs-burger-bar-newport?adjust_creative=9VzDKP4DqSuZkRYYaMKPjA&utm_campaign=yelp_api_v3&utm_medium=api_v3_business_search&utm_source=9VzDKP4DqSuZkRYYaMKPjA", "review_count": 5, "categories": [{"alias": "burgers", "title": "Burgers"}, {"alias": "beerbar", "title": "Beer Bar"}], "rating": 4.0, "coordinates": {"latitude": 41.4893265647898, "longitude": -71.3151379016611}, "transactions": [], "location": {"address1": "140 Thames St", "address2": "", "address3": null, "city": "Newport", "zip_code": "02840", "country": "US", "state": "RI", "display_address": ["140 Thames St", "Newport, RI 02840"]}, "phone": "+14018496334", "display_phone": "(401) 849-6334", "distance": 2503.2154946362393}, {"id": "No4vdeWBMspReLY76oNZSw", "alias": "ihop-middletown", "name": "IHOP", "image_url": "https://s3-media4.fl.yelpcdn.com/bphoto/KgQ0ev48QO8ZEBQ80LkZNQ/o.jpg", "is_closed": false, "url": "https://www.yelp.com/biz/ihop-middletown?adjust_creative=9VzDKP4DqSuZkRYYaMKPjA&utm_campaign=yelp_api_v3&utm_medium=api_v3_business_search&utm_source=9VzDKP4DqSuZkRYYaMKPjA", "review_count": 42, "categories": [{"alias": "breakfast_brunch", "title": "Breakfast & Brunch"}, {"alias": "tradamerican", "title": "American (Traditional)"}, {"alias": "burgers", "title": "Burgers"}], "rating": 3.0, "coordinates": {"latitude": 41.51005, "longitude": -71.30162}, "transactions": [], "price": "$", "location": {"address1": "159 W Main Rd", "address2": "", "address3": "", "city": "Middletown", "zip_code": "02842", "country": "US", "state": "RI", "display_address": ["159 W Main Rd", "Middletown, RI 02842"]}, "phone": "+14018479818", "display_phone": "(401) 847-9818", "distance": 1650.0351695967686}, {"id": "J67YKkNdyq3-r1mhmU7Npg", "alias": "genies-hookah-lounge-newport", "name": "Genie's Hookah Lounge", "image_url": "https://s3-media3.fl.yelpcdn.com/bphoto/ClaH80Lym62oJd3NQ9kEfQ/o.jpg", "is_closed": false, "url": "https://www.yelp.com/biz/genies-hookah-lounge-newport?adjust_creative=9VzDKP4DqSuZkRYYaMKPjA&utm_campaign=yelp_api_v3&utm_medium=api_v3_business_search&utm_source=9VzDKP4DqSuZkRYYaMKPjA", "review_count": 60, "categories": [{"alias": "hookah_bars", "title": "Hookah Bars"}, {"alias": "mideastern", "title": "Middle Eastern"}, {"alias": "lounges", "title": "Lounges"}], "rating": 4.0, "coordinates": {"latitude": 41.48358, "longitude": -71.30941}, "transactions": ["delivery"], "price": "$$", "location": {"address1": "94 William St", "address2": null, "address3": "", "city": "Newport", "zip_code": "02840", "country": "US", "state": "RI", "display_address": ["94 William St", "Newport, RI 02840"]}, "phone": "+14016193770", "display_phone": "(401) 619-3770", "distance": 3251.2033017845224}, {"id": "lMFBqzd_5dbO_XEinPidiw", "alias": "ming-moon-chinese-restaurant-middletown", "name": "Ming Moon Chinese Restaurant", "image_url": "https://s3-media4.fl.yelpcdn.com/bphoto/WiqsFh4uSmeFsXt2PMuyDg/o.jpg", "is_closed": false, "url": "https://www.yelp.com/biz/ming-moon-chinese-restaurant-middletown?adjust_creative=9VzDKP4DqSuZkRYYaMKPjA&utm_campaign=yelp_api_v3&utm_medium=api_v3_business_search&utm_source=9VzDKP4DqSuZkRYYaMKPjA", "review_count": 29, "categories": [{"alias": "chinese", "title": "Chinese"}], "rating": 3.0, "coordinates": {"latitude": 41.506542, "longitude": -71.282433}, "transactions": ["delivery"], "price": "$", "location": {"address1": "694 Aquidneck Ave", "address2": "", "address3": "", "city": "Middletown", "zip_code": "02842", "country": "US", "state": "RI", "display_address": ["694 Aquidneck Ave", "Middletown, RI 02842"]}, "phone": "+14018485111", "display_phone": "(401) 848-5111", "distance": 3243.2581231813538}, {"id": "p5DxhoOLmHPEAnVtD4up4A", "alias": "provencal-bakery-and-cafe-middletown", "name": "Provencal Bakery and Cafe", "image_url": "https://s3-media1.fl.yelpcdn.com/bphoto/jTVfQQzVmVvOlr8XZDrqsA/o.jpg", "is_closed": false, "url": "https://www.yelp.com/biz/provencal-bakery-and-cafe-middletown?adjust_creative=9VzDKP4DqSuZkRYYaMKPjA&utm_campaign=yelp_api_v3&utm_medium=api_v3_business_search&utm_source=9VzDKP4DqSuZkRYYaMKPjA", "review_count": 44, "categories": [{"alias": "bakeries", "title": "Bakeries"}, {"alias": "breakfast_brunch", "title": "Breakfast & Brunch"}], "rating": 3.0, "coordinates": {"latitude": 41.50843, "longitude": -71.28315}, "transactions": ["delivery"], "price": "$", "location": {"address1": "750 Aquidneck Ave", "address2": "", "address3": "", "city": "Middletown", "zip_code": "02842", "country": "US", "state": "RI", "display_address": ["750 Aquidneck Ave", "Middletown, RI 02842"]}, "phone": "+14018459313", "display_phone": "(401) 845-9313", "distance": 3198.2585983094514}, {"id": "AbaUbOE9TlmmO5sg1lIggA", "alias": "noreys-newport", "name": "Norey's", "image_url": "https://s3-media3.fl.yelpcdn.com/bphoto/GFDduX7fu6UzhxQgLBvMNg/o.jpg", "is_closed": false, "url": "https://www.yelp.com/biz/noreys-newport?adjust_creative=9VzDKP4DqSuZkRYYaMKPjA&utm_campaign=yelp_api_v3&utm_medium=api_v3_business_search&utm_source=9VzDKP4DqSuZkRYYaMKPjA", "review_count": 147, "categories": [{"alias": "bars", "title": "Bars"}, {"alias": "tradamerican", "title": "American (Traditional)"}, {"alias": "desserts", "title": "Desserts"}], "rating": 3.5, "coordinates": {"latitude": 41.49381, "longitude": -71.3097}, "transactions": ["delivery"], "price": "$$", "location": {"address1": "156 Broadway", "address2": "", "address3": "", "city": "Newport", "zip_code": "02840", "country": "US", "state": "RI", "display_address": ["156 Broadway", "Newport, RI 02840"]}, "phone": "+14018474971", "display_phone": "(401) 847-4971", "distance": 2179.45027771941}, {"id": "H_ws72CATu63ofAczeY6kA", "alias": "mama-leones-pizzeria-newport", "name": "Mama Leone's Pizzeria", "image_url": "https://s3-media3.fl.yelpcdn.com/bphoto/WCUwWWZLsdbJYSHtEZ7bYA/o.jpg", "is_closed": false, "url": "https://www.yelp.com/biz/mama-leones-pizzeria-newport?adjust_creative=9VzDKP4DqSuZkRYYaMKPjA&utm_campaign=yelp_api_v3&utm_medium=api_v3_business_search&utm_source=9VzDKP4DqSuZkRYYaMKPjA", "review_count": 39, "categories": [{"alias": "pizza", "title": "Pizza"}, {"alias": "salad", "title": "Salad"}, {"alias": "burgers", "title": "Burgers"}], "rating": 3.0, "coordinates": {"latitude": 41.4813574, "longitude": -71.3083751}, "transactions": ["delivery"], "price": "$", "location": {"address1": "266 Bellevue Ave", "address2": null, "address3": "", "city": "Newport", "zip_code": "02840", "country": "US", "state": "RI", "display_address": ["266 Bellevue Ave", "Newport, RI 02840"]}, "phone": "+14018477272", "display_phone": "(401) 847-7272", "distance": 3586.372613477443}, {"id": "MFVVppKtSXtob-Ukq6_yMA", "alias": "aquidneck-pizzeria-and-bar-middletown", "name": "Aquidneck Pizzeria & Bar", "image_url": "https://s3-media2.fl.yelpcdn.com/bphoto/ouvsvx5eAXeQ2sutrDC53g/o.jpg", "is_closed": false, "url": "https://www.yelp.com/biz/aquidneck-pizzeria-and-bar-middletown?adjust_creative=9VzDKP4DqSuZkRYYaMKPjA&utm_campaign=yelp_api_v3&utm_medium=api_v3_business_search&utm_source=9VzDKP4DqSuZkRYYaMKPjA", "review_count": 80, "categories": [{"alias": "pizza", "title": "Pizza"}, {"alias": "italian", "title": "Italian"}, {"alias": "bars", "title": "Bars"}], "rating": 3.5, "coordinates": {"latitude": 41.49018, "longitude": -71.28395}, "transactions": ["delivery"], "price": "$$", "location": {"address1": "27 Aquidneck Ave", "address2": "", "address3": "", "city": "Middletown", "zip_code": "02842", "country": "US", "state": "RI", "display_address": ["27 Aquidneck Ave", "Middletown, RI 02842"]}, "phone": "+14018493356", "display_phone": "(401) 849-3356", "distance": 3916.841636423462}, {"id": "vPVxtm0SFaetQVgDuft5Lg", "alias": "chelseas-middletown", "name": "Chelsea's", "image_url": "https://s3-media3.fl.yelpcdn.com/bphoto/JPKFZR95fh9y5OroCDwcYg/o.jpg", "is_closed": false, "url": "https://www.yelp.com/biz/chelseas-middletown?adjust_creative=9VzDKP4DqSuZkRYYaMKPjA&utm_campaign=yelp_api_v3&utm_medium=api_v3_business_search&utm_source=9VzDKP4DqSuZkRYYaMKPjA", "review_count": 52, "categories": [{"alias": "breakfast_brunch", "title": "Breakfast & Brunch"}], "rating": 4.0, "coordinates": {"latitude": 41.51472, "longitude": -71.28262}, "transactions": [], "price": "$", "location": {"address1": "1015 Aquidneck Ave", "address2": "", "address3": "", "city": "Middletown", "zip_code": "02842", "country": "US", "state": "RI", "display_address": ["1015 Aquidneck Ave", "Middletown, RI 02842"]}, "phone": "+14018462770", "display_phone": "(401) 846-2770", "distance": 3267.86110016319}, {"id": "3hMghq1LhunUmpl6wLzM1g", "alias": "bagel-boys-middletown", "name": "Bagel Boys", "image_url": "https://s3-media3.fl.yelpcdn.com/bphoto/nx3Y39vqVZYFENr2PRK74Q/o.jpg", "is_closed": false, "url": "https://www.yelp.com/biz/bagel-boys-middletown?adjust_creative=9VzDKP4DqSuZkRYYaMKPjA&utm_campaign=yelp_api_v3&utm_medium=api_v3_business_search&utm_source=9VzDKP4DqSuZkRYYaMKPjA", "review_count": 35, "categories": [{"alias": "bagels", "title": "Bagels"}, {"alias": "breakfast_brunch", "title": "Breakfast & Brunch"}], "rating": 3.0, "coordinates": {"latitude": 41.50811, "longitude": -71.28243}, "transactions": [], "price": "$", "location": {"address1": "747 Aquidneck Ave", "address2": "", "address3": "", "city": "Middletown", "zip_code": "02842", "country": "US", "state": "RI", "display_address": ["747 Aquidneck Ave", "Middletown, RI 02842"]}, "phone": "+14018415514", "display_phone": "(401) 841-5514", "distance": 3302.6476989906}, {"id": "YAprxshr9KOOFWCBBz4hXA", "alias": "the-pineapple-club-newport", "name": "The Pineapple Club", "image_url": "https://s3-media3.fl.yelpcdn.com/bphoto/zaMBmgXVq3_a3qhaKnA-zA/o.jpg", "is_closed": false, "url": "https://www.yelp.com/biz/the-pineapple-club-newport?adjust_creative=9VzDKP4DqSuZkRYYaMKPjA&utm_campaign=yelp_api_v3&utm_medium=api_v3_business_search&utm_source=9VzDKP4DqSuZkRYYaMKPjA", "review_count": 10, "categories": [{"alias": "newamerican", "title": "American (New)"}, {"alias": "bars", "title": "Bars"}], "rating": 3.0, "coordinates": {"latitude": 41.491704, "longitude": -71.327748}, "transactions": [], "location": {"address1": "1 Goat Island", "address2": null, "address3": null, "city": "Newport", "zip_code": "02840", "country": "US", "state": "RI", "display_address": ["1 Goat Island", "Newport, RI 02840"]}, "phone": "+14018492600", "display_phone": "(401) 849-2600", "distance": 2254.1619849129106}, {"id": "CdVCqgu55I9tb4H0Sda0Cg", "alias": "chipotle-mexican-grill-middletown-2", "name": "Chipotle Mexican Grill", "image_url": "https://s3-media2.fl.yelpcdn.com/bphoto/drzHZYS20ZnSdLHKXtHUZg/o.jpg", "is_closed": false, "url": "https://www.yelp.com/biz/chipotle-mexican-grill-middletown-2?adjust_creative=9VzDKP4DqSuZkRYYaMKPjA&utm_campaign=yelp_api_v3&utm_medium=api_v3_business_search&utm_source=9VzDKP4DqSuZkRYYaMKPjA", "review_count": 31, "categories": [{"alias": "mexican", "title": "Mexican"}, {"alias": "hotdogs", "title": "Fast Food"}], "rating": 2.5, "coordinates": {"latitude": 41.5165442507642, "longitude": -71.2992672191726}, "transactions": ["delivery"], "price": "$", "location": {"address1": "11 E Main Rd", "address2": "", "address3": "", "city": "Middletown", "zip_code": "02842", "country": "US", "state": "RI", "display_address": ["11 E Main Rd", "Middletown, RI 02842"]}, "phone": "+14018471517", "display_phone": "(401) 847-1517", "distance": 1925.8099580145279}, {"id": "ztW1miRnHNex00y0XVHwWA", "alias": "buskers-newport", "name": "Buskers", "image_url": "https://s3-media1.fl.yelpcdn.com/bphoto/f36BapsHsWe91jrPvTVBlA/o.jpg", "is_closed": false, "url": "https://www.yelp.com/biz/buskers-newport?adjust_creative=9VzDKP4DqSuZkRYYaMKPjA&utm_campaign=yelp_api_v3&utm_medium=api_v3_business_search&utm_source=9VzDKP4DqSuZkRYYaMKPjA", "review_count": 245, "categories": [{"alias": "irish", "title": "Irish"}, {"alias": "pubs", "title": "Pubs"}], "rating": 3.5, "coordinates": {"latitude": 41.48844, "longitude": -71.3149}, "transactions": ["delivery"], "price": "$$", "location": {"address1": "178 Thames St", "address2": "", "address3": "", "city": "Newport", "zip_code": "02840", "country": "US", "state": "RI", "display_address": ["178 Thames St", "Newport, RI 02840"]}, "phone": "+14018465856", "display_phone": "(401) 846-5856", "distance": 2606.371222650932}, {"id": "z7c37htJDTAL4iPZL5gvNw", "alias": "j22-tap-and-table-jamestown-4", "name": "J22 Tap & Table", "image_url": "https://s3-media4.fl.yelpcdn.com/bphoto/zWBg59w_3xQf6E4caEwRtA/o.jpg", "is_closed": false, "url": "https://www.yelp.com/biz/j22-tap-and-table-jamestown-4?adjust_creative=9VzDKP4DqSuZkRYYaMKPjA&utm_campaign=yelp_api_v3&utm_medium=api_v3_business_search&utm_source=9VzDKP4DqSuZkRYYaMKPjA", "review_count": 49, "categories": [{"alias": "bars", "title": "Bars"}, {"alias": "newamerican", "title": "American (New)"}, {"alias": "seafood", "title": "Seafood"}], "rating": 3.5, "coordinates": {"latitude": 41.4963617920876, "longitude": -71.368902772665}, "transactions": [], "price": "$$", "location": {"address1": "22 Narragansett Ave", "address2": "", "address3": "", "city": "Jamestown", "zip_code": "02835", "country": "US", "state": "RI", "display_address": ["22 Narragansett Ave", "Jamestown, RI 02835"]}, "phone": "+14014233709", "display_phone": "(401) 423-3709", "distance": 4288.055822419499}, {"id": "Me8P2AkEC5IOjfExn7mBQA", "alias": "newport-wine-cellar-and-gourmet-newport-3", "name": "Newport Wine Cellar & Gourmet", "image_url": "https://s3-media2.fl.yelpcdn.com/bphoto/mmo3137BLN3cV0XqIeSnOA/o.jpg", "is_closed": false, "url": "https://www.yelp.com/biz/newport-wine-cellar-and-gourmet-newport-3?adjust_creative=9VzDKP4DqSuZkRYYaMKPjA&utm_campaign=yelp_api_v3&utm_medium=api_v3_business_search&utm_source=9VzDKP4DqSuZkRYYaMKPjA", "review_count": 22, "categories": [{"alias": "cafes", "title": "Cafes"}, {"alias": "beer_and_wine", "title": "Beer, Wine & Spirits"}], "rating": 4.0, "coordinates": {"latitude": 41.48334, "longitude": -71.30745}, "transactions": ["delivery", "pickup"], "price": "$$", "location": {"address1": "11-13 Memorial Blvd", "address2": "", "address3": "", "city": "Newport", "zip_code": "02840", "country": "US", "state": "RI", "display_address": ["11-13 Memorial Blvd", "Newport, RI 02840"]}, "phone": "+14016193966", "display_phone": "(401) 619-3966", "distance": 3347.7307732568124}, {"id": "SVmZNPi5PxbiD8FdT_GlYQ", "alias": "east-ferry-market-and-deli-jamestown", "name": "East Ferry Market & Deli", "image_url": "https://s3-media4.fl.yelpcdn.com/bphoto/AxhGjZF2CQh05TcfyBpVGA/o.jpg", "is_closed": false, "url": "https://www.yelp.com/biz/east-ferry-market-and-deli-jamestown?adjust_creative=9VzDKP4DqSuZkRYYaMKPjA&utm_campaign=yelp_api_v3&utm_medium=api_v3_business_search&utm_source=9VzDKP4DqSuZkRYYaMKPjA", "review_count": 55, "categories": [{"alias": "delis", "title": "Delis"}], "rating": 3.5, "coordinates": {"latitude": 41.4961513, "longitude": -71.3673644}, "transactions": [], "price": "$", "location": {"address1": "47 Conanicus Ave", "address2": "", "address3": "", "city": "Jamestown", "zip_code": "02835", "country": "US", "state": "RI", "display_address": ["47 Conanicus Ave", "Jamestown, RI 02835"]}, "phone": "+14014231592", "display_phone": "(401) 423-1592", "distance": 4197.659417478306}, {"id": "rI-gBOlSv6-D8FE7e-nyxA", "alias": "tin-can-crab-shake-newport-2", "name": "Tin Can Crab Shake", "image_url": "https://s3-media1.fl.yelpcdn.com/bphoto/-CmnUzLw3Bm5i19ldM_ewg/o.jpg", "is_closed": false, "url": "https://www.yelp.com/biz/tin-can-crab-shake-newport-2?adjust_creative=9VzDKP4DqSuZkRYYaMKPjA&utm_campaign=yelp_api_v3&utm_medium=api_v3_business_search&utm_source=9VzDKP4DqSuZkRYYaMKPjA", "review_count": 24, "categories": [{"alias": "seafood", "title": "Seafood"}, {"alias": "cajun", "title": "Cajun/Creole"}], "rating": 4.0, "coordinates": {"latitude": 41.480228, "longitude": -71.314149}, "transactions": [], "location": {"address1": "472 Thames St", "address2": null, "address3": "", "city": "Newport", "zip_code": "02840", "country": "US", "state": "RI", "display_address": ["472 Thames St", "Newport, RI 02840"]}, "phone": "+14016082300", "display_phone": "(401) 608-2300", "distance": 3524.288219214187}, {"id": "Nq9-f9fBBEPXzUTERfA6cA", "alias": "dominos-pizza-middletown", "name": "Domino's Pizza", "image_url": "https://s3-media2.fl.yelpcdn.com/bphoto/PJnlNE-OZTHjmqn70vU7KQ/o.jpg", "is_closed": false, "url": "https://www.yelp.com/biz/dominos-pizza-middletown?adjust_creative=9VzDKP4DqSuZkRYYaMKPjA&utm_campaign=yelp_api_v3&utm_medium=api_v3_business_search&utm_source=9VzDKP4DqSuZkRYYaMKPjA", "review_count": 38, "categories": [{"alias": "pizza", "title": "Pizza"}, {"alias": "chicken_wings", "title": "Chicken Wings"}, {"alias": "sandwiches", "title": "Sandwiches"}], "rating": 3.0, "coordinates": {"latitude": 41.50635, "longitude": -71.30135}, "transactions": [], "price": "$", "location": {"address1": "19 W Main Rd", "address2": "", "address3": "", "city": "Middletown", "zip_code": "02842", "country": "US", "state": "RI", "display_address": ["19 W Main Rd", "Middletown, RI 02842"]}, "phone": "+14018496940", "display_phone": "(401) 849-6940", "distance": 1780.1787091861454}, {"id": "zbRtoyEA3o0ObnadXeLz9w", "alias": "a-1-pizza-newport", "name": "A-1 Pizza", "image_url": "https://s3-media1.fl.yelpcdn.com/bphoto/b792kMV_tGl6X5fMtRRjYQ/o.jpg", "is_closed": false, "url": "https://www.yelp.com/biz/a-1-pizza-newport?adjust_creative=9VzDKP4DqSuZkRYYaMKPjA&utm_campaign=yelp_api_v3&utm_medium=api_v3_business_search&utm_source=9VzDKP4DqSuZkRYYaMKPjA", "review_count": 66, "categories": [{"alias": "pizza", "title": "Pizza"}], "rating": 3.0, "coordinates": {"latitude": 41.4984495, "longitude": -71.3074474}, "transactions": ["delivery"], "price": "$$", "location": {"address1": "306 Broadway", "address2": "", "address3": "", "city": "Newport", "zip_code": "02840", "country": "US", "state": "RI", "display_address": ["306 Broadway", "Newport, RI 02840"]}, "phone": "+14018492213", "display_phone": "(401) 849-2213", "distance": 1848.1178177812524}, {"id": "dPp6cFibbvz0t7o04F8bTQ", "alias": "d-angelo-sandwich-shop-middletown", "name": "D'angelo Sandwich Shop", "image_url": "https://s3-media3.fl.yelpcdn.com/bphoto/ZuKb0gAwSUaoflqQGgYnYw/o.jpg", "is_closed": false, "url": "https://www.yelp.com/biz/d-angelo-sandwich-shop-middletown?adjust_creative=9VzDKP4DqSuZkRYYaMKPjA&utm_campaign=yelp_api_v3&utm_medium=api_v3_business_search&utm_source=9VzDKP4DqSuZkRYYaMKPjA", "review_count": 23, "categories": [{"alias": "sandwiches", "title": "Sandwiches"}], "rating": 3.0, "coordinates": {"latitude": 41.518109, "longitude": -71.300046}, "transactions": ["delivery"], "price": "$$", "location": {"address1": "553 W Main Rd", "address2": "", "address3": "", "city": "Middletown", "zip_code": "02842", "country": "US", "state": "RI", "display_address": ["553 W Main Rd", "Middletown, RI 02842"]}, "phone": "+14018491120", "display_phone": "(401) 849-1120", "distance": 1918.8065753666456}, {"id": "DEmTCwCHJvfkmIZaTHE_1Q", "alias": "chopmist-charlies-jamestown", "name": "Chopmist Charlie's", "image_url": "https://s3-media3.fl.yelpcdn.com/bphoto/U-TDozuPTophGQJazgGUlQ/o.jpg", "is_closed": false, "url": "https://www.yelp.com/biz/chopmist-charlies-jamestown?adjust_creative=9VzDKP4DqSuZkRYYaMKPjA&utm_campaign=yelp_api_v3&utm_medium=api_v3_business_search&utm_source=9VzDKP4DqSuZkRYYaMKPjA", "review_count": 94, "categories": [{"alias": "seafood", "title": "Seafood"}, {"alias": "bars", "title": "Bars"}, {"alias": "bbq", "title": "Barbeque"}], "rating": 3.5, "coordinates": {"latitude": 41.49639, "longitude": -71.37025}, "transactions": [], "price": "$$", "location": {"address1": "40 Narragansett Ave", "address2": "", "address3": "", "city": "Jamestown", "zip_code": "02835", "country": "US", "state": "RI", "display_address": ["40 Narragansett Ave", "Jamestown, RI 02835"]}, "phone": "+14014231020", "display_phone": "(401) 423-1020", "distance": 4398.249047783082}, {"id": "Op2m6tIxzOP1pXKW5UUNew", "alias": "i-m-sushi-newport", "name": "I M Sushi", "image_url": "https://s3-media4.fl.yelpcdn.com/bphoto/99YM2z_I-CH2wF-QwcNPMQ/o.jpg", "is_closed": false, "url": "https://www.yelp.com/biz/i-m-sushi-newport?adjust_creative=9VzDKP4DqSuZkRYYaMKPjA&utm_campaign=yelp_api_v3&utm_medium=api_v3_business_search&utm_source=9VzDKP4DqSuZkRYYaMKPjA", "review_count": 76, "categories": [{"alias": "sushi", "title": "Sushi Bars"}], "rating": 3.5, "coordinates": {"latitude": 41.4814564, "longitude": -71.3083751}, "transactions": ["delivery", "pickup"], "price": "$$", "location": {"address1": "258 Bellevue Ave", "address2": "", "address3": null, "city": "Newport", "zip_code": "02840", "country": "US", "state": "RI", "display_address": ["258 Bellevue Ave", "Newport, RI 02840"]}, "phone": "+14018411633", "display_phone": "(401) 841-1633", "distance": 3564.1242888819934}, {"id": "lnxzu-oZ7tw87lN0hO0zhQ", "alias": "burger-king-middletown-7", "name": "Burger King", "image_url": "https://s3-media4.fl.yelpcdn.com/bphoto/FEJZsxMHZsgKGFKOYKmbJw/o.jpg", "is_closed": false, "url": "https://www.yelp.com/biz/burger-king-middletown-7?adjust_creative=9VzDKP4DqSuZkRYYaMKPjA&utm_campaign=yelp_api_v3&utm_medium=api_v3_business_search&utm_source=9VzDKP4DqSuZkRYYaMKPjA", "review_count": 13, "categories": [{"alias": "burgers", "title": "Burgers"}, {"alias": "hotdogs", "title": "Fast Food"}], "rating": 2.5, "coordinates": {"latitude": 41.518613, "longitude": -71.299521}, "transactions": [], "price": "$", "location": {"address1": "569 West Main Rd", "address2": "", "address3": "", "city": "Middletown", "zip_code": "02842", "country": "US", "state": "RI", "display_address": ["569 West Main Rd", "Middletown, RI 02842"]}, "phone": "+14018480959", "display_phone": "(401) 848-0959", "distance": 1990.9389267095944}, {"id": "bd6nHC9FbOFc_nrtD2c0Nw", "alias": "marina-caf\u00e9-and-pub-newport-2", "name": "Marina Caf\u00e9 & Pub", "image_url": "https://s3-media2.fl.yelpcdn.com/bphoto/X-m5kOG-sdR78_8dSxIIPw/o.jpg", "is_closed": false, "url": "https://www.yelp.com/biz/marina-caf%C3%A9-and-pub-newport-2?adjust_creative=9VzDKP4DqSuZkRYYaMKPjA&utm_campaign=yelp_api_v3&utm_medium=api_v3_business_search&utm_source=9VzDKP4DqSuZkRYYaMKPjA", "review_count": 63, "categories": [{"alias": "seafood", "title": "Seafood"}, {"alias": "pubs", "title": "Pubs"}, {"alias": "tradamerican", "title": "American (Traditional)"}], "rating": 3.5, "coordinates": {"latitude": 41.487656, "longitude": -71.326603}, "transactions": ["delivery"], "price": "$$", "location": {"address1": "3 Marina Plz", "address2": "", "address3": "", "city": "Newport", "zip_code": "02840", "country": "US", "state": "RI", "display_address": ["3 Marina Plz", "Newport, RI 02840"]}, "phone": "+14018490003", "display_phone": "(401) 849-0003", "distance": 2676.4242681069}, {"id": "tdVeSAeHvFc-gcJE2Z3KdA", "alias": "scottys-big-dawgs-pub-middletown", "name": "Scotty's Big Dawg's Pub", "image_url": "https://s3-media3.fl.yelpcdn.com/bphoto/1Cr7QtGWxcN26olVeI7_4w/o.jpg", "is_closed": false, "url": "https://www.yelp.com/biz/scottys-big-dawgs-pub-middletown?adjust_creative=9VzDKP4DqSuZkRYYaMKPjA&utm_campaign=yelp_api_v3&utm_medium=api_v3_business_search&utm_source=9VzDKP4DqSuZkRYYaMKPjA", "review_count": 14, "categories": [{"alias": "hotdog", "title": "Hot Dogs"}, {"alias": "burgers", "title": "Burgers"}, {"alias": "pubs", "title": "Pubs"}], "rating": 3.0, "coordinates": {"latitude": 41.5252, "longitude": -71.2975}, "transactions": ["delivery"], "price": "$$", "location": {"address1": "823 W Main Rd", "address2": null, "address3": null, "city": "Middletown", "zip_code": "02842", "country": "US", "state": "RI", "display_address": ["823 W Main Rd", "Middletown, RI 02842"]}, "phone": "+14018496500", "display_phone": "(401) 849-6500", "distance": 2540.127600235116}, {"id": "VnmuEz7MZTtFn6sSt7ZM1g", "alias": "candy-store-newport", "name": "Candy Store", "image_url": "https://s3-media2.fl.yelpcdn.com/bphoto/7qAsDNLWtFd0WGcpOP6zvg/o.jpg", "is_closed": false, "url": "https://www.yelp.com/biz/candy-store-newport?adjust_creative=9VzDKP4DqSuZkRYYaMKPjA&utm_campaign=yelp_api_v3&utm_medium=api_v3_business_search&utm_source=9VzDKP4DqSuZkRYYaMKPjA", "review_count": 4, "categories": [{"alias": "nightlife", "title": "Nightlife"}, {"alias": "restaurants", "title": "Restaurants"}], "rating": 3.5, "coordinates": {"latitude": 41.48626, "longitude": -71.31594}, "transactions": [], "location": {"address1": "Bannisters Wharf", "address2": "", "address3": "", "city": "Newport", "zip_code": "02840", "country": "US", "state": "RI", "display_address": ["Bannisters Wharf", "Newport, RI 02840"]}, "phone": "+14018492900", "display_phone": "(401) 849-2900", "distance": 2828.5133935278973}, {"id": "uM2-bMxz42WC0NQM9SXatA", "alias": "keenwah-super-food-eatery-newport", "name": "Keenwah Super Food Eatery", "image_url": "https://s3-media3.fl.yelpcdn.com/bphoto/IhtX7VMNkw-KQMBadckQFw/o.jpg", "is_closed": false, "url": "https://www.yelp.com/biz/keenwah-super-food-eatery-newport?adjust_creative=9VzDKP4DqSuZkRYYaMKPjA&utm_campaign=yelp_api_v3&utm_medium=api_v3_business_search&utm_source=9VzDKP4DqSuZkRYYaMKPjA", "review_count": 117, "categories": [{"alias": "burgers", "title": "Burgers"}, {"alias": "tradamerican", "title": "American (Traditional)"}, {"alias": "sandwiches", "title": "Sandwiches"}], "rating": 4.0, "coordinates": {"latitude": 41.482588, "longitude": -71.30984}, "transactions": [], "price": "$$", "location": {"address1": "181 Bellevue Ave", "address2": "", "address3": "Bellevue Gardens Shopping Center", "city": "Newport", "zip_code": "02840", "country": "US", "state": "RI", "display_address": ["181 Bellevue Ave", "Bellevue Gardens Shopping Center", "Newport, RI 02840"]}, "phone": "+14018468137", "display_phone": "(401) 846-8137", "distance": 3321.9031925378836}, {"id": "jMkWrkCspFnSu-IAgyGl6A", "alias": "subway-newport-39", "name": "Subway", "image_url": "https://s3-media2.fl.yelpcdn.com/bphoto/mhLShN9h54OeJTWSjwdwaw/o.jpg", "is_closed": false, "url": "https://www.yelp.com/biz/subway-newport-39?adjust_creative=9VzDKP4DqSuZkRYYaMKPjA&utm_campaign=yelp_api_v3&utm_medium=api_v3_business_search&utm_source=9VzDKP4DqSuZkRYYaMKPjA", "review_count": 11, "categories": [{"alias": "sandwiches", "title": "Sandwiches"}], "rating": 3.0, "coordinates": {"latitude": 41.5092478379995, "longitude": -71.3180389}, "transactions": [], "price": "$", "location": {"address1": "188 Connell Hwy", "address2": null, "address3": null, "city": "Newport", "zip_code": "02840", "country": "US", "state": "RI", "display_address": ["188 Connell Hwy", "Newport, RI 02840"]}, "phone": "+14018492118", "display_phone": "(401) 849-2118", "distance": 365.50303118667625}, {"id": "RIcqUZxrZOwtwCKbX4981g", "alias": "panini-grill-newport", "name": "Panini Grill", "image_url": "https://s3-media1.fl.yelpcdn.com/bphoto/LvYSpCe_qt2B3rXmNo6yuw/o.jpg", "is_closed": false, "url": "https://www.yelp.com/biz/panini-grill-newport?adjust_creative=9VzDKP4DqSuZkRYYaMKPjA&utm_campaign=yelp_api_v3&utm_medium=api_v3_business_search&utm_source=9VzDKP4DqSuZkRYYaMKPjA", "review_count": 58, "categories": [{"alias": "newamerican", "title": "American (New)"}, {"alias": "sandwiches", "title": "Sandwiches"}], "rating": 3.5, "coordinates": {"latitude": 41.4882781, "longitude": -71.3149261}, "transactions": ["delivery"], "price": "$", "location": {"address1": "186 Thames St", "address2": "", "address3": "", "city": "Newport", "zip_code": "02840", "country": "US", "state": "RI", "display_address": ["186 Thames St", "Newport, RI 02840"]}, "phone": "+14018477784", "display_phone": "(401) 847-7784", "distance": 2623.229253212683}, {"id": "A4stw0HG0I_E4Tow03pELQ", "alias": "top-of-newport-bar-kitchen-newport", "name": "Top of Newport Bar + Kitchen", "image_url": "https://s3-media2.fl.yelpcdn.com/bphoto/0jVncJRw8rz4KgfMh37kpg/o.jpg", "is_closed": false, "url": "https://www.yelp.com/biz/top-of-newport-bar-kitchen-newport?adjust_creative=9VzDKP4DqSuZkRYYaMKPjA&utm_campaign=yelp_api_v3&utm_medium=api_v3_business_search&utm_source=9VzDKP4DqSuZkRYYaMKPjA", "review_count": 17, "categories": [{"alias": "cocktailbars", "title": "Cocktail Bars"}, {"alias": "sandwiches", "title": "Sandwiches"}], "rating": 3.0, "coordinates": {"latitude": 41.48762, "longitude": -71.31034}, "transactions": ["delivery"], "location": {"address1": "1 Bellevue Ave", "address2": null, "address3": null, "city": "Newport", "zip_code": "02840", "country": "US", "state": "RI", "display_address": ["1 Bellevue Ave", "Newport, RI 02840"]}, "phone": "+14018484813", "display_phone": "(401) 848-4813", "distance": 2792.5750913555266}, {"id": "IghPSP9NNomqYrb0hkB8Qw", "alias": "china-star-iii-newport", "name": "China Star III", "image_url": "https://s3-media2.fl.yelpcdn.com/bphoto/zeM0z2-scSOIVHWLlZ1fVg/o.jpg", "is_closed": false, "url": "https://www.yelp.com/biz/china-star-iii-newport?adjust_creative=9VzDKP4DqSuZkRYYaMKPjA&utm_campaign=yelp_api_v3&utm_medium=api_v3_business_search&utm_source=9VzDKP4DqSuZkRYYaMKPjA", "review_count": 26, "categories": [{"alias": "chinese", "title": "Chinese"}], "rating": 2.5, "coordinates": {"latitude": 41.48349, "longitude": -71.30896}, "transactions": ["delivery"], "price": "$", "location": {"address1": "110 William St", "address2": "", "address3": "", "city": "Newport", "zip_code": "02840", "country": "US", "state": "RI", "display_address": ["110 William St", "Newport, RI 02840"]}, "phone": "+14018415556", "display_phone": "(401) 841-5556", "distance": 3268.5923672704103}, {"id": "CgmBgwHoMrT34FZXKnDqEw", "alias": "mels-cafenio-newport", "name": "Mel's Cafenio", "image_url": "https://s3-media1.fl.yelpcdn.com/bphoto/2noXYIdROVysA4qedZjFeQ/o.jpg", "is_closed": false, "url": "https://www.yelp.com/biz/mels-cafenio-newport?adjust_creative=9VzDKP4DqSuZkRYYaMKPjA&utm_campaign=yelp_api_v3&utm_medium=api_v3_business_search&utm_source=9VzDKP4DqSuZkRYYaMKPjA", "review_count": 20, "categories": [{"alias": "diners", "title": "Diners"}], "rating": 3.5, "coordinates": {"latitude": 41.49119, "longitude": -71.31217}, "transactions": ["delivery"], "price": "$", "location": {"address1": "25 Broadway", "address2": "", "address3": "", "city": "Newport", "zip_code": "02840", "country": "US", "state": "RI", "display_address": ["25 Broadway", "Newport, RI 02840"]}, "phone": "+14018496420", "display_phone": "(401) 849-6420", "distance": 2372.2486357930256}, {"id": "kWidPuvhsTOxQvLVDXnUDA", "alias": "garys-handy-lunch-newport", "name": "Gary's Handy Lunch", "image_url": "https://s3-media4.fl.yelpcdn.com/bphoto/ClQyzTEXIVIiWY1xoJkziQ/o.jpg", "is_closed": false, "url": "https://www.yelp.com/biz/garys-handy-lunch-newport?adjust_creative=9VzDKP4DqSuZkRYYaMKPjA&utm_campaign=yelp_api_v3&utm_medium=api_v3_business_search&utm_source=9VzDKP4DqSuZkRYYaMKPjA", "review_count": 112, "categories": [{"alias": "diners", "title": "Diners"}], "rating": 3.5, "coordinates": {"latitude": 41.4805997908115, "longitude": -71.3143218308687}, "transactions": ["delivery"], "price": "$", "location": {"address1": "462 Thames St", "address2": "", "address3": "", "city": "Newport", "zip_code": "02840", "country": "US", "state": "RI", "display_address": ["462 Thames St", "Newport, RI 02840"]}, "phone": "+14018479480", "display_phone": "(401) 847-9480", "distance": 3470.7258850342205}, {"id": "TEkCnwvd6ahfYuLjYHeABA", "alias": "newport-blues-cafe-newport", "name": "Newport Blues Cafe", "image_url": "https://s3-media4.fl.yelpcdn.com/bphoto/N2ZJ_M43lJ_trgJn0upvzA/o.jpg", "is_closed": false, "url": "https://www.yelp.com/biz/newport-blues-cafe-newport?adjust_creative=9VzDKP4DqSuZkRYYaMKPjA&utm_campaign=yelp_api_v3&utm_medium=api_v3_business_search&utm_source=9VzDKP4DqSuZkRYYaMKPjA", "review_count": 58, "categories": [{"alias": "bars", "title": "Bars"}, {"alias": "venues", "title": "Venues & Event Spaces"}, {"alias": "tradamerican", "title": "American (Traditional)"}], "rating": 3.0, "coordinates": {"latitude": 41.485658, "longitude": -71.314543}, "transactions": ["delivery"], "price": "$$", "location": {"address1": "286 Thames St", "address2": "", "address3": "", "city": "Newport", "zip_code": "02840", "country": "US", "state": "RI", "display_address": ["286 Thames St", "Newport, RI 02840"]}, "phone": "+14018415510", "display_phone": "(401) 841-5510", "distance": 2918.305975228384}, {"id": "6KwkXYSlMn9ejUrvJqLF6Q", "alias": "smoke-house-newport", "name": "Smoke House", "image_url": "https://s3-media3.fl.yelpcdn.com/bphoto/nBpa05pRMkIm0p8Curde-w/o.jpg", "is_closed": false, "url": "https://www.yelp.com/biz/smoke-house-newport?adjust_creative=9VzDKP4DqSuZkRYYaMKPjA&utm_campaign=yelp_api_v3&utm_medium=api_v3_business_search&utm_source=9VzDKP4DqSuZkRYYaMKPjA", "review_count": 266, "categories": [{"alias": "bbq", "title": "Barbeque"}, {"alias": "steak", "title": "Steakhouses"}, {"alias": "tradamerican", "title": "American (Traditional)"}], "rating": 4.0, "coordinates": {"latitude": 41.48559, "longitude": -71.31573}, "transactions": [], "price": "$$", "location": {"address1": "31 Scotts Wharf", "address2": "", "address3": "", "city": "Newport", "zip_code": "02840", "country": "US", "state": "RI", "display_address": ["31 Scotts Wharf", "Newport, RI 02840"]}, "phone": "+14018489800", "display_phone": "(401) 848-9800", "distance": 2907.708685225939}, {"id": "RIBpzqoag47s7imVM0p0Cw", "alias": "taco-bell-middletown-10", "name": "Taco Bell", "image_url": "https://s3-media1.fl.yelpcdn.com/bphoto/Fm5vUuykGwtIJldHg01JDA/o.jpg", "is_closed": false, "url": "https://www.yelp.com/biz/taco-bell-middletown-10?adjust_creative=9VzDKP4DqSuZkRYYaMKPjA&utm_campaign=yelp_api_v3&utm_medium=api_v3_business_search&utm_source=9VzDKP4DqSuZkRYYaMKPjA", "review_count": 16, "categories": [{"alias": "hotdogs", "title": "Fast Food"}, {"alias": "tacos", "title": "Tacos"}], "rating": 2.5, "coordinates": {"latitude": 41.520556, "longitude": -71.299295}, "transactions": ["delivery"], "price": "$", "location": {"address1": "641 W Main Rd", "address2": "", "address3": "", "city": "Middletown", "zip_code": "02842", "country": "US", "state": "RI", "display_address": ["641 W Main Rd", "Middletown, RI 02842"]}, "phone": "+14018487770", "display_phone": "(401) 848-7770", "distance": 2099.789462663085}, {"id": "0vbYSy9n-OpmdC5GSIqiMw", "alias": "la-forge-casino-restaurant-newport", "name": "La Forge Casino Restaurant", "image_url": "https://s3-media1.fl.yelpcdn.com/bphoto/3Ntc3-wArb_3RKpPNuv81A/o.jpg", "is_closed": false, "url": "https://www.yelp.com/biz/la-forge-casino-restaurant-newport?adjust_creative=9VzDKP4DqSuZkRYYaMKPjA&utm_campaign=yelp_api_v3&utm_medium=api_v3_business_search&utm_source=9VzDKP4DqSuZkRYYaMKPjA", "review_count": 139, "categories": [{"alias": "seafood", "title": "Seafood"}, {"alias": "pubs", "title": "Pubs"}, {"alias": "tradamerican", "title": "American (Traditional)"}], "rating": 3.5, "coordinates": {"latitude": 41.48331, "longitude": -71.30832}, "transactions": ["delivery", "pickup"], "price": "$$", "location": {"address1": "186 Bellevue Ave", "address2": "", "address3": "", "city": "Newport", "zip_code": "02840", "country": "US", "state": "RI", "display_address": ["186 Bellevue Ave", "Newport, RI 02840"]}, "phone": "+14018470418", "display_phone": "(401) 847-0418", "distance": 3340.9571881949746}, {"id": "NFK0slFOI-HeceeEzFLx8Q", "alias": "belles-cafe-newport", "name": "Belle's Cafe", "image_url": "https://s3-media2.fl.yelpcdn.com/bphoto/dYiRgD7u8K6Y2-jxgpZDYQ/o.jpg", "is_closed": false, "url": "https://www.yelp.com/biz/belles-cafe-newport?adjust_creative=9VzDKP4DqSuZkRYYaMKPjA&utm_campaign=yelp_api_v3&utm_medium=api_v3_business_search&utm_source=9VzDKP4DqSuZkRYYaMKPjA", "review_count": 200, "categories": [{"alias": "cafes", "title": "Cafes"}, {"alias": "breakfast_brunch", "title": "Breakfast & Brunch"}], "rating": 4.0, "coordinates": {"latitude": 41.4906420298175, "longitude": -71.3223087775437}, "transactions": ["delivery", "pickup"], "price": "$$", "location": {"address1": "1 Washington St", "address2": "", "address3": "Newport Shipyard", "city": "Newport", "zip_code": "02840", "country": "US", "state": "RI", "display_address": ["1 Washington St", "Newport Shipyard", "Newport, RI 02840"]}, "phone": "+14018466000", "display_phone": "(401) 846-6000", "distance": 2309.820990913104}, {"id": "t8ZwwMn1_OzQ9Exwk7fvEQ", "alias": "annies-newport", "name": "Annie's", "image_url": "https://s3-media3.fl.yelpcdn.com/bphoto/_76NkWzfXBXgENaBVzDB4g/o.jpg", "is_closed": false, "url": "https://www.yelp.com/biz/annies-newport?adjust_creative=9VzDKP4DqSuZkRYYaMKPjA&utm_campaign=yelp_api_v3&utm_medium=api_v3_business_search&utm_source=9VzDKP4DqSuZkRYYaMKPjA", "review_count": 108, "categories": [{"alias": "sandwiches", "title": "Sandwiches"}, {"alias": "breakfast_brunch", "title": "Breakfast & Brunch"}, {"alias": "seafood", "title": "Seafood"}], "rating": 3.5, "coordinates": {"latitude": 41.4832618, "longitude": -71.3082321}, "transactions": ["delivery"], "price": "$$", "location": {"address1": "176 Bellevue Ave", "address2": "", "address3": "", "city": "Newport", "zip_code": "02840", "country": "US", "state": "RI", "display_address": ["176 Bellevue Ave", "Newport, RI 02840"]}, "phone": "+14018496731", "display_phone": "(401) 849-6731", "distance": 3308.7111272772654}, {"id": "KBqtwZzWgKstkXTzTbm_ow", "alias": "franklin-spa-newport", "name": "Franklin Spa", "image_url": "https://s3-media4.fl.yelpcdn.com/bphoto/03-V4KeizsScBHKDzoYjAQ/o.jpg", "is_closed": false, "url": "https://www.yelp.com/biz/franklin-spa-newport?adjust_creative=9VzDKP4DqSuZkRYYaMKPjA&utm_campaign=yelp_api_v3&utm_medium=api_v3_business_search&utm_source=9VzDKP4DqSuZkRYYaMKPjA", "review_count": 188, "categories": [{"alias": "breakfast_brunch", "title": "Breakfast & Brunch"}, {"alias": "tradamerican", "title": "American (Traditional)"}], "rating": 3.5, "coordinates": {"latitude": 41.4849501, "longitude": -71.3133396}, "transactions": [], "price": "$$", "location": {"address1": "229 Spring St", "address2": "", "address3": "", "city": "Newport", "zip_code": "02840", "country": "US", "state": "RI", "display_address": ["229 Spring St", "Newport, RI 02840"]}, "phone": "+14018473540", "display_phone": "(401) 847-3540", "distance": 3025.7776466007085}, {"id": "PC2jC5ULefSbux5PHIoClw", "alias": "griswolds-tavern-newport-2", "name": "Griswolds Tavern", "image_url": "https://s3-media1.fl.yelpcdn.com/bphoto/6CRaqsK3EZ6fby1OSVkO9A/o.jpg", "is_closed": false, "url": "https://www.yelp.com/biz/griswolds-tavern-newport-2?adjust_creative=9VzDKP4DqSuZkRYYaMKPjA&utm_campaign=yelp_api_v3&utm_medium=api_v3_business_search&utm_source=9VzDKP4DqSuZkRYYaMKPjA", "review_count": 59, "categories": [{"alias": "bars", "title": "Bars"}, {"alias": "salad", "title": "Salad"}, {"alias": "mexican", "title": "Mexican"}], "rating": 3.0, "coordinates": {"latitude": 41.48476, "longitude": -71.30883}, "transactions": ["delivery"], "price": "$$", "location": {"address1": "103 Bellevue Ave", "address2": "", "address3": "", "city": "Newport", "zip_code": "02840", "country": "US", "state": "RI", "display_address": ["103 Bellevue Ave", "Newport, RI 02840"]}, "phone": "+14018464660", "display_phone": "(401) 846-4660", "distance": 3153.8265801928965}, {"id": "Z9QBH_4YOjnsEmTpVopBBA", "alias": "wendys-middletown-2", "name": "Wendy's", "image_url": "https://s3-media2.fl.yelpcdn.com/bphoto/mmdUUVmOUSK42f2l5J_naA/o.jpg", "is_closed": false, "url": "https://www.yelp.com/biz/wendys-middletown-2?adjust_creative=9VzDKP4DqSuZkRYYaMKPjA&utm_campaign=yelp_api_v3&utm_medium=api_v3_business_search&utm_source=9VzDKP4DqSuZkRYYaMKPjA", "review_count": 28, "categories": [{"alias": "hotdogs", "title": "Fast Food"}, {"alias": "burgers", "title": "Burgers"}], "rating": 2.5, "coordinates": {"latitude": 41.5188091320485, "longitude": -71.2925356064952}, "transactions": ["delivery"], "price": "$", "location": {"address1": "62 Valley Rd", "address2": "", "address3": "", "city": "Middletown", "zip_code": "02842", "country": "US", "state": "RI", "display_address": ["62 Valley Rd", "Middletown, RI 02842"]}, "phone": "+14018461491", "display_phone": "(401) 846-1491", "distance": 2536.8376773091186}, {"id": "pCYYXB7KqjT-58387HuuGA", "alias": "mcdonalds-middletown-26", "name": "McDonald's", "image_url": "https://s3-media3.fl.yelpcdn.com/bphoto/eGKHa_AkuOJGwdhiaLltvg/o.jpg", "is_closed": false, "url": "https://www.yelp.com/biz/mcdonalds-middletown-26?adjust_creative=9VzDKP4DqSuZkRYYaMKPjA&utm_campaign=yelp_api_v3&utm_medium=api_v3_business_search&utm_source=9VzDKP4DqSuZkRYYaMKPjA", "review_count": 22, "categories": [{"alias": "coffee", "title": "Coffee & Tea"}, {"alias": "burgers", "title": "Burgers"}, {"alias": "hotdogs", "title": "Fast Food"}], "rating": 2.0, "coordinates": {"latitude": 41.5199639952104, "longitude": -71.2912930548191}, "transactions": [], "price": "$", "location": {"address1": "288 E Main Rd", "address2": null, "address3": null, "city": "Middletown", "zip_code": "02842", "country": "US", "state": "RI", "display_address": ["288 E Main Rd", "Middletown, RI 02842"]}, "phone": "+14018470198", "display_phone": "(401) 847-0198", "distance": 2677.800575649416}, {"id": "O_xjLndAbE5GIt6bcoxNKw", "alias": "newport-waterfront-landing-newport", "name": "Newport Waterfront Landing", "image_url": "https://s3-media4.fl.yelpcdn.com/bphoto/g7hSFwvE3jDqhScN6usKdg/o.jpg", "is_closed": false, "url": "https://www.yelp.com/biz/newport-waterfront-landing-newport?adjust_creative=9VzDKP4DqSuZkRYYaMKPjA&utm_campaign=yelp_api_v3&utm_medium=api_v3_business_search&utm_source=9VzDKP4DqSuZkRYYaMKPjA", "review_count": 2, "categories": [{"alias": "venues", "title": "Venues & Event Spaces"}, {"alias": "seafood", "title": "Seafood"}], "rating": 3.0, "coordinates": {"latitude": 41.48678, "longitude": -71.31695}, "transactions": ["delivery"], "location": {"address1": "30 Bowens Wharf", "address2": "", "address3": "", "city": "Newport", "zip_code": "02840", "country": "US", "state": "RI", "display_address": ["30 Bowens Wharf", "Newport, RI 02840"]}, "phone": "+14018479641", "display_phone": "(401) 847-9641", "distance": 2768.7935520127385}, {"id": "xtIegECMPDKP-EG0dVALIA", "alias": "piezonis-pizza-middletown", "name": "PieZoni's Pizza", "image_url": "https://s3-media3.fl.yelpcdn.com/bphoto/yDddYMwGgaLq4EnGgfd5gQ/o.jpg", "is_closed": false, "url": "https://www.yelp.com/biz/piezonis-pizza-middletown?adjust_creative=9VzDKP4DqSuZkRYYaMKPjA&utm_campaign=yelp_api_v3&utm_medium=api_v3_business_search&utm_source=9VzDKP4DqSuZkRYYaMKPjA", "review_count": 16, "categories": [{"alias": "pizza", "title": "Pizza"}, {"alias": "salad", "title": "Salad"}, {"alias": "sandwiches", "title": "Sandwiches"}], "rating": 2.5, "coordinates": {"latitude": 41.5270604760507, "longitude": -71.2994679452909}, "transactions": ["delivery"], "price": "$", "location": {"address1": "876 W Main Rd", "address2": "", "address3": "", "city": "Middletown", "zip_code": "02842", "country": "US", "state": "RI", "display_address": ["876 W Main Rd", "Middletown, RI 02842"]}, "phone": "+14018464444", "display_phone": "(401) 846-4444", "distance": 2520.2226474259064}, {"id": "rvqS3PlySZBxwQ1WrCKUVw", "alias": "panera-bread-newport", "name": "Panera Bread", "image_url": "https://s3-media3.fl.yelpcdn.com/bphoto/PsAa9mk9cNMVtdpuQ-8FAw/o.jpg", "is_closed": false, "url": "https://www.yelp.com/biz/panera-bread-newport?adjust_creative=9VzDKP4DqSuZkRYYaMKPjA&utm_campaign=yelp_api_v3&utm_medium=api_v3_business_search&utm_source=9VzDKP4DqSuZkRYYaMKPjA", "review_count": 62, "categories": [{"alias": "sandwiches", "title": "Sandwiches"}, {"alias": "salad", "title": "Salad"}, {"alias": "soup", "title": "Soup"}], "rating": 2.5, "coordinates": {"latitude": 41.489992, "longitude": -71.31678}, "transactions": [], "price": "$", "location": {"address1": "49 Long Wharf Mall", "address2": "", "address3": "", "city": "Newport", "zip_code": "02840", "country": "US", "state": "RI", "display_address": ["49 Long Wharf Mall", "Newport, RI 02840"]}, "phone": "+14013246800", "display_phone": "(401) 324-6800", "distance": 2411.0115839701452}, {"id": "UerBp3ZRNLRzcc-vH9aGpg", "alias": "the-landing-newport", "name": "The Landing", "image_url": "https://s3-media2.fl.yelpcdn.com/bphoto/VAlFT7ReEoWuV7hXeyntiw/o.jpg", "is_closed": false, "url": "https://www.yelp.com/biz/the-landing-newport?adjust_creative=9VzDKP4DqSuZkRYYaMKPjA&utm_campaign=yelp_api_v3&utm_medium=api_v3_business_search&utm_source=9VzDKP4DqSuZkRYYaMKPjA", "review_count": 384, "categories": [{"alias": "seafood", "title": "Seafood"}, {"alias": "venues", "title": "Venues & Event Spaces"}], "rating": 2.5, "coordinates": {"latitude": 41.486719, "longitude": -71.316918}, "transactions": [], "price": "$$", "location": {"address1": "30 Bowens Wharf", "address2": "", "address3": "", "city": "Newport", "zip_code": "02840", "country": "US", "state": "RI", "display_address": ["30 Bowens Wharf", "Newport, RI 02840"]}, "phone": "+14018474514", "display_phone": "(401) 847-4514", "distance": 2768.7935520127385}, {"id": "JS22BY0EFARtAj4CIxSZ4g", "alias": "the-lobster-bar-newport", "name": "The Lobster Bar", "image_url": "https://s3-media3.fl.yelpcdn.com/bphoto/2jmouWGG_zA5BsE9_gIg7Q/o.jpg", "is_closed": false, "url": "https://www.yelp.com/biz/the-lobster-bar-newport?adjust_creative=9VzDKP4DqSuZkRYYaMKPjA&utm_campaign=yelp_api_v3&utm_medium=api_v3_business_search&utm_source=9VzDKP4DqSuZkRYYaMKPjA", "review_count": 287, "categories": [{"alias": "seafood", "title": "Seafood"}, {"alias": "raw_food", "title": "Live/Raw Food"}], "rating": 3.0, "coordinates": {"latitude": 41.4866203559198, "longitude": -71.3174773906506}, "transactions": ["delivery"], "price": "$$", "location": {"address1": "31 Bowens Wharf", "address2": "", "address3": "", "city": "Newport", "zip_code": "02840", "country": "US", "state": "RI", "display_address": ["31 Bowens Wharf", "Newport, RI 02840"]}, "phone": "+14016192890", "display_phone": "(401) 619-2890", "distance": 2774.48807522803}, {"id": "ojGZ_c5Kos0aTMNMVlkXvA", "alias": "grand-grille-restaurant-newport", "name": "Grand Grille Restaurant", "image_url": "https://s3-media2.fl.yelpcdn.com/bphoto/_3qL4U5hFPek1nf6Q8tF4Q/o.jpg", "is_closed": false, "url": "https://www.yelp.com/biz/grand-grille-restaurant-newport?adjust_creative=9VzDKP4DqSuZkRYYaMKPjA&utm_campaign=yelp_api_v3&utm_medium=api_v3_business_search&utm_source=9VzDKP4DqSuZkRYYaMKPjA", "review_count": 2, "categories": [{"alias": "salad", "title": "Salad"}, {"alias": "chicken_wings", "title": "Chicken Wings"}, {"alias": "sandwiches", "title": "Sandwiches"}], "rating": 1.5, "coordinates": {"latitude": 41.506846, "longitude": -71.311729}, "transactions": [], "location": {"address1": "150 Admiral Kalbfus Rd", "address2": "", "address3": "Newport Grand Slots", "city": "Newport", "zip_code": "02840", "country": "US", "state": "RI", "display_address": ["150 Admiral Kalbfus Rd", "Newport Grand Slots", "Newport, RI 02840"]}, "phone": "+14018495000", "display_phone": "(401) 849-5000", "distance": 948.1667819957238}, {"id": "fNJ2uWXe5N8W1CIkeq6mEg", "alias": "the-black-pearl-annex-newport", "name": "The Black Pearl Annex", "image_url": "https://s3-media3.fl.yelpcdn.com/bphoto/gUKdBaXzdVT5iOb58EbN4Q/o.jpg", "is_closed": false, "url": "https://www.yelp.com/biz/the-black-pearl-annex-newport?adjust_creative=9VzDKP4DqSuZkRYYaMKPjA&utm_campaign=yelp_api_v3&utm_medium=api_v3_business_search&utm_source=9VzDKP4DqSuZkRYYaMKPjA", "review_count": 1, "categories": [{"alias": "restaurants", "title": "Restaurants"}], "rating": 3.0, "coordinates": {"latitude": 41.4861251, "longitude": -71.3163979}, "transactions": [], "location": {"address1": "82 Bannister's Wharf", "address2": "", "address3": null, "city": "Newport", "zip_code": "02840", "country": "US", "state": "RI", "display_address": ["82 Bannister's Wharf", "Newport, RI 02840"]}, "phone": "", "display_phone": "", "distance": 2835.7185101954346}, {"id": "Io4C5tUwnb_YzeaMXHBqBA", "alias": "shuckin-truck-narragansett-2", "name": "Shuckin Truck", "image_url": "https://s3-media2.fl.yelpcdn.com/bphoto/r7QRORfe9UYVS7GGzUm9DQ/o.jpg", "is_closed": false, "url": "https://www.yelp.com/biz/shuckin-truck-narragansett-2?adjust_creative=9VzDKP4DqSuZkRYYaMKPjA&utm_campaign=yelp_api_v3&utm_medium=api_v3_business_search&utm_source=9VzDKP4DqSuZkRYYaMKPjA", "review_count": 24, "categories": [{"alias": "foodtrucks", "title": "Food Trucks"}, {"alias": "seafood", "title": "Seafood"}], "rating": 4.5, "coordinates": {"latitude": 41.4274482727051, "longitude": -71.4597778320313}, "transactions": [], "price": "$$", "location": {"address1": "", "address2": "", "address3": "", "city": "Narragansett", "zip_code": "02882", "country": "US", "state": "RI", "display_address": ["Narragansett, RI 02882"]}, "phone": "+14017415953", "display_phone": "(401) 741-5953", "distance": 18813.616554162712}, {"id": "NPDzKS1rgnBvIqjpQL0vkA", "alias": "peaceable-market-newport", "name": "Peaceable Market", "image_url": "https://s3-media2.fl.yelpcdn.com/bphoto/Vd_-LzZmnnzhPgq68LYlEg/o.jpg", "is_closed": false, "url": "https://www.yelp.com/biz/peaceable-market-newport?adjust_creative=9VzDKP4DqSuZkRYYaMKPjA&utm_campaign=yelp_api_v3&utm_medium=api_v3_business_search&utm_source=9VzDKP4DqSuZkRYYaMKPjA", "review_count": 54, "categories": [{"alias": "breakfast_brunch", "title": "Breakfast & Brunch"}, {"alias": "sandwiches", "title": "Sandwiches"}], "rating": 3.5, "coordinates": {"latitude": 41.4786337316036, "longitude": -71.3141347467899}, "transactions": ["delivery"], "price": "$", "location": {"address1": "520 Thames St", "address2": "", "address3": "", "city": "Newport", "zip_code": "02840", "country": "US", "state": "RI", "display_address": ["520 Thames St", "Newport, RI 02840"]}, "phone": "+14018460036", "display_phone": "(401) 846-0036", "distance": 3697.4546342538115}, {"id": "PivbcyzWxF6G-bFTxavGFw", "alias": "pizza-hollywood-middletown", "name": "Pizza Hollywood", "image_url": "https://s3-media1.fl.yelpcdn.com/bphoto/p8qTueDMCSZUbwEEEvBhog/o.jpg", "is_closed": false, "url": "https://www.yelp.com/biz/pizza-hollywood-middletown?adjust_creative=9VzDKP4DqSuZkRYYaMKPjA&utm_campaign=yelp_api_v3&utm_medium=api_v3_business_search&utm_source=9VzDKP4DqSuZkRYYaMKPjA", "review_count": 18, "categories": [{"alias": "pizza", "title": "Pizza"}], "rating": 2.5, "coordinates": {"latitude": 41.50945, "longitude": -71.28263}, "transactions": ["delivery"], "price": "$$", "location": {"address1": "796 Aquidneck Ave", "address2": "", "address3": "", "city": "Middletown", "zip_code": "02842", "country": "US", "state": "RI", "display_address": ["796 Aquidneck Ave", "Middletown, RI 02842"]}, "phone": "+14018462727", "display_phone": "(401) 846-2727", "distance": 3204.0617107946186}, {"id": "8dda8ZQo-TqdE2ZGmYFM5w", "alias": "upscales-newport", "name": "Upscales", "image_url": "", "is_closed": false, "url": "https://www.yelp.com/biz/upscales-newport?adjust_creative=9VzDKP4DqSuZkRYYaMKPjA&utm_campaign=yelp_api_v3&utm_medium=api_v3_business_search&utm_source=9VzDKP4DqSuZkRYYaMKPjA", "review_count": 1, "categories": [{"alias": "restaurants", "title": "Restaurants"}], "rating": 5.0, "coordinates": {"latitude": 41.4785, "longitude": -71.31437}, "transactions": ["delivery"], "location": {"address1": "527 Thames St", "address2": "", "address3": "", "city": "Newport", "zip_code": "02840", "country": "US", "state": "RI", "display_address": ["527 Thames St", "Newport, RI 02840"]}, "phone": "+14018472000", "display_phone": "(401) 847-2000", "distance": 3703.4126753622086}, {"id": "EXbrf5rCis_u8JfhtmLROQ", "alias": "sumo-sushi-newport", "name": "Sumo Sushi", "image_url": "https://s3-media1.fl.yelpcdn.com/bphoto/kS761lRHJViQfGaZPxWn3w/o.jpg", "is_closed": false, "url": "https://www.yelp.com/biz/sumo-sushi-newport?adjust_creative=9VzDKP4DqSuZkRYYaMKPjA&utm_campaign=yelp_api_v3&utm_medium=api_v3_business_search&utm_source=9VzDKP4DqSuZkRYYaMKPjA", "review_count": 73, "categories": [{"alias": "sushi", "title": "Sushi Bars"}, {"alias": "korean", "title": "Korean"}, {"alias": "japanese", "title": "Japanese"}], "rating": 2.5, "coordinates": {"latitude": 41.4881056, "longitude": -71.3149111}, "transactions": ["delivery"], "price": "$$", "location": {"address1": "198 Thames St", "address2": "Ste 4", "address3": "", "city": "Newport", "zip_code": "02840", "country": "US", "state": "RI", "display_address": ["198 Thames St", "Ste 4", "Newport, RI 02840"]}, "phone": "+14018482307", "display_phone": "(401) 848-2307", "distance": 2652.5328343339365}, {"id": "--lpYdw1FmSEfjwk5a3NZg", "alias": "mcdonalds-middletown-18", "name": "McDonald's", "image_url": "https://s3-media2.fl.yelpcdn.com/bphoto/OU7DkCBW2APBw7bjGKhZ5g/o.jpg", "is_closed": false, "url": "https://www.yelp.com/biz/mcdonalds-middletown-18?adjust_creative=9VzDKP4DqSuZkRYYaMKPjA&utm_campaign=yelp_api_v3&utm_medium=api_v3_business_search&utm_source=9VzDKP4DqSuZkRYYaMKPjA", "review_count": 25, "categories": [{"alias": "burgers", "title": "Burgers"}, {"alias": "hotdogs", "title": "Fast Food"}, {"alias": "coffee", "title": "Coffee & Tea"}], "rating": 2.0, "coordinates": {"latitude": 41.5379221649834, "longitude": -71.2912152707577}, "transactions": [], "price": "$", "location": {"address1": "1425 W Main Rd", "address2": "", "address3": "", "city": "Middletown", "zip_code": "02842", "country": "US", "state": "RI", "display_address": ["1425 W Main Rd", "Middletown, RI 02842"]}, "phone": "+14018468458", "display_phone": "(401) 846-8458", "distance": 3871.790965145131}, {"id": "3ECrwjMQINQCRcIgyUOFuQ", "alias": "mokka-coffeehouse-newport", "name": "Mokka Coffeehouse", "image_url": "https://s3-media4.fl.yelpcdn.com/bphoto/WVl4dlFkFZxXU4BjY8UTEw/o.jpg", "is_closed": false, "url": "https://www.yelp.com/biz/mokka-coffeehouse-newport?adjust_creative=9VzDKP4DqSuZkRYYaMKPjA&utm_campaign=yelp_api_v3&utm_medium=api_v3_business_search&utm_source=9VzDKP4DqSuZkRYYaMKPjA", "review_count": 81, "categories": [{"alias": "coffee", "title": "Coffee & Tea"}, {"alias": "breakfast_brunch", "title": "Breakfast & Brunch"}, {"alias": "hotdogs", "title": "Fast Food"}], "rating": 3.5, "coordinates": {"latitude": 41.4803995214242, "longitude": -71.3146552687866}, "transactions": ["delivery"], "price": "$", "location": {"address1": "469 Thames St Spring Wharf", "address2": "", "address3": "", "city": "Newport", "zip_code": "02840", "country": "US", "state": "RI", "display_address": ["469 Thames St Spring Wharf", "Newport, RI 02840"]}, "phone": "+14016191530", "display_phone": "(401) 619-1530", "distance": 3492.2169429115006}, {"id": "Jl2ofqg8PmZ1coAvVcUYnQ", "alias": "pink-pig-bbq-jamestown", "name": "Pink Pig BBQ", "image_url": "https://s3-media2.fl.yelpcdn.com/bphoto/MzlttdK8RKyr4JCXKWtF7w/o.jpg", "is_closed": false, "url": "https://www.yelp.com/biz/pink-pig-bbq-jamestown?adjust_creative=9VzDKP4DqSuZkRYYaMKPjA&utm_campaign=yelp_api_v3&utm_medium=api_v3_business_search&utm_source=9VzDKP4DqSuZkRYYaMKPjA", "review_count": 66, "categories": [{"alias": "bbq", "title": "Barbeque"}], "rating": 4.0, "coordinates": {"latitude": 41.4959696042307, "longitude": -71.3696372207202}, "transactions": [], "price": "$$", "location": {"address1": "35 Narragansett Ave", "address2": "", "address3": null, "city": "Jamestown", "zip_code": "02835", "country": "US", "state": "RI", "display_address": ["35 Narragansett Ave", "Jamestown, RI 02835"]}, "phone": "+14015607941", "display_phone": "(401) 560-7941", "distance": 4371.693586957291}, {"id": "R-XO35-J-_8vgv6IRVBvfQ", "alias": "simpatico-jamestown-jamestown", "name": "Simpatico Jamestown", "image_url": "https://s3-media3.fl.yelpcdn.com/bphoto/_3XsTiuL29ZO-4dNJEQDoA/o.jpg", "is_closed": false, "url": "https://www.yelp.com/biz/simpatico-jamestown-jamestown?adjust_creative=9VzDKP4DqSuZkRYYaMKPjA&utm_campaign=yelp_api_v3&utm_medium=api_v3_business_search&utm_source=9VzDKP4DqSuZkRYYaMKPjA", "review_count": 151, "categories": [{"alias": "newamerican", "title": "American (New)"}, {"alias": "bars", "title": "Bars"}], "rating": 3.5, "coordinates": {"latitude": 41.496132, "longitude": -71.368158}, "transactions": [], "price": "$$", "location": {"address1": "13 Narragansett Ave", "address2": "", "address3": "", "city": "Jamestown", "zip_code": "02835", "country": "US", "state": "RI", "display_address": ["13 Narragansett Ave", "Jamestown, RI 02835"]}, "phone": "+14014232000", "display_phone": "(401) 423-2000", "distance": 4251.424012106147}, {"id": "d4RQKKwQEoxH1VzEzsunVg", "alias": "kfc-middletown-5", "name": "KFC", "image_url": "https://s3-media1.fl.yelpcdn.com/bphoto/l6e2_8QBDT6rlTyenc4XrA/o.jpg", "is_closed": false, "url": "https://www.yelp.com/biz/kfc-middletown-5?adjust_creative=9VzDKP4DqSuZkRYYaMKPjA&utm_campaign=yelp_api_v3&utm_medium=api_v3_business_search&utm_source=9VzDKP4DqSuZkRYYaMKPjA", "review_count": 18, "categories": [{"alias": "hotdogs", "title": "Fast Food"}, {"alias": "chicken_wings", "title": "Chicken Wings"}, {"alias": "chickenshop", "title": "Chicken Shop"}], "rating": 1.5, "coordinates": {"latitude": 41.536998619863, "longitude": -71.291561608369}, "transactions": ["delivery", "pickup"], "price": "$", "location": {"address1": "1387 W Main Rd", "address2": "", "address3": "", "city": "Middletown", "zip_code": "02842", "country": "US", "state": "RI", "display_address": ["1387 W Main Rd", "Middletown, RI 02842"]}, "phone": "+14018465350", "display_phone": "(401) 846-5350", "distance": 3775.168372357226}, {"id": "72ROZa8n7-QlXtVlZO4pOg", "alias": "kaffeology-newport", "name": "Kaffeology", "image_url": "https://s3-media2.fl.yelpcdn.com/bphoto/P7Nvt0jaGHLt3x2rtlAgFA/o.jpg", "is_closed": false, "url": "https://www.yelp.com/biz/kaffeology-newport?adjust_creative=9VzDKP4DqSuZkRYYaMKPjA&utm_campaign=yelp_api_v3&utm_medium=api_v3_business_search&utm_source=9VzDKP4DqSuZkRYYaMKPjA", "review_count": 72, "categories": [{"alias": "coffee", "title": "Coffee & Tea"}, {"alias": "desserts", "title": "Desserts"}, {"alias": "sandwiches", "title": "Sandwiches"}], "rating": 3.5, "coordinates": {"latitude": 41.48351, "longitude": -71.31508}, "transactions": ["delivery", "pickup"], "price": "$", "location": {"address1": "359 Thames St", "address2": "", "address3": null, "city": "Newport", "zip_code": "02840", "country": "US", "state": "RI", "display_address": ["359 Thames St", "Newport, RI 02840"]}, "phone": "+14077220922", "display_phone": "(407) 722-0922", "distance": 3131.739422128039}, {"id": "zY9AjblV326erru4kAJkCQ", "alias": "subway-middletown-34", "name": "Subway", "image_url": "https://s3-media1.fl.yelpcdn.com/bphoto/X4K-4YukkkXjaHgRC6R1Yw/o.jpg", "is_closed": false, "url": "https://www.yelp.com/biz/subway-middletown-34?adjust_creative=9VzDKP4DqSuZkRYYaMKPjA&utm_campaign=yelp_api_v3&utm_medium=api_v3_business_search&utm_source=9VzDKP4DqSuZkRYYaMKPjA", "review_count": 3, "categories": [{"alias": "sandwiches", "title": "Sandwiches"}], "rating": 2.5, "coordinates": {"latitude": 41.5195482433543, "longitude": -71.2929053599153}, "transactions": [], "price": "$", "location": {"address1": "238 E Main St", "address2": "Unit 3", "address3": "", "city": "Middletown", "zip_code": "02842", "country": "US", "state": "RI", "display_address": ["238 E Main St", "Unit 3", "Middletown, RI 02842"]}, "phone": "+14018477670", "display_phone": "(401) 847-7670", "distance": 2535.9060577721843}, {"id": "sGfYMX-wDEqarpZrXUg9tA", "alias": "bay-voyage-restaurant-jamestown", "name": "Bay Voyage Restaurant", "image_url": "https://s3-media1.fl.yelpcdn.com/bphoto/SfTksnJI02eNqmhpTycwCA/o.jpg", "is_closed": false, "url": "https://www.yelp.com/biz/bay-voyage-restaurant-jamestown?adjust_creative=9VzDKP4DqSuZkRYYaMKPjA&utm_campaign=yelp_api_v3&utm_medium=api_v3_business_search&utm_source=9VzDKP4DqSuZkRYYaMKPjA", "review_count": 22, "categories": [{"alias": "seafood", "title": "Seafood"}, {"alias": "sushi", "title": "Sushi Bars"}, {"alias": "steak", "title": "Steakhouses"}], "rating": 3.5, "coordinates": {"latitude": 41.5015393, "longitude": -71.3644051}, "transactions": ["pickup", "delivery"], "price": "$$", "location": {"address1": "150 Conanicus Ave", "address2": "", "address3": null, "city": "Jamestown", "zip_code": "02835", "country": "US", "state": "RI", "display_address": ["150 Conanicus Ave", "Jamestown, RI 02835"]}, "phone": "+14015607979", "display_phone": "(401) 560-7979", "distance": 3741.377995222045}, {"id": "h8vF1PKv-uE8IxWD3v65QA", "alias": "k-js-pub-middletown", "name": "K J's Pub", "image_url": "", "is_closed": false, "url": "https://www.yelp.com/biz/k-js-pub-middletown?adjust_creative=9VzDKP4DqSuZkRYYaMKPjA&utm_campaign=yelp_api_v3&utm_medium=api_v3_business_search&utm_source=9VzDKP4DqSuZkRYYaMKPjA", "review_count": 3, "categories": [{"alias": "restaurants", "title": "Restaurants"}], "rating": 2.5, "coordinates": {"latitude": 41.491153, "longitude": -71.283746}, "transactions": [], "location": {"address1": "59 Aquidneck Ave", "address2": "", "address3": "", "city": "Middletown", "zip_code": "02842", "country": "US", "state": "RI", "display_address": ["59 Aquidneck Ave", "Middletown, RI 02842"]}, "phone": "+14018489991", "display_phone": "(401) 848-9991", "distance": 3859.0164987882968}, {"id": "Vg-ODg84rKZZ8K-LxsGa7Q", "alias": "newport-sticks-and-cones-newport-3", "name": "Newport Sticks and Cones", "image_url": "https://s3-media2.fl.yelpcdn.com/bphoto/m3ZWETENBAMDdCCJB2-K9A/o.jpg", "is_closed": false, "url": "https://www.yelp.com/biz/newport-sticks-and-cones-newport-3?adjust_creative=9VzDKP4DqSuZkRYYaMKPjA&utm_campaign=yelp_api_v3&utm_medium=api_v3_business_search&utm_source=9VzDKP4DqSuZkRYYaMKPjA", "review_count": 27, "categories": [{"alias": "icecream", "title": "Ice Cream & Frozen Yogurt"}, {"alias": "gelato", "title": "Gelato"}, {"alias": "waffles", "title": "Waffles"}], "rating": 4.0, "coordinates": {"latitude": 41.484181, "longitude": -71.314348}, "transactions": [], "price": "$", "location": {"address1": "8 Fair St", "address2": "Unit 4", "address3": "", "city": "Newport", "zip_code": "02840", "country": "US", "state": "RI", "display_address": ["8 Fair St", "Unit 4", "Newport, RI 02840"]}, "phone": "+14012364611", "display_phone": "(401) 236-4611", "distance": 3081.3873110102245}, {"id": "bi2PI2mf6Xy488XUK7v-Jg", "alias": "sprinkles-newport", "name": "Sprinkles", "image_url": "https://s3-media2.fl.yelpcdn.com/bphoto/M1dxp2_UXeTMLjDWh9qqyw/o.jpg", "is_closed": false, "url": "https://www.yelp.com/biz/sprinkles-newport?adjust_creative=9VzDKP4DqSuZkRYYaMKPjA&utm_campaign=yelp_api_v3&utm_medium=api_v3_business_search&utm_source=9VzDKP4DqSuZkRYYaMKPjA", "review_count": 15, "categories": [{"alias": "icecream", "title": "Ice Cream & Frozen Yogurt"}, {"alias": "foodstands", "title": "Food Stands"}, {"alias": "coffee", "title": "Coffee & Tea"}], "rating": 4.0, "coordinates": {"latitude": 41.4866725, "longitude": -71.315436}, "transactions": ["delivery"], "price": "$", "location": {"address1": "9 Bowen's Wharf", "address2": "", "address3": "", "city": "Newport", "zip_code": "02840", "country": "US", "state": "RI", "display_address": ["9 Bowen's Wharf", "Newport, RI 02840"]}, "phone": "+14014269512", "display_phone": "(401) 426-9512", "distance": 2793.660292920092}, {"id": "JIhRVJ4BAWPH9NZ0u-7Wzw", "alias": "flip-n-roll-fall-river", "name": "Flip N Roll", "image_url": "https://s3-media1.fl.yelpcdn.com/bphoto/A3l1k85peGnmCC17j-Bmhg/o.jpg", "is_closed": false, "url": "https://www.yelp.com/biz/flip-n-roll-fall-river?adjust_creative=9VzDKP4DqSuZkRYYaMKPjA&utm_campaign=yelp_api_v3&utm_medium=api_v3_business_search&utm_source=9VzDKP4DqSuZkRYYaMKPjA", "review_count": 1, "categories": [{"alias": "foodtrucks", "title": "Food Trucks"}, {"alias": "tradamerican", "title": "American (Traditional)"}, {"alias": "portuguese", "title": "Portuguese"}], "rating": 1.0, "coordinates": {"latitude": 41.68687, "longitude": -71.17062}, "transactions": [], "price": "$$", "location": {"address1": "", "address2": "", "address3": "", "city": "Fall River", "zip_code": "02724", "country": "US", "state": "MA", "display_address": ["Fall River, MA 02724"]}, "phone": "", "display_phone": "", "distance": 23150.562683696622}, {"id": "oXi5uZqBHaRN-9LfbTz4iw", "alias": "solarcart-cafe-wakefield", "name": "SolarCart Cafe", "image_url": "https://s3-media3.fl.yelpcdn.com/bphoto/2jnm4N-kA74C1G385wcvjw/o.jpg", "is_closed": false, "url": "https://www.yelp.com/biz/solarcart-cafe-wakefield?adjust_creative=9VzDKP4DqSuZkRYYaMKPjA&utm_campaign=yelp_api_v3&utm_medium=api_v3_business_search&utm_source=9VzDKP4DqSuZkRYYaMKPjA", "review_count": 5, "categories": [{"alias": "foodtrucks", "title": "Food Trucks"}, {"alias": "cafes", "title": "Cafes"}], "rating": 5.0, "coordinates": {"latitude": 41.3783548485934, "longitude": -71.5497396899248}, "transactions": [], "location": {"address1": "344 Main St", "address2": "", "address3": null, "city": "Wakefield", "zip_code": "02879", "country": "US", "state": "RI", "display_address": ["344 Main St", "Wakefield, RI 02879"]}, "phone": "+14017936041", "display_phone": "(401) 793-6041", "distance": 24108.970503100372}]