[{"id": "m5RLHsmP10ndwlHViypFtQ", "alias": "lucky-dog-tavern-north-smithfield", "name": "Lucky Dog Tavern", "image_url": "https://s3-media1.fl.yelpcdn.com/bphoto/B1GtVbmAsSqv7LIKsziFkQ/o.jpg", "is_closed": false, "url": "https://www.yelp.com/biz/lucky-dog-tavern-north-smithfield?adjust_creative=pzvBKuEUl0Vl1jtHQqJaog&utm_campaign=yelp_api_v3&utm_medium=api_v3_business_search&utm_source=pzvBKuEUl0Vl1jtHQqJaog", "review_count": 123, "categories": [{"alias": "tradamerican", "title": "American (Traditional)"}, {"alias": "seafood", "title": "Seafood"}, {"alias": "burgers", "title": "Burgers"}], "rating": 4.5, "coordinates": {"latitude": 42.0001733244128, "longitude": -71.570336091304}, "transactions": [], "price": "$$", "location": {"address1": "82 School St", "address2": "", "address3": null, "city": "North Smithfield", "zip_code": "02896", "country": "US", "state": "RI", "display_address": ["82 School St", "North Smithfield, RI 02896"]}, "phone": "+14014884777", "display_phone": "(401) 488-4777", "distance": 487.3760162397523}, {"id": "TSUFpu2DVh1D5l-9bU0TFw", "alias": "lindys-tavern-forestdale", "name": "Lindy's Tavern", "image_url": "https://s3-media4.fl.yelpcdn.com/bphoto/UTfKQo-bEPIzETtyKio33g/o.jpg", "is_closed": false, "url": "https://www.yelp.com/biz/lindys-tavern-forestdale?adjust_creative=pzvBKuEUl0Vl1jtHQqJaog&utm_campaign=yelp_api_v3&utm_medium=api_v3_business_search&utm_source=pzvBKuEUl0Vl1jtHQqJaog", "review_count": 252, "categories": [{"alias": "seafood", "title": "Seafood"}, {"alias": "bars", "title": "Bars"}, {"alias": "salad", "title": "Salad"}], "rating": 4.0, "coordinates": {"latitude": 41.99935667, "longitude": -71.56814667}, "transactions": [], "price": "$$", "location": {"address1": "98 School St", "address2": null, "address3": null, "city": "Forestdale", "zip_code": "02824", "country": "US", "state": "RI", "display_address": ["98 School St", "Forestdale, RI 02824"]}, "phone": "+14013561966", "display_phone": "(401) 356-1966", "distance": 284.5150558282724}, {"id": "lcP4rb76-ymxAdtLJGVRqw", "alias": "the-village-haven-forestdale", "name": "The Village Haven", "image_url": "https://s3-media3.fl.yelpcdn.com/bphoto/L0ide9UMs7XtAWWNnKaCjw/o.jpg", "is_closed": false, "url": "https://www.yelp.com/biz/the-village-haven-forestdale?adjust_creative=pzvBKuEUl0Vl1jtHQqJaog&utm_campaign=yelp_api_v3&utm_medium=api_v3_business_search&utm_source=pzvBKuEUl0Vl1jtHQqJaog", "review_count": 73, "categories": [{"alias": "tradamerican", "title": "American (Traditional)"}], "rating": 4.0, "coordinates": {"latitude": 41.999786, "longitude": -71.569072}, "transactions": [], "price": "$$", "location": {"address1": "90 School St", "address2": "", "address3": "", "city": "Forestdale", "zip_code": "02824", "country": "US", "state": "RI", "display_address": ["90 School St", "Forestdale, RI 02824"]}, "phone": "+14017624242", "display_phone": "(401) 762-4242", "distance": 375.1432881591266}, {"id": "dEdKXuVRx8FMoi1MlXIvMw", "alias": "tavern-6-two-1-north-smithfield", "name": "Tavern 6 Two 1", "image_url": "https://s3-media4.fl.yelpcdn.com/bphoto/N1b7itR_OkZJFWh_DIdXsw/o.jpg", "is_closed": false, "url": "https://www.yelp.com/biz/tavern-6-two-1-north-smithfield?adjust_creative=pzvBKuEUl0Vl1jtHQqJaog&utm_campaign=yelp_api_v3&utm_medium=api_v3_business_search&utm_source=pzvBKuEUl0Vl1jtHQqJaog", "review_count": 47, "categories": [{"alias": "pizza", "title": "Pizza"}, {"alias": "tradamerican", "title": "American (Traditional)"}, {"alias": "sportsbars", "title": "Sports Bars"}], "rating": 4.5, "coordinates": {"latitude": 41.989519164815, "longitude": -71.5571130786062}, "transactions": [], "price": "$$", "location": {"address1": "621 Pound Hill Rd", "address2": "", "address3": null, "city": "North Smithfield", "zip_code": "02896", "country": "US", "state": "RI", "display_address": ["621 Pound Hill Rd", "North Smithfield, RI 02896"]}, "phone": "+14012499333", "display_phone": "(401) 249-9333", "distance": 1218.3707250794916}, {"id": "a-Bj8NJQ_yvMG7vPe4HX1A", "alias": "coffee-and-cream-north-smithfield-3", "name": "Coffee & Cream", "image_url": "https://s3-media1.fl.yelpcdn.com/bphoto/VvoVaUe4zoI6y3wKtLkqXw/o.jpg", "is_closed": false, "url": "https://www.yelp.com/biz/coffee-and-cream-north-smithfield-3?adjust_creative=pzvBKuEUl0Vl1jtHQqJaog&utm_campaign=yelp_api_v3&utm_medium=api_v3_business_search&utm_source=pzvBKuEUl0Vl1jtHQqJaog", "review_count": 8, "categories": [{"alias": "breakfast_brunch", "title": "Breakfast & Brunch"}, {"alias": "coffee", "title": "Coffee & Tea"}], "rating": 3.5, "coordinates": {"latitude": 42.0051, "longitude": -71.5856228}, "transactions": [], "location": {"address1": "900 Victory Hwy", "address2": "", "address3": null, "city": "North Smithfield", "zip_code": "02876", "country": "US", "state": "RI", "display_address": ["900 Victory Hwy", "North Smithfield, RI 02876"]}, "phone": "+14014884448", "display_phone": "(401) 488-4448", "distance": 1861.6275497387176}, {"id": "Y28Jxm3fl0O__uK90Jzj4A", "alias": "hercules-beef-wings-and-pizza-north-smithfield", "name": "Hercules Beef, Wings & Pizza", "image_url": "https://s3-media1.fl.yelpcdn.com/bphoto/KGlnJkfJ_eysQgKjf6JVKg/o.jpg", "is_closed": false, "url": "https://www.yelp.com/biz/hercules-beef-wings-and-pizza-north-smithfield?adjust_creative=pzvBKuEUl0Vl1jtHQqJaog&utm_campaign=yelp_api_v3&utm_medium=api_v3_business_search&utm_source=pzvBKuEUl0Vl1jtHQqJaog", "review_count": 4, "categories": [{"alias": "pizza", "title": "Pizza"}, {"alias": "chicken_wings", "title": "Chicken Wings"}, {"alias": "sandwiches", "title": "Sandwiches"}], "rating": 3.5, "coordinates": {"latitude": 42.000133, "longitude": -71.579853}, "transactions": [], "location": {"address1": "7 Main St", "address2": null, "address3": "", "city": "North Smithfield", "zip_code": "02896", "country": "US", "state": "RI", "display_address": ["7 Main St", "North Smithfield, RI 02896"]}, "phone": "+14017661111", "display_phone": "(401) 766-1111", "distance": 1260.711215451695}, {"id": "xSuPdhkcXrSOGW0baJH6WQ", "alias": "quik-stop-deli-north-smithfield", "name": "Quik Stop Deli", "image_url": "https://s3-media3.fl.yelpcdn.com/bphoto/sXXpgxFE1R4mf0Ef2-Q_BQ/o.jpg", "is_closed": false, "url": "https://www.yelp.com/biz/quik-stop-deli-north-smithfield?adjust_creative=pzvBKuEUl0Vl1jtHQqJaog&utm_campaign=yelp_api_v3&utm_medium=api_v3_business_search&utm_source=pzvBKuEUl0Vl1jtHQqJaog", "review_count": 16, "categories": [{"alias": "delis", "title": "Delis"}], "rating": 4.5, "coordinates": {"latitude": 42.0006, "longitude": -71.57955}, "transactions": [], "price": "$", "location": {"address1": "11 Main St", "address2": "", "address3": "", "city": "North Smithfield", "zip_code": "02896", "country": "US", "state": "RI", "display_address": ["11 Main St", "North Smithfield, RI 02896"]}, "phone": "+14017653227", "display_phone": "(401) 765-3227", "distance": 1294.8977587264064}, {"id": "rpaUYCqcAQ041wpNsocuFw", "alias": "yama-fuji-north-smithfield-2", "name": "Yama Fuji", "image_url": "https://s3-media1.fl.yelpcdn.com/bphoto/hosPRo6JNWhK5ZqmdYREgg/o.jpg", "is_closed": false, "url": "https://www.yelp.com/biz/yama-fuji-north-smithfield-2?adjust_creative=pzvBKuEUl0Vl1jtHQqJaog&utm_campaign=yelp_api_v3&utm_medium=api_v3_business_search&utm_source=pzvBKuEUl0Vl1jtHQqJaog", "review_count": 74, "categories": [{"alias": "japanese", "title": "Japanese"}, {"alias": "sushi", "title": "Sushi Bars"}], "rating": 3.5, "coordinates": {"latitude": 42.0050400107292, "longitude": -71.5855900175255}, "transactions": [], "price": "$$", "location": {"address1": "900 Victory Hwy", "address2": "Ste 3", "address3": "", "city": "North Smithfield", "zip_code": "02896", "country": "US", "state": "RI", "display_address": ["900 Victory Hwy", "Ste 3", "North Smithfield, RI 02896"]}, "phone": "+14015970885", "display_phone": "(401) 597-0885", "distance": 1856.6561416850127}, {"id": "reApOpm5y34rl_ycGtwckA", "alias": "firehouse-pizza-shop-ii-north-smithfield", "name": "Firehouse Pizza Shop II", "image_url": "https://s3-media2.fl.yelpcdn.com/bphoto/dUwegvBm80C-cKfRvTmtEw/o.jpg", "is_closed": false, "url": "https://www.yelp.com/biz/firehouse-pizza-shop-ii-north-smithfield?adjust_creative=pzvBKuEUl0Vl1jtHQqJaog&utm_campaign=yelp_api_v3&utm_medium=api_v3_business_search&utm_source=pzvBKuEUl0Vl1jtHQqJaog", "review_count": 15, "categories": [{"alias": "pizza", "title": "Pizza"}, {"alias": "sandwiches", "title": "Sandwiches"}], "rating": 3.0, "coordinates": {"latitude": 41.99982, "longitude": -71.55062}, "transactions": ["delivery"], "price": "$", "location": {"address1": "639 Great Rd", "address2": "", "address3": "", "city": "North Smithfield", "zip_code": "02896", "country": "US", "state": "RI", "display_address": ["639 Great Rd", "North Smithfield, RI 02896"]}, "phone": "+14017667171", "display_phone": "(401) 766-7171", "distance": 1177.1812295178102}, {"id": "YOB6sad0NztJdjK9mfSPSQ", "alias": "subway-north-smithfield-5", "name": "Subway", "image_url": "https://s3-media2.fl.yelpcdn.com/bphoto/_x6M3LTScaNbFBUf7idiiw/o.jpg", "is_closed": false, "url": "https://www.yelp.com/biz/subway-north-smithfield-5?adjust_creative=pzvBKuEUl0Vl1jtHQqJaog&utm_campaign=yelp_api_v3&utm_medium=api_v3_business_search&utm_source=pzvBKuEUl0Vl1jtHQqJaog", "review_count": 5, "categories": [{"alias": "sandwiches", "title": "Sandwiches"}], "rating": 4.5, "coordinates": {"latitude": 42.0050210413264, "longitude": -71.585678046627}, "transactions": [], "price": "$", "location": {"address1": "900 Victory Hwy", "address2": null, "address3": null, "city": "North Smithfield", "zip_code": "02896", "country": "US", "state": "RI", "display_address": ["900 Victory Hwy", "North Smithfield, RI 02896"]}, "phone": "+14017656400", "display_phone": "(401) 765-6400", "distance": 1862.657108830502}, {"id": "Io4C5tUwnb_YzeaMXHBqBA", "alias": "shuckin-truck-narragansett-2", "name": "Shuckin Truck", "image_url": "https://s3-media2.fl.yelpcdn.com/bphoto/r7QRORfe9UYVS7GGzUm9DQ/o.jpg", "is_closed": false, "url": "https://www.yelp.com/biz/shuckin-truck-narragansett-2?adjust_creative=pzvBKuEUl0Vl1jtHQqJaog&utm_campaign=yelp_api_v3&utm_medium=api_v3_business_search&utm_source=pzvBKuEUl0Vl1jtHQqJaog", "review_count": 24, "categories": [{"alias": "foodtrucks", "title": "Food Trucks"}, {"alias": "seafood", "title": "Seafood"}], "rating": 4.5, "coordinates": {"latitude": 41.4274482727051, "longitude": -71.4597778320313}, "transactions": [], "price": "$$", "location": {"address1": "", "address2": "", "address3": "", "city": "Narragansett", "zip_code": "02882", "country": "US", "state": "RI", "display_address": ["Narragansett, RI 02882"]}, "phone": "+14017415953", "display_phone": "(401) 741-5953", "distance": 67074.08802551805}, {"id": "usP9czUkDGcyC7CSseiMdw", "alias": "shuck-food-truck-boston-2", "name": "Shuck Food Truck", "image_url": "https://s3-media2.fl.yelpcdn.com/bphoto/vh62vEgAkPe1IC7D00fF2A/o.jpg", "is_closed": false, "url": "https://www.yelp.com/biz/shuck-food-truck-boston-2?adjust_creative=pzvBKuEUl0Vl1jtHQqJaog&utm_campaign=yelp_api_v3&utm_medium=api_v3_business_search&utm_source=pzvBKuEUl0Vl1jtHQqJaog", "review_count": 27, "categories": [{"alias": "foodtrucks", "title": "Food Trucks"}, {"alias": "seafood", "title": "Seafood"}, {"alias": "tradamerican", "title": "American (Traditional)"}], "rating": 4.5, "coordinates": {"latitude": 42.64758, "longitude": -71.32212}, "transactions": [], "location": {"address1": "", "address2": "", "address3": null, "city": "Boston", "zip_code": "01854", "country": "US", "state": "MA", "display_address": ["Boston, MA 01854"]}, "phone": "+19789446618", "display_phone": "(978) 944-6618", "distance": 73810.80768559256}, {"id": "324pp6avrBFbzw059DoHsA", "alias": "roadies-raleigh", "name": "Roadies", "image_url": "https://s3-media2.fl.yelpcdn.com/bphoto/3zJZmmgIOYrfKoAOp9Du1w/o.jpg", "is_closed": false, "url": "https://www.yelp.com/biz/roadies-raleigh?adjust_creative=pzvBKuEUl0Vl1jtHQqJaog&utm_campaign=yelp_api_v3&utm_medium=api_v3_business_search&utm_source=pzvBKuEUl0Vl1jtHQqJaog", "review_count": 10, "categories": [{"alias": "foodtrucks", "title": "Food Trucks"}, {"alias": "seafood", "title": "Seafood"}], "rating": 4.5, "coordinates": {"latitude": 35.67575, "longitude": -78.66424}, "transactions": [], "price": "$", "location": {"address1": "", "address2": null, "address3": "", "city": "Raleigh", "zip_code": "27603", "country": "US", "state": "NC", "display_address": ["Raleigh, NC 27603"]}, "phone": "+13476136489", "display_phone": "(347) 613-6489", "distance": 935319.4704472002}]